lat,lon,alt,roll,pitch,yaw,vn,ve,vf,vl,vu,ax,ay,az,af,al,au,wx,wy,wz,wf,wl,wu,pos_accuracy,vel_accuracy,navstat,numsats,posmode,velmode,orimode,time
34.525448476,108.426022343,0.0,-0.04485496177625427,-0.028274333882308142,-2.7358036025011114,0.0,0.0,0.611,0.051,0.0,0.0,0.0,0.0,0.0,0.0,0.0,-0.0686,0.01,0.0366,-0.0686,0.01,0.0,0.0,0.0,0.0,0.0,0.0,0.0,0.0,0.0
34.525448206,108.426021736,0.0,-0.05113814708343386,-0.02775073510670984,-2.732836542772721,0.0,0.0,0.605,0.051,0.0,-0.059130148329515964,0.017570594864305848,-0.0052228471336862444,-0.059130148329515964,0.017570594864305848,-0.0052228471336862444,-0.06,0.0,0.0281,-0.06,0.0,0.0,0.0,0.0,0.0,0.0,0.0,0.0,0.10400000000004184,0.10400000000004184
34.525447947,108.426021157,0.0,-0.056025068989017976,-0.027052603405912107,-2.7307421476703277,-0.2762631228303429,-0.511146020842512,0.602,0.051,0.0,-0.031069818606139492,0.012889960855777788,-0.005971543854486734,-0.031069818606139492,0.012889960855777788,-0.005971543854486734,-0.0431,0.01,0.0183,-0.0431,0.01,0.0,0.0,0.0,0.0,0.0,0.0,0.0,0.20400000000000773,0.20400000000000773
34.525447416,108.426020001,0.0,-0.058643062867009474,-0.02426007660272118,-2.727775087941938,-0.5890484427008986,-1.0613474906595641,0.595,0.056,0.0,-0.03506871130258456,0.0337323024591054,-0.008350337027729538,-0.03506871130258456,0.0337323024591054,-0.008350337027729538,-0.0005,0.02,0.019,-0.0005,0.02,0.0,0.0,0.0,0.0,0.0,0.0,0.0,0.40800000000001546,0.40800000000001546
34.525447153,108.426019436,0.0,-0.059864793343405505,-0.022689280275926284,-2.7253316269891457,-0.14301515248283767,-0.2542834105507088,0.592,0.057,0.0,-0.03139209321401261,0.025069638250331573,-0.009113378793869992,-0.03139209321401261,0.025069638250331573,-0.009113378793869992,-0.0173,0.01,0.0284,-0.0173,0.01,0.0,0.0,0.0,0.0,0.0,0.0,0.0,0.5080000000000382,0.5080000000000382
34.525446886,108.426018873,0.0,-0.06440264939859076,-0.022165681500327987,-2.7218409684851568,-0.2961881943253065,-0.5169019574147489,0.594,0.06,0.0,0.018033389482376226,0.0508252409214122,-0.004306727911499632,0.018033389482376226,0.0508252409214122,-0.004306727911499632,-0.0534,0.0,0.0365,-0.0534,0.0,0.0,0.0,0.0,0.0,0.0,0.0,0.0,0.6080000000000041,0.6080000000000041
34.525446614,108.426018308,0.0,-0.07260569688296412,-0.02234021442552742,-2.71800124413077,-0.30173477644917035,-0.5187381808220086,0.596,0.061,0.0,0.017752123640200308,0.03269123421244406,-0.002182851885684959,0.017752123640200308,0.03269123421244406,-0.002182851885684959,-0.092,-0.01,0.0387,-0.092,-0.01,0.0,0.0,0.0,0.0,0.0,0.0,0.0,0.7080000000000268,0.7080000000000268
34.525446045,108.426017148,0.0,-0.09965830028887622,-0.02303834612632515,-2.71171805882359,-0.631202530166271,-1.0650200111033996,0.607,0.064,0.0,0.052637793953553565,0.03320361014927695,-0.004231819032918034,0.052637793953553565,0.03320361014927695,-0.004231819032918034,-0.1536,-0.0,0.0254,-0.1536,-0.0,0.0,0.0,0.0,0.0,0.0,0.0,0.0,0.910000000000025,0.910000000000025
34.525446194,108.426015971,0.0,-0.11588986233242347,-0.021467549799530253,-2.7094491307959974,0.08182604481254212,-0.5349643706892959,0.614,0.067,0.0,0.06847851252149428,0.044864578578345075,-0.018235459165798083,0.06847851252149428,0.044864578578345075,-0.018235459165798083,-0.1632,0.02,0.0235,-0.1632,0.02,0.0,0.0,0.0,0.0,0.0,0.0,0.0,1.0100000000000477,1.0100000000000477
34.525445901,108.426015388,0.0,-0.13194689145077132,-0.01815142422074103,-2.707005669843205,-0.3250304671734549,-0.5352643703819664,0.623,0.07,0.0,0.08816931080838424,0.04763636160630154,-0.02893904983521988,0.08816931080838424,0.04763636160630154,-0.02893904983521988,-0.1591,0.03,0.0327,-0.1591,0.03,0.0,0.0,0.0,0.0,0.0,0.0,0.0,1.1100000000000136,1.1100000000000136
34.5254456,108.426014804,0.0,-0.1473057888683214,-0.013788101090755204,-2.7031659454888177,-0.33390502083343,-0.5361825071442202,0.627,0.075,0.0,0.03703920837748878,0.07773706878169274,-0.034092835118013205,0.03703920837748878,0.07773706878169274,-0.034092835118013205,-0.1504,0.04,0.0465,-0.1504,0.04,0.0,0.0,0.0,0.0,0.0,0.0,0.0,1.2100000000000364,1.2100000000000364
34.525444946,108.426013565,0.0,-0.17505652397503124,-0.004537856055185257,-2.693392101677649,-0.7254946077943002,-1.13755158102256,0.659,0.079,0.0,0.1530876027480863,0.054300734297857395,-0.03294857061235873,0.1530876027480863,0.054300734297857395,-0.03294857061235873,-0.1306,0.03,0.0589,-0.1306,0.03,0.0,0.0,0.0,0.0,0.0,0.0,0.0,1.414000000000044,1.414000000000044
34.525444613,108.426012946,0.0,-0.18709929581379214,-0.0006981317007977319,-2.688156113921666,-0.18108000646235306,-0.27858663685145973,0.672,0.083,0.0,0.12553742493859898,0.07867985041277115,-0.027953156139447346,0.12553742493859898,0.07867985041277115,-0.027953156139447346,-0.1152,0.03,0.0549,-0.1152,0.03,0.0,0.0,0.0,0.0,0.0,0.0,0.0,1.51400000000001,1.51400000000001
34.525444272,108.426012319,0.0,-0.1975712713257581,0.0027925268031909274,-2.68396732371688,-0.37827776497467125,-0.5756617144509621,0.684,0.085,0.0,0.11614498400061891,0.05226034892252237,-0.026175807897668477,0.11614498400061891,0.05226034892252237,-0.026175807897668477,-0.1007,0.03,0.0482,-0.1007,0.03,0.0,0.0,0.0,0.0,0.0,0.0,0.0,1.6140000000000327,1.6140000000000327
34.52544392,108.426011675,0.0,-0.20612338466053032,0.006981317007977318,-2.6801275993624927,-0.39048027546964575,-0.5912697675488009,0.703,0.086,0.0,0.1862113603350819,0.04161169986216452,-0.029960737475280004,0.1862113603350819,0.04161169986216452,-0.029960737475280004,-0.0816,0.03,0.0461,-0.0816,0.03,0.0,0.0,0.0,0.0,0.0,0.0,0.0,1.7139999999999986,1.7139999999999986
34.525443156,108.426010305,0.0,-0.2155481626212997,0.01815142422074103,-2.6680848275237317,-0.8475196625530372,-1.2578254478687005,0.741,0.089,0.0,0.18169776716674857,0.0638500725792768,-0.032944455499284174,0.18169776716674857,0.0638500725792768,-0.032944455499284174,-0.0092,0.03,0.0652,-0.0092,0.03,0.0,0.0,0.0,0.0,0.0,0.0,0.0,1.91700000000003,1.91700000000003
34.525440343,108.42600614,0.0,-0.21415189921970423,0.02111848394913139,-2.661801642216552,-1.5371990924431918,-1.8837306579036768,0.765,0.094,0.0,0.23415258537481046,0.1001799483557238,-0.010459629622134002,0.23415258537481046,0.1001799483557238,-0.010459629622134002,0.0203,0.01,0.0678,0.0203,0.01,0.0,0.0,0.0,0.0,0.0,0.0,0.0,2.016999999999996,2.016999999999996
34.525439941,108.426005443,0.0,-0.20996310901491783,0.022863813201125717,-2.655692989834572,-0.4459461683836441,-0.6399302450339335,0.775,0.095,0.0,0.0941961113198188,0.0585031823936864,0.0004922068593375822,0.0941961113198188,0.0585031823936864,0.0004922068593375822,0.0479,0.0,0.0625,0.0479,0.0,0.0,0.0,0.0,0.0,0.0,0.0,0.0,2.1170000000000186,2.1170000000000186
34.52543953,108.426004736,0.0,-0.20280725908174108,0.023736477827122883,-2.6499334033029904,-0.45593005186989904,-0.6491114292116674,0.788,0.095,0.0,0.12460865463261533,0.04511139249662764,0.009038153116415976,0.12460865463261533,0.04511139249662764,0.009038153116415976,0.0773,-0.0,0.0558,0.0773,-0.0,0.0,0.0,0.0,0.0,0.0,0.0,0.0,2.2170000000000414,2.2170000000000414
34.525438656,108.426003248,0.0,-0.17941984710501707,0.025132741228718343,-2.6392868948658252,-0.9695446668926426,-1.3661638555102475,0.82,0.095,0.0,0.15284876563279062,0.041769963636085206,0.012868946797034724,0.15284876563279062,0.041769963636085206,0.012868946797034724,0.1383,-0.0,0.0563,0.1383,-0.0,0.0,0.0,0.0,0.0,0.0,0.0,0.0,2.420000000000016,2.420000000000016
34.52543821,108.426002494,0.0,-0.16353735091186866,0.025830872929516076,-2.6330037095586456,-0.24372226318558013,-0.3410163235388865,0.845,0.095,0.0,0.24417410209781748,0.05188596552089435,0.017678076546292398,0.24417410209781748,0.05188596552089435,0.017678076546292398,0.1647,-0.01,0.0641,0.1647,-0.01,0.0,0.0,0.0,0.0,0.0,0.0,0.0,2.5200000000000387,2.5200000000000387
34.525437752,108.426001726,0.0,-0.14521139376592823,0.025656340004316644,-2.6261969254758677,-0.5080680192236507,-0.7051168593644115,0.864,0.094,0.0,0.18384463693253728,0.046856201814148554,0.02703019471788108,0.18384463693253728,0.046856201814148554,0.02703019471788108,0.1856,-0.01,0.0691,0.1856,-0.01,0.0,0.0,0.0,0.0,0.0,0.0,0.0,2.6200000000000045,2.6200000000000045
34.525437281,108.426000944,0.0,-0.12601277199399058,0.024783675378319478,-2.6188665426174915,-0.5224891546523952,-0.7179705490025541,0.883,0.095,0.0,0.18353799571777774,0.07205664426999366,0.033320753804956194,0.18353799571777774,0.07205664426999366,0.033320753804956194,0.1887,-0.02,0.0699,0.1887,-0.02,0.0,0.0,0.0,0.0,0.0,0.0,0.0,2.7200000000000273,2.7200000000000273
34.525436283,108.425999319,0.0,-0.09389871375729493,0.02129301687433082,-2.6052529744519353,-1.1071001441985975,-1.4919465109592527,0.911,0.094,0.0,0.13224681282924525,0.05286138043593996,0.0355693642291749,0.13224681282924525,0.05286138043593996,0.0355693642291749,0.1386,-0.02,0.0625,0.1386,-0.02,0.0,0.0,0.0,0.0,0.0,0.0,0.0,2.923000000000002,2.923000000000002
34.525436658,108.42599433,0.0,-0.08237954069413235,0.02007128639793479,-2.598969789144756,0.2049240490528279,-2.2564061438642646,0.918,0.094,0.0,0.06441523298877189,0.056194994566098486,0.02651542575773558,0.06441523298877189,0.056194994566098486,0.02651542575773558,0.1055,-0.02,0.062,0.1055,-0.02,0.0,0.0,0.0,0.0,0.0,0.0,0.0,3.0230000000000246,3.0230000000000246
34.525436147,108.425993519,0.0,-0.07417649320975901,0.01937315469713706,-2.5925120709123775,-0.5668618643585631,-0.7445961007611851,0.931,0.095,0.0,0.12419905035414953,0.06868109082505482,0.018381888277315656,0.12419905035414953,0.06868109082505482,0.018381888277315656,0.0744,-0.01,0.066,0.0744,-0.01,0.0,0.0,0.0,0.0,0.0,0.0,0.0,3.1230000000000473,3.1230000000000473
34.525435625,108.425992702,0.0,-0.06824237375297829,0.019024088846738195,-2.5853562209792003,-0.5790643608584449,-0.750104842370674,0.943,0.095,0.0,0.11348530407902828,0.06627092794585022,0.013298416978622997,0.11348530407902828,0.06627092794585022,0.013298416978622997,0.054,-0.01,0.0725,0.054,-0.01,0.0,0.0,0.0,0.0,0.0,0.0,0.0,3.223000000000013,3.223000000000013
34.525434508,108.425990993,0.0,-0.05969026041820607,0.017976891295541596,-2.569473724786052,-1.2391089961047947,-1.5690688220572357,0.979,0.095,0.0,0.1705475910448051,0.07341486257335306,0.013138758175712166,0.1705475910448051,0.07341486257335306,0.013138758175712166,0.0313,-0.01,0.0792,0.0313,-0.01,0.0,0.0,0.0,0.0,0.0,0.0,0.0,3.4260000000000446,3.4260000000000446
34.525433948,108.425990151,0.0,-0.05759586531581287,0.01710422666954443,-2.561968809002477,-0.306018941915721,-0.38081670340113094,0.987,0.096,0.0,0.07321290873731014,0.08287481068011528,0.014631839553796794,0.07321290873731014,0.08287481068011528,0.014631839553796794,0.0162,-0.01,0.0735,0.0162,-0.01,0.0,0.0,0.0,0.0,0.0,0.0,0.0,3.5260000000000105,3.5260000000000105
34.525433377,108.425989308,0.0,-0.05689773361501514,0.016406094968746697,-2.5549874919944986,-0.6334209585141377,-0.7739760535205706,0.996,0.099,0.0,0.08359142311413228,0.09841460858900014,0.011362756630212807,0.08359142311413228,0.09841460858900014,0.011362756630212807,0.0002,-0.01,0.0672,0.0002,-0.01,0.0,0.0,0.0,0.0,0.0,0.0,0.0,3.626000000000033,3.626000000000033
34.525432796,108.425988466,0.0,-0.05846852994181004,0.016231562043547264,-2.5485297737621195,-0.6445141622517281,-0.7730579332032069,1.001,0.102,0.0,0.0438356686592404,0.09411999565251239,0.0038390441863700043,0.0438356686592404,0.09411999565251239,0.0038390441863700043,-0.0209,-0.0,0.0654,-0.0209,-0.0,0.0,0.0,0.0,0.0,0.0,0.0,0.0,3.725999999999999,3.725999999999999
34.525431557,108.425986728,0.0,-0.06597344572538566,0.016929693744344994,-2.535265271446963,-1.374445840427301,-1.5956944745784154,1.032,0.108,0.0,0.14647131110257214,0.09509733139117965,-0.002997158507811357,0.14647131110257214,0.09509733139117965,-0.002997158507811357,-0.0398,0.0,0.0679,-0.0398,0.0,0.0,0.0,0.0,0.0,0.0,0.0,0.0,3.9290000000000305,3.9290000000000305
34.525432633,108.425981688,0.0,-0.06963863715457375,0.017453292519943295,-2.528283954438986,0.5879946427411216,-2.2794721717762108,1.042,0.108,0.0,0.09269330917182818,0.07227156123824259,-0.004461758141831727,0.09269330917182818,0.07227156123824259,-0.004461758141831727,-0.0374,0.0,0.0699,-0.0374,0.0,0.0,0.0,0.0,0.0,0.0,0.0,0.0,4.028999999999996,4.028999999999996
34.525432,108.425980822,0.0,-0.07382742735936015,0.017976891295541596,-2.521302637431008,-0.7021986720300007,-0.7950929204413762,1.055,0.11,0.0,0.12269562584670218,0.09297411926850642,-0.00472909093858034,0.12269562584670218,0.09297411926850642,-0.00472909093858034,-0.047,-0.0,0.0707,-0.047,-0.0,0.0,0.0,0.0,0.0,0.0,0.0,0.0,4.129000000000019,4.129000000000019
34.525431355,108.425979953,0.0,-0.07906341511534314,0.01815142422074103,-2.5144958533482304,-0.7155104965936004,-0.7978473173856633,1.066,0.111,0.0,0.10276450930063788,0.08176142076521589,-0.0020537993153387935,0.10276450930063788,0.08176142076521589,-0.0020537993153387935,-0.0564,-0.0,0.0663,-0.0564,-0.0,0.0,0.0,0.0,0.0,0.0,0.0,0.0,4.229000000000042,4.229000000000042
34.525430015,108.425978186,0.0,-0.08499753457212385,0.01832595714594046,-2.5022785485842705,-1.4864869483743743,-1.6223201569995236,1.079,0.111,0.0,0.057765418193252226,0.06404034237725766,0.001175748224036939,0.057765418193252226,0.06404034237725766,0.001175748224036939,-0.0035,-0.0,0.0593,-0.0035,-0.0,0.0,0.0,0.0,0.0,0.0,0.0,0.0,4.432000000000016,4.432000000000016
34.525429347,108.425977316,0.0,-0.08272860654453122,0.018500490071139894,-2.4963444291274897,-0.36503685369023303,-0.39348052471987055,1.083,0.111,0.0,0.033611668832242314,0.06397648812151535,0.005815085751507165,0.033611668832242314,0.06397648812151535,0.005815085751507165,0.0268,-0.0,0.0586,0.0268,-0.0,0.0,0.0,0.0,0.0,0.0,0.0,0.0,4.532000000000039,4.532000000000039
34.525428674,108.425976445,0.0,-0.07853981633974483,0.018675022996339326,-2.490410309670709,-0.7465714063485897,-0.7996836046764113,1.089,0.11,0.0,0.053611580430646046,0.05423381928841123,0.007688660655432585,0.053611580430646046,0.05423381928841123,0.007688660655432585,0.0459,-0.0,0.0601,0.0459,-0.0,0.0,0.0,0.0,0.0,0.0,0.0,0.0,4.632000000000005,4.632000000000005
34.525427993,108.425975575,0.0,-0.07278022980816354,0.018675022996339326,-2.484127124363529,-0.7554459399459114,-0.7987654975704099,1.094,0.11,0.0,0.043325901325024195,0.06826919864696553,0.011186635128064304,0.043325901325024195,0.06826919864696553,0.011186635128064304,0.0575,-0.0,0.0625,0.0575,-0.0,0.0,0.0,0.0,0.0,0.0,0.0,0.0,4.732000000000028,4.732000000000028
34.525426585,108.4259738,0.0,-0.06091199089460211,0.018675022996339326,-2.472258885449968,-1.5619205607696698,-1.629665313346156,1.107,0.105,0.0,0.058005994350901764,0.03927237513327209,0.010212965473046213,0.058005994350901764,0.03927237513327209,0.010212965473046213,0.0543,-0.0,0.0586,0.0543,-0.0,0.0,0.0,0.0,0.0,0.0,0.0,0.0,4.935000000000002,4.935000000000002
34.525427553,108.425971396,0.0,-0.05637413483941684,0.018500490071139894,-2.4663247659931873,0.5289763529634951,-1.0872719532829076,1.11,0.104,0.0,0.023987974542133392,0.055494105347274635,0.010283739922741682,0.023987974542133392,0.055494105347274635,0.010283739922741682,0.0406,-0.0,0.0582,0.0406,-0.0,0.0,0.0,0.0,0.0,0.0,0.0,0.0,5.035000000000025,5.035000000000025
34.525426851,108.425970524,0.0,-0.05305800926062762,0.01815142422074103,-2.4605651794616055,-0.7787416140324327,-0.8006018183836039,1.113,0.101,0.0,0.024225723671030566,0.03364694281011998,0.010603345973843348,0.024225723671030566,0.03364694281011998,0.010603345973843348,0.0305,-0.01,0.0574,0.0305,-0.01,0.0,0.0,0.0,0.0,0.0,0.0,0.0,5.135000000000048,5.135000000000048
34.525426144,108.425969654,0.0,-0.05009094953223726,0.01780235837034216,-2.4546310600048247,-0.7842881982758414,-0.7987655686084554,1.115,0.099,0.0,0.014231215998062407,0.04577970675262412,0.010081025133661695,0.014231215998062407,0.04577970675262412,0.010081025133661695,0.0276,-0.01,0.0602,0.0276,-0.01,0.0,0.0,0.0,0.0,0.0,0.0,0.0,5.235000000000014,5.235000000000014
34.52542468,108.425967899,0.0,-0.045553093477052,0.016755160819145562,-2.441715623540067,-1.6240423352245592,-1.611303039642119,1.123,0.101,0.0,0.033605674178498954,0.08048741509184167,0.011092670046418864,0.033605674178498954,0.08048741509184167,0.011092670046418864,0.0181,-0.01,0.0651,0.0181,-0.01,0.0,0.0,0.0,0.0,0.0,0.0,0.0,5.438000000000045,5.438000000000045
34.525423953,108.425967038,0.0,-0.04415683007545653,0.016755160819145562,-2.4354324382328874,-0.3972781133860397,-0.38941012176933676,1.126,0.101,0.0,0.023883090650677886,0.0705016025292416,0.004422734888738975,0.023883090650677886,0.0705016025292416,0.004422734888738975,0.0137,-0.0,0.0625,0.0137,-0.0,0.0,0.0,0.0,0.0,0.0,0.0,0.0,5.538000000000011,5.538000000000011
34.525423219,108.425966182,0.0,-0.04293509959906051,0.016929693744344994,-2.429323785850907,-0.8142398016726139,-0.7859119409207442,1.126,0.102,0.0,-0.005960400331526339,0.07881364548099072,0.002122316927093813,-0.005960400331526339,0.07881364548099072,0.002122316927093813,0.0114,0.0,0.06,0.0114,0.0,0.0,0.0,0.0,0.0,0.0,0.0,0.0,5.638000000000034,5.638000000000034
34.525422483,108.425965331,0.0,-0.041189770347066175,0.017278759594743863,-2.423564199319326,-0.8164584326942412,-0.7813213708252587,1.126,0.101,0.0,-0.00569635625376741,0.05496836307376699,0.0004256297416286041,-0.00569635625376741,0.05496836307376699,0.0004256297416286041,0.0169,0.0,0.0573,0.0169,0.0,0.0,0.0,0.0,0.0,0.0,0.0,0.0,5.7379999999999995,5.7379999999999995
34.525420973,108.425963624,0.0,-0.038397243543875255,0.016406094968746697,-2.412219559181363,-1.6750709614822263,-1.5672334020109628,1.126,0.101,0.0,-0.005261908429363767,0.06271671456266843,0.008555971515269387,-0.005261908429363767,0.06271671456266843,0.008555971515269387,0.0082,-0.01,0.0569,0.0082,-0.01,0.0,0.0,0.0,0.0,0.0,0.0,0.0,5.941000000000031,5.941000000000031
34.525421475,108.425962913,0.0,-0.038397243543875255,0.015009831567151233,-2.4064599726497815,0.2743244205089764,-0.3215683119298061,1.127,0.101,0.0,0.00443960956494555,0.06420884257129968,0.01811562834515966,0.00443960956494555,0.06420884257129968,0.01811562834515966,-0.0049,-0.02,0.0563,-0.0049,-0.02,0.0,0.0,0.0,0.0,0.0,0.0,0.0,6.040999999999997,6.040999999999997
34.525420721,108.425962082,0.0,-0.04014257279586958,0.013788101090755204,-2.4007003861182006,-0.8364261583644217,-0.7629590088951081,1.129,0.102,0.0,0.01443034945749602,0.07431604270828492,0.014522695551844152,0.01443034945749602,0.07431604270828492,0.014522695551844152,-0.0233,-0.01,0.0578,-0.0233,-0.01,0.0,0.0,0.0,0.0,0.0,0.0,0.0,6.1410000000000196,6.1410000000000196
34.525419961,108.425961254,0.0,-0.04415683007545653,0.012915436464758038,-2.394940799586619,-0.8430820847306767,-0.7602046541232047,1.13,0.102,0.0,0.004357714825938306,0.06454600437752099,0.008545620910025045,0.004357714825938306,0.06454600437752099,0.008545620910025045,-0.0456,-0.01,0.0577,-0.0456,-0.01,0.0,0.0,0.0,0.0,0.0,0.0,0.0,6.241000000000042,6.241000000000042
34.525418406,108.425959589,0.0,-0.05846852994181004,0.012740903539558606,-2.383596159448656,-1.7249902865399167,-1.5286724719268274,1.132,0.099,0.0,0.004520176444441916,0.04828478262538746,-0.0025973572608783764,0.004520176444441916,0.04828478262538746,-0.0025973572608783764,-0.0841,-0.0,0.0535,-0.0841,-0.0,0.0,0.0,0.0,0.0,0.0,0.0,0.0,6.444000000000017,6.444000000000017
34.525417635,108.425958769,0.0,-0.06719517620178168,0.012740903539558606,-2.3787092375430716,-0.42132244523073015,-0.3708668672356496,1.134,0.098,0.0,0.015305766936200373,0.04524030649032019,-0.004984275399947427,0.015305766936200373,0.04524030649032019,-0.004984275399947427,-0.0897,-0.0,0.0495,-0.0897,-0.0,0.0,0.0,0.0,0.0,0.0,0.0,0.0,6.54400000000004,6.54400000000004
34.52541686,108.425957952,0.0,-0.07714355293814937,0.013089969389957472,-2.3739968485626872,-0.859721833232827,-0.7501053868829892,1.137,0.098,0.0,0.025496295248122587,0.05364000338636427,-0.009635846857795135,0.025496295248122587,0.05364000338636427,-0.009635846857795135,-0.1035,-0.0,0.0462,-0.1035,-0.0,0.0,0.0,0.0,0.0,0.0,0.0,0.0,6.6440000000000055,6.6440000000000055
34.525416079,108.425957135,0.0,-0.08761552845011533,0.013264502315156905,-2.369458992507502,-0.8663777558463461,-0.7501054120457322,1.142,0.096,0.0,0.04567055945197068,0.03163087705007342,-0.007781351798198537,0.04567055945197068,0.03163087705007342,-0.007781351798198537,-0.1066,-0.0,0.0445,-0.1066,-0.0,0.0,0.0,0.0,0.0,0.0,0.0,0.0,6.744000000000028,6.744000000000028
34.525413332,108.425952574,0.0,-0.10716321607245183,0.014137166941154071,-2.3602087474719315,-3.047296812496172,-4.187552017759451,1.145,0.099,0.0,0.010627745843391443,0.06714949692382884,-0.00861566367455525,0.010627745843391443,0.06714949692382884,-0.00861566367455525,-0.0967,0.0,0.0499,-0.0967,0.0,0.0,0.0,0.0,0.0,0.0,0.0,0.0,6.947000000000003,6.947000000000003
34.525412538,108.425951772,0.0,-0.11711159280881951,0.0153588974175501,-2.354972759715949,-0.4338910628477206,-0.36272594073937375,1.148,0.101,0.0,0.02488281633386641,0.08123327475350989,-0.016813047075849904,0.02488281633386641,0.08123327475350989,-0.016813047075849904,-0.0993,0.01,0.0543,-0.0993,0.01,0.0,0.0,0.0,0.0,0.0,0.0,0.0,7.0470000000000255,7.0470000000000255
34.525411736,108.42595097,0.0,-0.12583823906879116,0.016755160819145562,-2.3495622390347664,-0.8896734225211065,-0.7363337090133029,1.151,0.101,0.0,0.02458796839176001,0.06368019372320272,-0.017008481326118777,0.02458796839176001,0.06368019372320272,-0.017008481326118777,-0.0832,0.01,0.0552,-0.0832,0.01,0.0,0.0,0.0,0.0,0.0,0.0,0.0,7.147000000000048,7.147000000000048
34.525410929,108.425950173,0.0,-0.1324704902263696,0.01832595714594046,-2.3441517183535843,-0.8952199973673743,-0.7317431149084209,1.152,0.102,0.0,0.004562991190998574,0.07414665565768667,-0.016490820125287315,0.004562991190998574,0.07414665565768667,-0.016490820125287315,-0.0609,0.01,0.055,-0.0609,0.01,0.0,0.0,0.0,0.0,0.0,0.0,0.0,7.247000000000014,7.247000000000014
34.525409266,108.425948575,0.0,-0.1387536755335492,0.02111848394913139,-2.334901473318014,-1.8447966405377767,-1.4671587977283926,1.156,0.107,0.0,0.015177780288429567,0.07883503486582892,-0.01168304612070088,0.015177780288429567,0.07883503486582892,-0.01168304612070088,-0.0178,0.01,0.0442,-0.0178,0.01,0.0,0.0,0.0,0.0,0.0,0.0,0.0,7.4500000000000455,7.4500000000000455
34.525408442,108.425947787,0.0,-0.13945180723434694,0.02199114857512855,-2.3307126831132274,-0.4502849302568922,-0.35639412919548985,1.161,0.105,0.0,0.0455387533310141,0.029353518355522138,-0.004102901115863837,0.0455387533310141,0.029353518355522138,-0.004102901115863837,-0.0045,0.0,0.0423,-0.0045,0.0,0.0,0.0,0.0,0.0,0.0,0.0,0.0,7.550000000000011,7.550000000000011
34.525407614,108.425946996,0.0,-0.13753194505715316,0.022514747350726852,-2.3265238929084413,-0.9185156940901276,-0.7262344745335526,1.167,0.102,0.0,0.05567253108779143,0.019005060946856653,0.002564539240200183,0.05567253108779143,0.019005060946856653,0.002564539240200183,0.0294,-0.0,0.0428,0.0294,-0.0,0.0,0.0,0.0,0.0,0.0,0.0,0.0,7.650000000000034,7.650000000000034
34.525406776,108.425946202,0.0,-0.1308996938995747,0.022514747350726852,-2.321986036853256,-0.9296088697805356,-0.728988838854295,1.177,0.101,0.0,0.09553633243022652,0.04252194353371808,0.013575155573741282,0.09553633243022652,0.04252194353371808,0.013575155573741282,0.0743,-0.01,0.0456,0.0743,-0.01,0.0,0.0,0.0,0.0,0.0,0.0,0.0,7.75,7.75
34.52540581,108.425943723,0.0,-0.1090830782496456,0.022514747350726852,-2.3129103247428855,-1.0716005181212398,-2.276023058765441,1.186,0.096,0.0,0.04009790490598219,0.027799759283287928,0.016486812992699322,0.04009790490598219,0.027799759283287928,0.016486812992699322,0.1261,-0.01,0.0423,0.1261,-0.01,0.0,0.0,0.0,0.0,0.0,0.0,0.0,7.953000000000031,7.953000000000031
34.525404963,108.425942926,0.0,-0.09546951008408983,0.02234021442552742,-2.309070600388498,-0.4628535578308712,-0.36046466696003504,1.187,0.091,0.0,0.006442486001736202,-0.004782578851315505,0.019389313691464787,0.006442486001736202,-0.004782578851315505,0.019389313691464787,0.1372,-0.0,0.0374,0.1372,-0.0,0.0,0.0,0.0,0.0,0.0,0.0,0.0,8.052999999999997,8.052999999999997
34.525404114,108.425942129,0.0,-0.08133234314293576,0.022514747350726852,-2.3055799418845093,-0.9418113592516623,-0.731743280556377,1.19,0.089,0.0,0.02689608238387984,0.021550416543024243,0.014095477370167808,0.02689608238387984,0.021550416543024243,0.014095477370167808,0.1386,-0.0,0.0342,0.1386,-0.0,0.0,0.0,0.0,0.0,0.0,0.0,0.0,8.15300000000002,8.15300000000002
34.52540326,108.425941333,0.0,-0.06841690667817772,0.022165681500327987,-2.302089283380521,-0.9473579453992964,-0.7308251968519678,1.193,0.088,0.0,0.027002767797212727,0.031225627240621927,0.01841071209825324,0.027002767797212727,0.031225627240621927,0.01841071209825324,0.1256,-0.01,0.0342,0.1256,-0.01,0.0,0.0,0.0,0.0,0.0,0.0,0.0,8.253000000000043,8.253000000000043
34.525401514,108.42593972,0.0,-0.04991641660703782,0.020245819323134222,-2.2952824992977425,-1.9368699589253195,-1.4809309700340565,1.197,0.086,0.0,0.016965032111565744,0.029609869871412918,0.021227031788011105,0.016965032111565744,0.029609869871412918,0.021227031788011105,0.0672,-0.02,0.0334,0.0672,-0.02,0.0,0.0,0.0,0.0,0.0,0.0,0.0,8.456000000000017,8.456000000000017
34.525400649,108.425938926,0.0,-0.045029494701453704,0.01884955592153876,-2.2919663737189535,-0.47268986905014254,-0.3591078840460268,1.202,0.086,0.0,0.047289562693045926,0.03890772416627677,0.022633138705278208,0.047289562693045926,0.03890772416627677,0.022633138705278208,0.0438,-0.01,0.031,0.0438,-0.01,0.0,0.0,0.0,0.0,0.0,0.0,0.0,8.55600000000004,8.55600000000004
34.525399781,108.425938133,0.0,-0.041189770347066175,0.01815142422074103,-2.2888247810653635,-0.9628883836371513,-0.7280708842891969,1.205,0.085,0.0,0.02739066587645251,0.02738786083844063,0.013193466153557477,0.02739066587645251,0.02738786083844063,0.013193466153557477,0.0369,-0.01,0.0315,0.0369,-0.01,0.0,0.0,0.0,0.0,0.0,0.0,0.0,8.656000000000006,8.656000000000006
34.525398912,108.425937336,0.0,-0.03804817769347639,0.017976891295541596,-2.2855086554865744,-0.9639976942914964,-0.7317433896172796,1.208,0.079,0.0,0.027256666554770742,-0.0201476226357724,0.006242405726610115,0.027256666554770742,-0.0201476226357724,0.006242405726610115,0.0272,-0.0,0.0336,0.0272,-0.0,0.0,0.0,0.0,0.0,0.0,0.0,0.0,8.756000000000029,8.756000000000029
34.525396415,108.425935516,0.0,-0.03682644721708035,0.01884955592153876,-2.279050937254196,-2.7699683954069085,-1.6709829559509635,1.205,0.072,0.0,-0.017175766199820322,0.004112439285652444,-0.0033441455873553633,-0.017175766199820322,0.004112439285652444,-0.0033441455873553633,-0.0072,0.0,0.0298,-0.0072,0.0,0.0,0.0,0.0,0.0,0.0,0.0,0.0,8.959000000000003,8.959000000000003
34.525395549,108.425934725,0.0,-0.03874630939427412,0.01937315469713706,-2.2766074763014035,-0.4732363207201932,-0.35775108772157854,1.203,0.07,0.0,-0.02173403808809573,0.009664298858998848,-0.006579887457671569,-0.02173403808809573,0.009664298858998848,-0.006579887457671569,-0.0253,0.0,0.0245,-0.0253,0.0,0.0,0.0,0.0,0.0,0.0,0.0,0.0,9.059000000000026,9.059000000000026
34.525394684,108.425933935,0.0,-0.04293509959906051,0.01972222054753592,-2.274338548273811,-0.9595604063919921,-0.7253166063294486,1.2,0.067,0.0,-0.03156452756132221,-0.0025467842396628736,-0.005986830282319328,-0.03156452756132221,-0.0025467842396628736,-0.005986830282319328,-0.0482,0.0,0.0218,-0.0482,0.0,0.0,0.0,0.0,0.0,0.0,0.0,0.0,9.159000000000049,9.159000000000049
34.525393823,108.425933146,0.0,-0.04904375198104066,0.02007128639793479,-2.2720696202462185,-0.9551231071300719,-0.724398511079047,1.197,0.063,0.0,-0.03149690634245675,-0.012591161598168336,-0.006971806689743416,-0.03149690634245675,-0.012591161598168336,-0.006971806689743416,-0.064,0.0,0.0242,-0.064,0.0,0.0,0.0,0.0,0.0,0.0,0.0,0.0,9.259000000000015,9.259000000000015
34.525392072,108.425931551,0.0,-0.06370451769779303,0.019896753472735354,-2.2656119020138394,-1.9424164649783524,-1.4644051249452181,1.197,0.058,0.0,-0.001875660876376994,0.01333726671599295,-0.0011360802750875394,-0.001875660876376994,0.01333726671599295,-0.0011360802750875394,-0.076,-0.01,0.0379,-0.076,-0.01,0.0,0.0,0.0,0.0,0.0,0.0,0.0,9.462000000000046,9.462000000000046
34.525391206,108.425930768,0.0,-0.07068583470577035,0.01937315469713706,-2.2615976447342523,-0.4732363055776162,-0.3541329226150094,1.199,0.058,0.0,0.017794270423384773,0.047497290649029515,0.0055527674712961906,0.017794270423384773,0.047497290649029515,0.0055527674712961906,-0.0704,-0.01,0.0397,-0.0704,-0.01,0.0,0.0,0.0,0.0,0.0,0.0,0.0,9.562000000000012,9.562000000000012
34.525390338,108.425929989,0.0,-0.07731808586334879,0.019024088846738195,-2.257757920379865,-0.9628883386192386,-0.7152173460980779,1.197,0.057,0.0,-0.02211769318188244,0.03558585475462237,0.003841124267737886,-0.02211769318188244,0.03558585475462237,0.003841124267737886,-0.0654,-0.0,0.0374,-0.0654,-0.0,0.0,0.0,0.0,0.0,0.0,0.0,0.0,9.662000000000035,9.662000000000035
34.525389471,108.425929218,0.0,-0.08307767239493008,0.019198621771937627,-2.2540927289506767,-0.961779015422527,-0.7078724019623717,1.193,0.058,0.0,-0.04200966585069257,0.05389977008246476,-0.001763195567667741,-0.04200966585069257,0.05389977008246476,-0.001763195567667741,-0.055,-0.0,0.0354,-0.055,-0.0,0.0,0.0,0.0,0.0,0.0,0.0,0.0,9.762,9.762
34.525389285,108.42592289,0.0,-0.09128071987930345,0.019024088846738195,-2.2464132802419017,-0.2063278261573391,-0.7078724019623717,1.193,0.057,0.0,-0.002008703195489438,0.039932712982324675,0.0027531068950877226,-0.002008703195489438,0.039932712982324675,0.0027531068950877226,-0.0212,-0.01,0.0265,-0.0212,-0.01,0.0,0.0,0.0,0.0,0.0,0.0,0.0,9.965000000000032,9.965000000000032
34.525388411,108.425922128,0.0,-0.09302604913129776,0.01832595714594046,-2.2439698192891093,-0.47760798944764343,-0.34463516790384807,1.194,0.057,0.0,0.008688039206491855,0.028247949443004763,0.00998047809540232,0.008688039206491855,0.028247949443004763,0.00998047809540232,-0.0192,-0.01,0.0237,-0.0192,-0.01,0.0,0.0,0.0,0.0,0.0,0.0,0.0,10.064999999999998,10.064999999999998
34.525387534,108.425921367,0.0,-0.0947713783832921,0.017627825445142728,-2.2411772924859186,-0.972872159442456,-0.698691268219019,1.196,0.057,0.0,0.018501801475408645,0.032401667275486316,0.010431073093070772,0.018501801475408645,0.032401667275486316,0.010431073093070772,-0.0163,-0.01,0.027,-0.0163,-0.01,0.0,0.0,0.0,0.0,0.0,0.0,0.0,10.16500000000002,10.16500000000002
34.525386656,108.42592061,0.0,-0.09494591130849153,0.016755160819145562,-2.2380356998323285,-0.9739814857134027,-0.695018823558817,1.196,0.057,0.0,-0.001671796351420266,0.03641143914284787,0.013823317016668899,-0.001671796351420266,0.03641143914284787,0.013823317016668899,0.0015,-0.01,0.0333,0.0015,-0.01,0.0,0.0,0.0,0.0,0.0,0.0,0.0,10.265000000000043,10.265000000000043
34.525384858,108.425919086,0.0,-0.09250245035569947,0.015184364492350668,-2.2301817181983545,-1.9945543276550999,-1.3992189475446375,1.199,0.057,0.0,0.012813962172788776,0.04522186332474675,0.014144658331219034,0.012813962172788776,0.04522186332474675,0.014144658331219034,0.0156,-0.01,0.0396,0.0156,-0.01,0.0,0.0,0.0,0.0,0.0,0.0,0.0,10.468000000000018,10.468000000000018
34.52538397,108.42591834,0.0,-0.09075712110370514,0.015184364492350668,-2.226341993843967,-0.48525845973353376,-0.3373987858822798,1.199,0.057,0.0,-0.002090668387396065,0.04584827687788804,0.00513539910769629,-0.002090668387396065,0.04584827687788804,0.00513539910769629,0.0141,-0.0,0.0364,0.0141,-0.0,0.0,0.0,0.0,0.0,0.0,0.0,0.0,10.56800000000004,10.56800000000004
34.525383081,108.425917598,0.0,-0.09005898940290741,0.015707963267948967,-2.223025868265178,-0.9861839836717912,-0.6812470681548582,1.197,0.057,0.0,-0.02184167742881795,0.04016242182211641,-0.0023074297575601545,-0.02184167742881795,0.04016242182211641,-0.0023074297575601545,0.004,0.0,0.0331,0.004,0.0,0.0,0.0,0.0,0.0,0.0,0.0,0.0,10.668000000000006,10.668000000000006
34.525382192,108.425916858,0.0,-0.09058258817850572,0.016755160819145562,-2.2197097426863883,-0.9861839834186081,-0.6794108453549271,1.197,0.056,0.0,-0.001863590927822787,0.03066351603133991,-0.009222090676593886,-0.001863590927822787,0.03066351603133991,-0.009222090676593886,-0.0084,0.01,0.0333,-0.0084,0.01,0.0,0.0,0.0,0.0,0.0,0.0,0.0,10.768000000000029,10.768000000000029
34.525380523,108.425917339,0.0,-0.0947713783832921,0.018500490071139894,-2.2134265573792087,-1.8514540517966669,0.44161446383912567,1.196,0.056,0.0,-0.006570211800182928,0.03785934941409384,-0.00792475386974825,-0.006570211800182928,0.03785934941409384,-0.00792475386974825,-0.0282,0.0,0.0326,-0.0282,0.0,0.0,0.0,0.0,0.0,0.0,0.0,0.0,10.971000000000004,10.971000000000004
34.525379626,108.425916611,0.0,-0.09721483933608416,0.019024088846738195,-2.210110431800419,-0.49017662217023683,-0.3292578357075304,1.197,0.057,0.0,0.008191265125240797,0.0500793741269687,-0.0037859035518957723,0.008191265125240797,0.0500793741269687,-0.0037859035518957723,-0.0227,0.0,0.0343,-0.0227,0.0,0.0,0.0,0.0,0.0,0.0,0.0,0.0,11.071000000000026,11.071000000000026
34.525378727,108.425915886,0.0,-0.09930923443847736,0.01972222054753592,-2.2060961745208325,-0.9972771739590811,-0.6656390701730516,1.197,0.056,0.0,-0.0022161821590454926,0.03863951602704462,-0.004788883015589979,-0.0022161821590454926,0.03863951602704462,-0.004788883015589979,-0.023,0.0,0.0423,-0.023,0.0,0.0,0.0,0.0,0.0,0.0,0.0,0.0,11.17100000000005,11.17100000000005
34.525377825,108.425915167,0.0,-0.10192722831646885,0.020245819323134222,-2.2012092526152487,-1.0006051511671854,-0.6601303590770966,1.197,0.057,0.0,-0.0026071903955178295,0.06882755727126724,-0.0018019819189121523,-0.0026071903955178295,0.06882755727126724,-0.0018019819189121523,-0.028,-0.0,0.0509,-0.028,-0.0,0.0,0.0,0.0,0.0,0.0,0.0,0.0,11.271000000000015,11.271000000000015
34.525375978,108.425913731,0.0,-0.10873401239924674,0.02007128639793479,-2.190213678327684,-2.0489109859329675,-1.3184245724298072,1.199,0.057,0.0,0.0071428413022213665,0.06434976150100316,0.00609319672672666,0.0071428413022213665,0.06434976150100316,0.00609319672672666,-0.0339,-0.01,0.0562,-0.0339,-0.01,0.0,0.0,0.0,0.0,0.0,0.0,0.0,11.474000000000046,11.474000000000046
34.525375063,108.425913027,0.0,-0.11135200627723822,0.020245819323134222,-2.1846286247213023,-0.5000129502476569,-0.3184032486025184,1.202,0.057,0.0,0.027012277012828583,0.0667793975048447,0.0038080839375272723,0.027012277012828583,0.0667793975048447,0.0038080839375272723,-0.0248,-0.0,0.0547,-0.0248,-0.0,0.0,0.0,0.0,0.0,0.0,0.0,0.0,11.574000000000012,11.574000000000012
34.525374143,108.425912329,0.0,-0.11257373675363426,0.020594885173533087,-2.17921810404012,-1.0205728733361425,-0.640849873096384,1.205,0.057,0.0,0.02709023324468869,0.06508903964612936,0.002379616430921861,0.02709023324468869,0.06508903964612936,0.002379616430921861,-0.01,-0.0,0.0556,-0.01,-0.0,0.0,0.0,0.0,0.0,0.0,0.0,0.0,11.674000000000035,11.674000000000035
34.525373217,108.425911636,0.0,-0.11239920382843482,0.02076941809873252,-2.173458517508539,-1.0272287995147495,-0.6362593123367485,1.206,0.058,0.0,0.006927303931250985,0.0791948906146586,0.005729371300147966,0.006927303931250985,0.0791948906146586,0.005729371300147966,0.0046,-0.01,0.0562,0.0046,-0.01,0.0,0.0,0.0,0.0,0.0,0.0,0.0,11.774000000000001,11.774000000000001
34.525370222,108.425913228,0.0,-0.10873401239924674,0.019198621771937627,-2.162812009071373,-3.3224123230756284,1.4616458105579089,1.21,0.061,0.0,0.017076569084891767,0.07664351398078847,0.017135919933305786,0.017076569084891767,0.07664351398078847,0.017135919933305786,0.0206,-0.02,0.0508,0.0206,-0.02,0.0,0.0,0.0,0.0,0.0,0.0,0.0,11.977000000000032,11.977000000000032
34.525369285,108.425912555,0.0,-0.10611601852125524,0.01832595714594046,-2.157401488390191,-0.5120351412524955,-0.30438271059081645,1.212,0.061,0.0,0.016959040562314617,0.06397843399518442,0.018973234602442383,0.016959040562314617,0.06397843399518442,0.018973234602442383,0.0288,-0.01,0.0522,0.0288,-0.01,0.0,0.0,0.0,0.0,0.0,0.0,0.0,12.076999999999998,12.076999999999998
34.525368341,108.425911888,0.0,-0.10262536001726658,0.017976891295541596,-2.1519909677090086,-1.047196572036297,-0.6123881923118147,1.212,0.063,0.0,-0.0030806924652322923,0.08479770279765311,0.012999196204065923,-0.0030806924652322923,0.08479770279765311,0.012999196204065923,0.0328,-0.01,0.0563,0.0328,-0.01,0.0,0.0,0.0,0.0,0.0,0.0,0.0,12.177000000000021,12.177000000000021
34.525367392,108.425911227,0.0,-0.09965830028887622,0.017627825445142728,-2.145882315327028,-1.0527431581738704,-0.606879490428995,1.213,0.063,0.0,0.0064217216942849525,0.07324989934554664,0.013381151490775189,0.0064217216942849525,0.07324989934554664,0.013381151490775189,0.0256,-0.01,0.0588,0.0256,-0.01,0.0,0.0,0.0,0.0,0.0,0.0,0.0,12.277000000000044,12.277000000000044
34.525365451,108.425909906,0.0,-0.09930923443847736,0.01710422666954443,-2.1340140764134667,-2.153187053230096,-1.21284094647458,1.216,0.061,0.0,0.011551622948214713,0.06041339495916011,0.010197806265535504,0.011551622948214713,0.06041339495916011,0.010197806265535504,-0.0161,-0.01,0.0577,-0.0161,-0.01,0.0,0.0,0.0,0.0,0.0,0.0,0.0,12.480000000000018,12.480000000000018
34.525364488,108.425909263,0.0,-0.10157816246606999,0.017278759594743863,-2.128429022807085,-0.5262431699175567,-0.29081446373845793,1.219,0.064,0.0,0.026789636373310076,0.09778000436026094,0.003335639798576915,0.026789636373310076,0.09778000436026094,0.003335639798576915,-0.0256,-0.0,0.0562,-0.0256,-0.0,0.0,0.0,0.0,0.0,0.0,0.0,0.0,12.580000000000041,12.580000000000041
34.52536352,108.425908626,0.0,-0.10384709049366261,0.017627825445142728,-2.122843969200703,-1.073820247685373,-0.5848446516620867,1.221,0.066,0.0,0.016612694785454952,0.08815710191259828,0.0013133695727005935,0.016612694785454952,0.08815710191259828,0.0013133695727005935,-0.0213,-0.0,0.0564,-0.0213,-0.0,0.0,0.0,0.0,0.0,0.0,0.0,0.0,12.680000000000007,12.680000000000007
34.525362548,108.425907998,0.0,-0.10541788682045751,0.01780235837034216,-2.117084382669122,-1.078257519906666,-0.5765815643872164,1.221,0.067,0.0,-0.0035895471567659073,0.08015857734401,0.004179677277006536,-0.0035895471567659073,0.08015857734401,0.004179677277006536,-0.0156,-0.01,0.057,-0.0156,-0.01,0.0,0.0,0.0,0.0,0.0,0.0,0.0,12.78000000000003,12.78000000000003
34.525360755,108.425907784,0.0,-0.1090830782496456,0.017627825445142728,-2.105041610830361,-1.989008931517154,-0.19648027360156,1.224,0.069,0.0,0.011268514341908864,0.08175408037662776,0.0076582982655878686,0.011268514341908864,0.08175408037662776,0.0076582982655878686,-0.0257,-0.01,0.0639,-0.0257,-0.01,0.0,0.0,0.0,0.0,0.0,0.0,0.0,12.983000000000004,12.983000000000004
34.52535977,108.425907177,0.0,-0.11065387457644049,0.01780235837034216,-2.098234826747583,-0.5382653577254551,-0.2745325409031343,1.225,0.069,0.0,0.005602519143534623,0.0830441990168363,0.005914934386804443,0.005602519143534623,0.0830441990168363,0.005914934386804443,-0.0117,-0.0,0.0683,-0.0117,-0.0,0.0,0.0,0.0,0.0,0.0,0.0,0.0,13.083000000000027,13.083000000000027
34.525358779,108.425906579,0.0,-0.10943214410004445,0.01832595714594046,-2.0910789768144062,-1.0993346178972616,-0.5490379961593734,1.227,0.07,0.0,0.015368809742863122,0.09783827975348112,0.003956443691519564,0.015368809742863122,0.09783827975348112,0.003956443691519564,0.019,-0.0,0.0723,0.019,-0.0,0.0,0.0,0.0,0.0,0.0,0.0,0.0,13.18300000000005,13.18300000000005
34.525357783,108.425905991,0.0,-0.10559241974565693,0.019024088846738195,-2.0839231268812295,-1.1048812076667478,-0.5398567930540581,1.228,0.072,0.0,0.005285432887490013,0.10822293460812718,0.0033343929576216576,0.005285432887490013,0.10822293460812718,0.0033343929576216576,0.0437,-0.0,0.0723,0.0437,-0.0,0.0,0.0,0.0,0.0,0.0,0.0,0.0,13.283000000000015,13.283000000000015
34.525355748,108.425904843,0.0,-0.09442231253289324,0.020420352248333655,-2.069611427014876,-2.257463151843228,-1.0540062624799738,1.225,0.076,0.0,-0.019252002891404177,0.10672828109507329,0.0036261196663863113,-0.019252002891404177,0.10672828109507329,0.0036261196663863113,0.0528,-0.0,0.0714,0.0528,-0.0,0.0,0.0,0.0,0.0,0.0,0.0,0.0,13.486000000000047,13.486000000000047
34.52535474,108.425904286,0.0,-0.08988445647770797,0.020594885173533087,-2.062455577081699,-0.5508340234092911,-0.2519187565936892,1.227,0.077,0.0,0.014888121606738516,0.09750438099112128,0.009082426877358498,0.014888121606738516,0.09750438099112128,0.009082426877358498,0.043,-0.01,0.0715,0.043,-0.01,0.0,0.0,0.0,0.0,0.0,0.0,0.0,13.586000000000013,13.586000000000013
34.525353727,108.42590374,0.0,-0.08464846872172498,0.020245819323134222,-2.055125194223323,-1.1237396532110213,-0.5012957613893687,1.228,0.079,0.0,0.004733951708614627,0.10926956916208952,0.01579633489866638,0.004733951708614627,0.10926956916208952,0.01579633489866638,0.0529,-0.01,0.073,0.0529,-0.01,0.0,0.0,0.0,0.0,0.0,0.0,0.0,13.686000000000035,13.686000000000035
34.525352711,108.425903202,0.0,-0.07906341511534314,0.019198621771937627,-2.0476202784397475,-1.1270676424694517,-0.49395079207616416,1.228,0.079,0.0,-0.0054841789389825715,0.0908698531484494,0.024403417860570327,-0.0054841789389825715,0.0908698531484494,0.024403417860570327,0.0513,-0.02,0.0732,0.0513,-0.02,0.0,0.0,0.0,0.0,0.0,0.0,0.0,13.786000000000001,13.786000000000001
34.525352198,108.425891661,0.0,-0.07051130178057091,0.016406094968746697,-2.0329595127229947,-0.5690676039939633,-0.49395079207616416,1.232,0.082,0.0,0.0147770494336732,0.1020881571701797,0.02634548481784373,0.0147770494336732,0.1020881571701797,0.02634548481784373,0.0363,-0.02,0.0717,0.0363,-0.02,0.0,0.0,0.0,0.0,0.0,0.0,0.0,13.989000000000033,13.989000000000033
34.525351164,108.425891153,0.0,-0.06789330790257943,0.0153588974175501,-2.025978195715018,-0.5650420452222191,-0.2297572970901266,1.235,0.085,0.0,0.02465764919433091,0.11494590966750734,0.020770645663977908,0.02465764919433091,0.11494590966750734,0.020770645663977908,0.0187,-0.01,0.0698,0.0187,-0.01,0.0,0.0,0.0,0.0,0.0,0.0,0.0,14.088999999999999,14.088999999999999
34.525350124,108.425890654,0.0,-0.06754424205218056,0.015009831567151233,-2.0189968787070405,-1.1536912629598843,-0.45814422566873597,1.238,0.088,0.0,0.02440201805023489,0.11574105489596047,0.01033311509602221,0.02440201805023489,0.11574105489596047,0.01033311509602221,-0.0022,-0.01,0.0682,-0.0022,-0.01,0.0,0.0,0.0,0.0,0.0,0.0,0.0,14.189000000000021,14.189000000000021
34.525349078,108.425890164,0.0,-0.06928957130417489,0.015009831567151233,-2.012364627549462,-1.160347202433754,-0.4498811745048002,1.241,0.089,0.0,0.02444982206437741,0.09192089455616156,0.004065869271816342,0.02444982206437741,0.09192089455616156,0.004065869271816342,-0.0247,-0.0,0.0647,-0.0247,-0.0,0.0,0.0,0.0,0.0,0.0,0.0,0.0,14.289000000000044,14.289000000000044
34.525346935,108.42588919,0.0,-0.07906341511534314,0.016929693744344994,-1.9996237240099033,-2.377269656637299,-0.894253690078105,1.248,0.086,0.0,0.02936020673682908,0.06384079397649803,-0.009917521825393433,0.02936020673682908,0.06384079397649803,-0.009917521825393433,-0.0666,0.01,0.0656,-0.0666,0.01,0.0,0.0,0.0,0.0,0.0,0.0,0.0,14.492000000000019,14.492000000000019
34.525345877,108.425888717,0.0,-0.08569566627292158,0.01832595714594046,-1.9929914728523248,-0.5781571652210548,-0.21392765970700983,1.248,0.085,0.0,-0.005493230281524673,0.07398438149083232,-0.01607968980282878,-0.005493230281524673,0.07398438149083232,-0.01607968980282878,-0.0653,0.01,0.0665,-0.0653,0.01,0.0,0.0,0.0,0.0,0.0,0.0,0.0,14.592000000000041,14.592000000000041
34.525344816,108.425888249,0.0,-0.09145525280450287,0.019896753472735354,-1.9865337546199457,-1.1769869957698542,-0.4296825538254456,1.25,0.082,0.0,0.01469341791054469,0.052064414646192804,-0.017160652109574827,0.01469341791054469,0.052064414646192804,-0.017160652109574827,-0.0559,0.01,0.0666,-0.0559,0.01,0.0,0.0,0.0,0.0,0.0,0.0,0.0,14.692000000000007,14.692000000000007
34.525343751,108.425887788,0.0,-0.09546951008408983,0.021642082724729686,-1.9800760363875667,-1.1814242778726347,-0.42325571389389305,1.253,0.082,0.0,0.024876899096802955,0.08244141618726158,-0.017423165656745065,0.024876899096802955,0.08244141618726158,-0.017423165656745065,-0.0358,0.01,0.0668,-0.0358,0.01,0.0,0.0,0.0,0.0,0.0,0.0,0.0,14.79200000000003,14.79200000000003
34.52534299,108.425885178,0.0,-0.0973893722612836,0.024783675378319478,-1.9664624682220109,-0.844188616237357,-2.396299034129369,1.256,0.085,0.0,0.009787199942895031,0.10031043579927772,-0.012024980533655426,0.009787199942895031,0.10031043579927772,-0.012024980533655426,0.0018,0.01,0.0701,0.0018,0.01,0.0,0.0,0.0,0.0,0.0,0.0,0.0,14.995000000000005,14.995000000000005
34.525341913,108.425884745,0.0,-0.09651670763528643,0.025656340004316644,-1.959481151214034,-0.5885399715142184,-0.19583663298906956,1.257,0.085,0.0,0.00433448197634858,0.08832643581222674,-0.0018629999800608022,0.00433448197634858,0.08832643581222674,-0.0018629999800608022,0.009,0.0,0.0717,0.009,0.0,0.0,0.0,0.0,0.0,0.0,0.0,0.0,15.095000000000027,15.095000000000027
34.525340832,108.425884322,0.0,-0.09459684545809266,0.02600540585471551,-1.9521507683556576,-1.1991734139251102,-0.38836716677671795,1.257,0.086,0.0,-0.005890062578154403,0.10213764996685053,0.005813118805496564,-0.005890062578154403,0.10213764996685053,0.005813118805496564,0.0195,-0.0,0.0732,0.0195,-0.0,0.0,0.0,0.0,0.0,0.0,0.0,0.0,15.19500000000005,15.19500000000005
34.525339749,108.42588391,0.0,-0.09197885158010116,0.02600540585471551,-1.9446458525720818,-1.2013920650791055,-0.37826784448162626,1.256,0.086,0.0,-0.016069443851327272,0.093931050585056,0.010756773277185655,-0.016069443851327272,0.093931050585056,0.010756773277185655,0.0249,-0.01,0.0752,0.0249,-0.01,0.0,0.0,0.0,0.0,0.0,0.0,0.0,15.295000000000016,15.295000000000016
34.525337534,108.425883122,0.0,-0.08726646259971647,0.024783675378319478,-1.9291124222293325,-2.457140813198627,-0.7234833925538967,1.259,0.091,0.0,0.009025737096741562,0.11973039043007974,0.017759603842942437,0.009025737096741562,0.11973039043007974,0.017759603842942437,0.0157,-0.02,0.0776,0.0157,-0.02,0.0,0.0,0.0,0.0,0.0,0.0,0.0,15.498000000000047,15.498000000000047
34.525336439,108.425882743,0.0,-0.08569566627292158,0.02303834612632515,-1.921258440595358,-0.5983763235257005,-0.17141372630941726,1.262,0.091,0.0,0.023427659330355285,0.09663364026989048,0.03162959271866918,0.023427659330355285,0.09663364026989048,0.03162959271866918,0.0182,-0.02,0.0751,0.0182,-0.02,0.0,0.0,0.0,0.0,0.0,0.0,0.0,15.598000000000013,15.598000000000013
34.525335338,108.425882372,0.0,-0.08272860654453122,0.02111848394913139,-1.9137535248117825,-1.2213598636412728,-0.3406249006684899,1.265,0.089,0.0,0.023725137902078672,0.0723873634661407,0.034535247711220955,0.023725137902078672,0.0723873634661407,0.034535247711220955,0.0292,-0.03,0.0732,0.0292,-0.03,0.0,0.0,0.0,0.0,0.0,0.0,0.0,15.698000000000036,15.698000000000036
34.525334231,108.425882011,0.0,-0.079412480965742,0.019024088846738195,-1.9065976748786058,-1.2280157834737844,-0.33144372189761306,1.267,0.092,0.0,0.014159760434204492,0.1181391352021485,0.036427792860265554,0.014159760434204492,0.1181391352021485,0.036427792860265554,0.0332,-0.03,0.0691,0.0332,-0.03,0.0,0.0,0.0,0.0,0.0,0.0,0.0,15.798000000000002,15.798000000000002
34.525333473,108.425874333,0.0,-0.07260569688296412,0.0153588974175501,-1.8936822384138476,-0.8408538189507223,-0.33144372189761306,1.276,0.098,0.0,0.03919500206469233,0.10832338017472647,0.03166719546419236,0.03919500206469233,0.10832338017472647,0.03166719546419236,0.0291,-0.02,0.0591,0.0291,-0.02,0.0,0.0,0.0,0.0,0.0,0.0,0.0,16.001000000000033,16.001000000000033
34.52533235,108.425874003,0.0,-0.07051130178057091,0.014137166941154071,-1.888097184807466,-0.6136772972091395,-0.1492522432878089,1.278,0.101,0.0,0.014836968020323178,0.09999764919893168,0.022549689930259235,0.014836968020323178,0.09999764919893168,0.022549689930259235,0.0181,-0.01,0.0527,0.0181,-0.01,0.0,0.0,0.0,0.0,0.0,0.0,0.0,16.101,16.101
34.525331227,108.425873678,0.0,-0.06876597252857658,0.013788101090755204,-1.883035729976682,-1.2457649027560065,-0.29839145203968315,1.278,0.099,0.0,-0.004909586778809499,0.044233270256825816,0.010590127575769265,-0.004909586778809499,0.044233270256825816,0.010590127575769265,0.016,-0.01,0.0502,0.016,-0.01,0.0,0.0,0.0,0.0,0.0,0.0,0.0,16.201000000000022,16.201000000000022
34.525330102,108.425873361,0.0,-0.06789330790257943,0.014137166941154071,-1.8781488080710982,-1.2479835674114708,-0.29104649878384725,1.278,0.099,0.0,-0.004696518403293338,0.06261950046801844,0.0005843068618971632,-0.004696518403293338,0.06261950046801844,0.0005843068618971632,0.0023,0.0,0.0503,0.0023,0.0,0.0,0.0,0.0,0.0,0.0,0.0,0.0,16.301000000000045,16.301000000000045
34.525327825,108.425872742,0.0,-0.07016223593017204,0.016755160819145562,-1.8678513654843316,-2.52591874809139,-0.5683212324761606,1.272,0.096,0.0,-0.03429756150557528,0.051065935511731775,-0.013080278597878813,-0.03429756150557528,0.051065935511731775,-0.013080278597878813,-0.009,0.01,0.0525,-0.009,0.01,0.0,0.0,0.0,0.0,0.0,0.0,0.0,16.50400000000002,16.50400000000002
34.525326708,108.425872448,0.0,-0.07033676885537149,0.01832595714594046,-1.8624408448031493,-0.6103985361587033,-0.13297028824309978,1.265,0.098,0.0,-0.07508434125946994,0.09006023906783171,-0.015353492911702868,-0.07508434125946994,0.09006023906783171,-0.015353492911702868,-0.0019,0.01,0.0565,-0.0019,0.01,0.0,0.0,0.0,0.0,0.0,0.0,0.0,16.604000000000042,16.604000000000042
34.525325723,108.425872144,0.0,-0.07051130178057091,0.019896753472735354,-1.8566812582715677,-1.0926789101367975,-0.2791107192882945,1.127,0.041,0.0,-1.3855121523363598,-0.4959184012273109,-0.01496704368818904,-1.3855121523363598,-0.4959184012273109,-0.01496704368818904,-0.0043,0.01,0.0604,-0.0043,0.01,0.0,0.0,0.0,0.0,0.0,0.0,0.0,16.704000000000008,16.704000000000008
34.525324605,108.425871868,0.0,-0.0715584993317675,0.020594885173533087,-1.8503980729643883,-1.2402183719768411,-0.2534035105325015,1.262,0.098,0.0,1.3476357952540148,0.6411865015538482,-0.003263255910234783,1.3476357952540148,0.6411865015538482,-0.003263255910234783,-0.0154,0.0,0.063,-0.0154,0.0,0.0,0.0,0.0,0.0,0.0,0.0,0.0,16.80400000000003,16.80400000000003
34.525322924,108.425873539,0.0,-0.07731808586334879,0.019896753472735354,-1.8378317023500292,-1.8647676705024119,1.534179122057757,1.26,0.098,0.0,-0.01538565531080192,0.07758032618767578,0.007471401504862592,-0.01538565531080192,0.07758032618767578,0.007471401504862592,-0.0387,-0.01,0.0613,-0.0387,-0.01,0.0,0.0,0.0,0.0,0.0,0.0,0.0,17.007000000000005,17.007000000000005
34.525321806,108.425873288,0.0,-0.0804596785169386,0.01884955592153876,-1.8318975828932484,-0.6109450318064052,-0.11352238632713368,1.262,0.098,0.0,0.014510914837793206,0.07347385693663448,0.015977352693841828,0.014510914837793206,0.07347385693663448,0.015977352693841828,-0.03,-0.02,0.0565,-0.03,-0.02,0.0,0.0,0.0,0.0,0.0,0.0,0.0,17.107000000000028,17.107000000000028
34.525320682,108.425873045,0.0,-0.08237954069413235,0.017627825445142728,-1.8266615951372653,-1.2468743304336456,-0.22310549539872582,1.263,0.099,0.0,0.005164712812264407,0.07458794193741655,0.01883441884401054,0.005164712812264407,0.07458794193741655,0.01883441884401054,-0.0163,-0.02,0.0517,-0.0163,-0.02,0.0,0.0,0.0,0.0,0.0,0.0,0.0,17.20700000000005,17.20700000000005
34.525319555,108.425872806,0.0,-0.08307767239493008,0.016231562043547264,-1.821774673231681,-1.2502022984291905,-0.21943302389696112,1.266,0.098,0.0,0.02545581887709404,0.0500470590924338,0.021928587518203542,0.02545581887709404,0.0500470590924338,0.021928587518203542,-0.0054,-0.02,0.0459,-0.0054,-0.02,0.0,0.0,0.0,0.0,0.0,0.0,0.0,17.307000000000016,17.307000000000016
34.525317263,108.425872335,0.0,-0.08115781021773633,0.0153588974175501,-1.8139206915977069,-2.5425587478744096,-0.43243927922999786,1.267,0.095,0.0,0.0013777052891164785,0.03360836294556097,0.010267388707193719,0.0013777052891164785,0.03360836294556097,0.010267388707193719,0.0184,-0.0,0.0362,0.0184,-0.0,0.0,0.0,0.0,0.0,0.0,0.0,0.0,17.510000000000048,17.510000000000048
34.525316134,108.425872109,0.0,-0.07819075048934597,0.015533430342749533,-1.8104300330937184,-0.6169561337552362,-0.1022154895024763,1.265,0.095,0.0,-0.023240889512546416,0.044268688574877625,0.004018443912765714,-0.023240889512546416,0.044268688574877625,0.004018443912765714,0.0323,0.0,0.0329,0.0323,0.0,0.0,0.0,0.0,0.0,0.0,0.0,0.0,17.610000000000014,17.610000000000014
34.525315012,108.425871887,0.0,-0.07400196028455958,0.016057029118347832,-1.8072884404401284,-1.2446557177043243,-0.2038249576406044,1.259,0.094,0.0,-0.06294972182913912,0.03013008264485325,0.0002652466764242876,-0.06294972182913912,0.03013008264485325,0.0002652466764242876,0.0438,0.0,0.0311,0.0438,0.0,0.0,0.0,0.0,0.0,0.0,0.0,0.0,17.710000000000036,17.710000000000036
34.525313889,108.425871666,0.0,-0.06963863715457375,0.016755160819145562,-1.8041468477865386,-1.2457650436057586,-0.20290683730068088,1.259,0.091,0.0,-0.002927940587375736,0.01007665332493022,-0.001962978069525374,-0.002927940587375736,0.01007665332493022,-0.001962978069525374,0.0415,0.0,0.0328,0.0415,0.0,0.0,0.0,0.0,0.0,0.0,0.0,0.0,17.810000000000002,17.810000000000002
34.525314124,108.425864551,0.0,-0.0635299847725936,0.017976891295541596,-1.79751459662896,0.260699951799488,-0.20290683730068088,1.257,0.083,0.0,-0.012714718382035185,0.0021341182614589404,-0.0022628457320914078,-0.012714718382035185,0.0021341182614589404,-0.0022628457320914078,0.023,0.0,0.0348,0.023,0.0,0.0,0.0,0.0,0.0,0.0,0.0,0.0,18.013000000000034,18.013000000000034
34.525313003,108.425864333,0.0,-0.061261056745000965,0.01815142422074103,-1.7938494051997715,-0.6125844302367597,-0.09859732025034049,1.257,0.08,0.0,-0.0029600740764837165,0.016119318518813954,0.002460260002822779,-0.0029600740764837165,0.016119318518813954,0.002460260002822779,0.02,-0.0,0.0369,0.02,-0.0,0.0,0.0,0.0,0.0,0.0,0.0,0.0,18.113,18.113
34.525311882,108.425864122,0.0,-0.059341194567807204,0.01815142422074103,-1.7900096808453845,-1.2435464031401877,-0.19372573323902245,1.256,0.08,0.0,-0.01297287901475174,0.048179468138144506,0.00434412596144888,-0.01297287901475174,0.048179468138144506,0.00434412596144888,0.0186,-0.0,0.0379,0.0186,-0.0,0.0,0.0,0.0,0.0,0.0,0.0,0.0,18.213000000000022,18.213000000000022
34.525310763,108.425863915,0.0,-0.05794493116621174,0.01780235837034216,-1.7863444894161966,-1.241327777417036,-0.19005323835519347,1.253,0.08,0.0,-0.03282486498549712,0.04570187945635796,0.0081090718526808,-0.03282486498549712,0.04570187945635796,0.0081090718526808,0.0119,-0.01,0.0368,0.0119,-0.01,0.0,0.0,0.0,0.0,0.0,0.0,0.0,18.313000000000045,18.313000000000045
34.525308497,108.425863521,0.0,-0.056548667764616284,0.01658062789394613,-1.776919711455427,-2.5137165014715426,-0.36174407023468846,1.248,0.079,0.0,-0.028031416563870256,0.052735488086588296,0.01131045284783891,-0.028031416563870256,0.052735488086588296,0.01131045284783891,-0.0042,-0.01,0.0382,-0.0042,-0.01,0.0,0.0,0.0,0.0,0.0,0.0,0.0,18.51600000000002,18.51600000000002
34.525307384,108.425863333,0.0,-0.05777039824101231,0.016057029118347832,-1.7732545200262393,-0.6082127488962423,-0.08502902163486852,1.244,0.079,0.0,-0.04278160610161173,0.045287382699010115,0.008154262918756129,-0.04278160610161173,0.045287382699010115,0.008154262918756129,-0.0171,-0.01,0.0376,-0.0171,-0.01,0.0,0.0,0.0,0.0,0.0,0.0,0.0,18.616000000000042,18.616000000000042
34.525306272,108.425863149,0.0,-0.06091199089460211,0.0153588974175501,-1.769240262746652,-1.2335625718575332,-0.16893643022134408,1.243,0.077,0.0,-0.013030515366767373,0.02931968405137568,0.00917949986143158,-0.013030515366767373,0.02931968405137568,0.00917949986143158,-0.0364,-0.01,0.0384,-0.0364,-0.01,0.0,0.0,0.0,0.0,0.0,0.0,0.0,18.716000000000008,18.716000000000008
34.525305161,108.425862969,0.0,-0.06597344572538566,0.015009831567151233,-1.765400538392264,-1.2324532538810413,-0.16526394399079744,1.241,0.076,0.0,-0.022842041574047976,0.03734775395322478,0.003535612018063189,-0.022842041574047976,0.03734775395322478,0.003535612018063189,-0.0561,-0.01,0.0394,-0.0561,-0.01,0.0,0.0,0.0,0.0,0.0,0.0,0.0,18.81600000000003,18.81600000000003
34.525302825,108.425859136,0.0,-0.08203047484373349,0.014486232791552934,-1.7575465567582897,-2.5913637867570007,-3.5191666440053373,1.241,0.077,0.0,-0.0027314148321374958,0.05257035059332573,0.0010736702342714756,-0.0027314148321374958,0.05257035059332573,0.0010736702342714756,-0.0905,-0.0,0.038,-0.0905,-0.0,0.0,0.0,0.0,0.0,0.0,0.0,0.0,19.019000000000005,19.019000000000005
34.525301712,108.425858972,0.0,-0.09093165402890457,0.014835298641951801,-1.7538813653291019,-0.6082127615413742,-0.07417440455025748,1.241,0.076,0.0,-0.0027503275474283517,0.03572159603109787,-0.0070781011269934494,-0.0027503275474283517,0.03572159603109787,-0.0070781011269934494,-0.0872,-0.0,0.0363,-0.0872,-0.0,0.0,0.0,0.0,0.0,0.0,0.0,0.0,19.119000000000028,19.119000000000028
34.525300598,108.425858811,0.0,-0.09826203688728075,0.0153588974175501,-1.7503907068251126,-1.2357812312919625,-0.14781968429583095,1.243,0.076,0.0,0.01739952537546798,0.043768061806595496,-0.007827391812793153,0.01739952537546798,0.043768061806595496,-0.007827391812793153,-0.0683,0.0,0.0353,-0.0683,0.0,0.0,0.0,0.0,0.0,0.0,0.0,0.0,19.21900000000005,19.21900000000005
34.525299485,108.425858654,0.0,-0.102799892942466,0.016057029118347832,-1.746900048321125,-1.2346719171990053,-0.14414719415677898,1.241,0.075,0.0,-0.022613078377193837,0.034057809701178006,-0.007669648931831939,-0.022613078377193837,0.034057809701178006,-0.007669648931831939,-0.0399,0.0,0.0349,-0.0399,0.0,0.0,0.0,0.0,0.0,0.0,0.0,0.0,19.319000000000017,19.319000000000017
34.525297238,108.425858347,0.0,-0.10611601852125524,0.017278759594743863,-1.740442330088746,-2.4926395537317676,-0.28186758203518303,1.234,0.07,0.0,-0.036769986090331094,0.015420960498176038,-0.004509356871044637,-0.036769986090331094,0.015420960498176038,-0.004509356871044637,-0.006,0.0,0.0317,-0.006,0.0,0.0,0.0,0.0,0.0,0.0,0.0,0.0,19.522000000000048,19.522000000000048
34.525296131,108.425858199,0.0,-0.10541788682045751,0.01780235837034216,-1.737300737435155,-0.6049339977495293,-0.06693797667013707,1.234,0.07,0.0,-0.002162653388285411,0.039229659144375886,-0.0018957724103414782,-0.002162653388285411,0.039229659144375886,-0.0018957724103414782,0.0089,0.0,0.0313,0.0089,0.0,0.0,0.0,0.0,0.0,0.0,0.0,0.0,19.622000000000014,19.622000000000014
34.525295024,108.425858056,0.0,-0.10367255756846318,0.017976891295541596,-1.7343336777067653,-1.228016020742714,-0.13129349233357104,1.232,0.07,0.0,-0.02202344865971529,0.036637977485287576,0.0028319284537201483,-0.02202344865971529,0.036637977485287576,0.0028319284537201483,0.0201,-0.0,0.0301,0.0201,-0.0,0.0,0.0,0.0,0.0,0.0,0.0,0.0,19.722000000000037,19.722000000000037
34.525293919,108.425857916,0.0,-0.10105456369047168,0.01780235837034216,-1.7313666179783747,-1.2257973966737679,-0.12853912882392313,1.231,0.069,0.0,-0.011998422901155607,0.026150052953786782,0.007623242633534777,-0.011998422901155607,0.026150052953786782,0.007623242633534777,0.0263,-0.0,0.0283,0.0263,-0.0,0.0,0.0,0.0,0.0,0.0,0.0,0.0,19.822000000000003,19.822000000000003
34.525292492,108.42585942,0.0,-0.09861110273767963,0.016755160819145562,-1.725781564371993,-1.583000577296161,1.3808534584640155,1.227,0.067,0.0,-0.021459068923768112,0.02322635887796835,0.010453986011010141,-0.021459068923768112,0.02322635887796835,0.010453986011010141,-0.0003,-0.01,0.0267,-0.0003,-0.01,0.0,0.0,0.0,0.0,0.0,0.0,0.0,20.025000000000034,20.025000000000034
34.52529139,108.425859287,0.0,-0.09843656981248018,0.016406094968746697,-1.7229890375688026,-0.6022016966096495,-0.060153816274321655,1.228,0.064,0.0,0.008209946826565713,0.003675125207870858,0.00771651179964122,0.008209946826565713,0.003675125207870858,0.00771651179964122,0.0039,-0.01,0.0276,0.0039,-0.01,0.0,0.0,0.0,0.0,0.0,0.0,0.0,20.125,20.125
34.525290285,108.425859153,0.0,-0.0973893722612836,0.01658062789394613,-1.7201965107656112,-1.225797401631495,-0.1230303673176778,1.231,0.061,0.0,0.028258754712017015,0.0043362408878574905,0.0018424684876155205,0.028258754712017015,0.0043362408878574905,0.0018424684876155205,0.0111,-0.0,0.0281,0.0111,-0.0,0.0,0.0,0.0,0.0,0.0,0.0,0.0,20.225000000000023,20.225000000000023
