lat,lon,alt,roll,pitch,yaw,vn,ve,vf,vl,vu,ax,ay,az,af,al,au,wx,wy,wz,wf,wl,wu,pos_accuracy,vel_accuracy,navstat,numsats,posmode,velmode,orimode,time
34.526212674,108.425183332,0.0,-0.034732052114687155,-0.034732052114687155,-2.6790804018112957,0.0,0.0,2.0,-0.078,0.008,0.0,0.0,0.0,0.0,0.0,0.0,-0.0149,0.18,0.0017,-0.0149,0.18,0.0,0.0,0.0,0.0,0.0,0.0,0.0,0.0,0.0
34.526212747,108.425183111,0.0,-0.03612831551628262,0.00471238898038469,-2.68082573106329,0.0,0.0,0.07,-0.078,0.008,-9.225620899504715,-0.0029960071220423,-0.37715950901892925,-9.225620899504715,-0.0029960071220423,-0.37715950901892925,-0.0022,0.19,-0.0053,-0.0022,0.19,0.0,0.0,0.0,0.0,0.0,0.0,0.0,0.20900000000006003,0.20900000000006003
34.526212818,108.425182896,0.0,-0.03630284844148206,0.033335788713091695,-2.6832691920160823,0.037685009393506504,-0.09444695492028349,0.07,-0.078,0.008,0.0007396396353143771,-0.00048312493787255824,-0.009933030069791012,0.0007396396353143771,-0.00048312493787255824,-0.009933030069791012,-0.0022,0.08,-0.0064,-0.0022,0.08,0.0,0.0,0.0,0.0,0.0,0.0,0.0,0.41000000000008185,0.41000000000008185
34.526212853,108.42518279,0.0,-0.03769911184307752,0.03874630939427412,-2.68414185664208,0.019316503156867042,-0.04841786114246815,0.07,-0.078,0.008,-8.094852937245064e-05,-0.00035891816576760907,-0.0027432717661187932,-8.094852937245064e-05,-0.00035891816576760907,-0.0027432717661187932,-0.031,0.02,-0.0038,-0.031,0.02,0.0,0.0,0.0,0.0,0.0,0.0,0.0,0.5099999999999909,0.5099999999999909
34.526212888,108.425182683,0.0,-0.04310963252425994,0.038571776469074684,-2.68414185664208,0.038826182050874125,-0.09823800336501269,0.07,-0.078,0.008,-1.8884188302561116e-05,0.00041203716685388344,0.004300413554860309,-1.8884188302561116e-05,0.00041203716685388344,0.004300413554860309,-0.0757,-0.02,0.0019,-0.0757,-0.02,0.0,0.0,0.0,0.0,0.0,0.0,0.0,0.6110000000001037,0.6110000000001037
34.526212923,108.425182577,0.0,-0.052708943410228755,0.03490658503988659,-2.683618257866481,0.038441747015303035,-0.09635633735943597,0.07,-0.078,0.008,-5.374634828347652e-06,0.0009639609039918097,0.010087431376743792,-5.374634828347652e-06,0.0009639609039918097,0.010087431376743792,-0.1192,-0.05,0.0066,-0.1192,-0.05,0.0,0.0,0.0,0.0,0.0,0.0,0.0,0.7110000000000127,0.7110000000000127
34.526212994,108.425182361,0.0,-0.08237954069413235,0.025830872929516076,-2.68100026398849,0.07876167421732685,-0.19831225054830476,0.07,-0.078,0.008,0.00047561170701393017,0.001651556108981682,0.01471033595424067,0.00047561170701393017,0.001651556108981682,0.01471033595424067,-0.1745,-0.03,0.0149,-0.1745,-0.03,0.0,0.0,0.0,0.0,0.0,0.0,0.0,0.9130000000000109,0.9130000000000109
34.52621192,108.425182113,0.0,-0.10070549784007281,0.02495820830351891,-2.679254934736495,-0.5898063790651207,-0.11271873621278512,-0.008,-0.031,0.008,-0.7710687309042867,0.46781251912098004,0.014922230481368114,-0.7710687309042867,0.46781251912098004,0.014922230481368114,-0.1899,0.01,0.0179,-0.1899,0.01,0.0,0.0,0.0,0.0,0.0,0.0,0.0,1.0140000000001237,1.0140000000001237
34.526211948,108.425182106,0.0,-0.12007865253720987,0.027925268031909273,-2.6776841384097008,0.030753402748305403,-0.00636316418855486,-0.008,-0.031,0.008,0.0007998475343082329,0.0013407352745564488,0.0062549581522181475,0.0007998475343082329,0.0013407352745564488,0.0062549581522181475,-0.2012,0.05,0.0179,-0.2012,0.05,0.0,0.0,0.0,0.0,0.0,0.0,0.0,1.1140000000000327,1.1140000000000327
34.526211976,108.425182098,0.0,-0.14049900478554353,0.034732052114687155,-2.6769860067089026,0.03106093678754606,-0.007344898386136852,-0.008,-0.031,0.008,0.0009995598744404384,0.001438136431731882,0.006888041497462618,0.0009995598744404384,0.001438136431731882,0.006888041497462618,-0.2058,0.08,0.0156,-0.2058,0.08,0.0,0.0,0.0,0.0,0.0,0.0,0.0,1.2140000000001692,1.2140000000001692
34.526212034,108.425182083,0.0,-0.17558012275062956,0.052708943410228755,-2.6773350725593015,0.06434051391965269,-0.013771681123550764,-0.008,-0.031,0.008,0.0010286919664612261,0.0011760899445953754,0.006087127112690004,0.0010286919664612261,0.0011760899445953754,0.006087127112690004,-0.1232,0.08,0.0078,-0.1232,0.08,0.0,0.0,0.0,0.0,0.0,0.0,0.0,1.4170000000001437,1.4170000000001437
34.526212062,108.425182075,0.0,-0.18500490071139894,0.05969026041820607,-2.6783822701104976,0.01530096104402301,-0.0036181765376915747,-0.008,-0.031,0.008,0.0006215011122724069,0.0007150843045737695,0.0034734690188725735,0.0006215011122724069,0.0007150843045737695,0.0034734690188725735,-0.0574,0.05,0.0014,-0.0574,0.05,0.0,0.0,0.0,0.0,0.0,0.0,0.0,1.5170000000000528,1.5170000000000528
34.52621209,108.425182067,0.0,-0.18762289458939044,0.06318091892219473,-2.679254934736495,0.031060936789992298,-0.0073448983666035885,-0.008,-0.031,0.008,0.000220463817706075,0.0002205352145458549,0.0010829757525485687,0.000220463817706075,0.0002205352145458549,0.0010829757525485687,0.0079,0.01,-0.0051,0.0079,0.01,0.0,0.0,0.0,0.0,0.0,0.0,0.0,1.6169999999999618,1.6169999999999618
34.526212119,108.42518206,0.0,-0.18448130193580065,0.062482787221396996,-2.679778533512094,0.03217026048866025,-0.006426782742142162,-0.008,-0.031,0.008,-0.00024662529862355773,-0.00020425812076603188,-0.0010308431230779368,-0.00024662529862355773,-0.00020425812076603188,-0.0010308431230779368,0.0596,-0.03,-0.0086,0.0596,-0.03,0.0,0.0,0.0,0.0,0.0,0.0,0.0,1.7170000000000982,1.7170000000000982
34.526212176,108.425182044,0.0,-0.1610938899590766,0.05009094953223726,-2.6783822701104976,0.06323120435745634,-0.014689796694898003,-0.008,-0.031,0.008,-0.0006309663547366831,-0.0009360449408270106,-0.004035367195665831,-0.0006309663547366831,-0.0009360449408270106,-0.004035367195665831,0.1694,-0.09,0.0055,0.1694,-0.09,0.0,0.0,0.0,0.0,0.0,0.0,0.0,1.9200000000000728,1.9200000000000728
34.52621034,108.425178264,0.0,-0.14241886696273728,0.04153883619746504,-2.675938809157706,-1.0033054530550944,-1.7095884109252937,0.133,-0.078,-0.039,1.4096120107379335,-0.4716342875342291,-0.4764437107125504,1.4096120107379335,-0.4716342875342291,-0.4764437107125504,0.2038,-0.09,0.0178,0.2038,-0.09,0.0,0.0,0.0,0.0,0.0,0.0,0.0,2.019999999999982,2.019999999999982
34.526210349,108.425178097,0.0,-0.1213003830136059,0.03438298626428829,-2.6726226835789166,0.00998389188860602,-0.1533247564891056,0.133,-0.078,-0.039,0.0047538957517015,0.011231565740841746,-0.006495928900351196,0.0047538957517015,0.011231565740841746,-0.006495928900351196,0.2099,-0.06,0.0284,0.2099,-0.06,0.0,0.0,0.0,0.0,0.0,0.0,0.0,2.1200000000001182,2.1200000000001182
34.526210357,108.42517793,0.0,-0.10088003076527226,0.030543261909900768,-2.668957492149729,0.00887455802482628,-0.1533247362757102,0.133,-0.078,-0.039,0.0041521412245256115,0.012082247210384438,-0.010351255718344927,0.0041521412245256115,0.012082247210384438,-0.010351255718344927,0.1926,-0.02,0.0353,0.1926,-0.02,0.0,0.0,0.0,0.0,0.0,0.0,0.0,2.2200000000000273,2.2200000000000273
34.526210372,108.425177589,0.0,-0.06684611035138283,0.03420845333908886,-2.661976175141751,0.016639805097765227,-0.31307629339182236,0.133,-0.078,-0.039,0.002263746382710044,0.010988181450419002,-0.015184010177794754,0.002263746382710044,0.010988181450419002,-0.015184010177794754,0.1386,0.05,0.0345,0.1386,0.05,0.0,0.0,0.0,0.0,0.0,0.0,0.0,2.423000000000002,2.423000000000002
34.526210379,108.425177422,0.0,-0.05497787143782138,0.03944444109507184,-2.659009115413361,0.0038252394188623305,-0.07552943978403888,0.133,-0.078,-0.039,0.0006439330836873018,0.008851537285683957,-0.01593356275280692,0.0006439330836873018,0.008851537285683957,-0.01593356275280692,0.0916,0.05,0.0297,0.0916,0.05,0.0,0.0,0.0,0.0,0.0,0.0,0.0,2.5230000000001382,2.5230000000001382
34.526210385,108.425177254,0.0,-0.04834562028024293,0.04415683007545653,-2.6563911215353695,0.006655936092610305,-0.1542428510581367,0.133,-0.078,-0.039,0.0004792103794975548,0.006304676880396836,-0.01118682034162684,0.0004792103794975548,0.006304676880396836,-0.01118682034162684,0.0326,0.04,0.0261,0.0326,0.04,0.0,0.0,0.0,0.0,0.0,0.0,0.0,2.6230000000000473,2.6230000000000473
34.526210391,108.425177086,0.0,-0.04799655442984406,0.04642575810304917,-2.6539476605825776,0.006655923280663392,-0.1542428638473285,0.133,-0.078,-0.039,0.0011566419576990972,0.003479170855127328,-0.0030430015841246775,0.0011566419576990972,0.003479170855127328,-0.0030430015841246775,-0.0321,0.01,0.0246,-0.0321,0.01,0.0,0.0,0.0,0.0,0.0,0.0,0.0,2.7230000000001837,2.7230000000001837
34.526210402,108.425176746,0.0,-0.06544984694978735,0.04136430327226561,-2.648537139901395,0.012202524753939799,-0.3121581835302716,0.133,-0.078,-0.039,0.0030203793381596597,-0.00014975866710164524,0.010299884729438602,0.0030203793381596597,-0.00014975866710164524,0.010299884729438602,-0.133,-0.06,0.0306,-0.133,-0.06,0.0,0.0,0.0,0.0,0.0,0.0,0.0,2.9260000000001583,2.9260000000001583
34.526208006,108.425170134,0.0,-0.07923794804054256,0.035255650890285456,-2.6446974155470078,-1.3093243104593193,-2.9904230478030764,1.993,-0.0,-0.039,18.605184720609834,0.778924449343187,0.019317942028004964,18.605184720609834,0.778924449343187,0.019317942028004964,-0.1444,-0.06,0.0374,-0.1444,-0.06,0.0,0.0,0.0,0.0,0.0,0.0,0.0,3.0260000000000673,3.0260000000000673
34.526207145,108.425168238,0.0,-0.09337511498169662,0.029670597283903602,-2.639985026566623,-0.9551236343181528,-1.7407410974182214,1.993,-0.0,-0.039,0.0028484715111227296,0.07749348401117226,0.11953578930167569,0.0028484715111227296,0.07749348401117226,0.11953578930167569,-0.137,-0.05,0.0457,-0.137,-0.05,0.0,0.0,0.0,0.0,0.0,0.0,0.0,3.1259999999999764,3.1259999999999764
34.526206272,108.425166338,0.0,-0.1064650843716541,0.02600540585471551,-2.6347490388106394,-0.9684354344002247,-1.7444135809940586,1.993,-0.0,-0.039,0.0020202185854457126,0.09078754104826865,0.08368708439517995,0.0020202185854457126,0.09078754104826865,0.08368708439517995,-0.126,-0.03,0.0508,-0.126,-0.03,0.0,0.0,0.0,0.0,0.0,0.0,0.0,3.2260000000001128,3.2260000000001128
34.526204469,108.425162509,0.0,-0.12897983172238095,0.026179938779914945,-2.6244515962238735,-2.0001019748787434,-3.515452517051583,1.993,-0.0,-0.039,0.0006968586442037132,0.09606314032339251,0.011263055838327738,0.0006968586442037132,0.09606314032339251,0.011263055838327738,-0.1071,0.01,0.05,-0.1071,0.01,0.0,0.0,0.0,0.0,0.0,0.0,0.0,3.4290000000000873,3.4290000000000873
34.526203573,108.425160625,0.0,-0.13945180723434694,0.027925268031909273,-2.6197392072434886,-0.4896303871876473,-0.8520807317985295,1.993,-0.0,-0.039,-0.00018736146744440234,0.09367552765383116,-0.021412653063190856,-0.00018736146744440234,0.09367552765383116,-0.021412653063190856,-0.1019,0.01,0.0453,-0.1019,0.01,0.0,0.0,0.0,0.0,0.0,0.0,0.0,3.5289999999999964,3.5289999999999964
34.52620267,108.425158745,0.0,-0.1492256510455152,0.028797932657906436,-2.6155504170387025,-1.0017148794200443,-1.7260514918654057,1.993,-0.0,-0.039,7.214351406255087e-05,0.08124954265690996,-0.004806351189286628,7.214351406255087e-05,0.08124954265690996,-0.004806351189286628,-0.0994,-0.01,0.0409,-0.0994,-0.01,0.0,0.0,0.0,0.0,0.0,0.0,0.0,3.629000000000133,3.629000000000133
34.52620176,108.42515687,0.0,-0.1593485607070823,0.02757620218151041,-2.611361626833916,-1.0094800954194234,-1.7214609615199101,1.993,-0.0,-0.039,0.0008944998413982933,0.0737929209473628,0.036896349254845986,0.0008944998413982933,0.0737929209473628,0.036896349254845986,-0.1063,-0.04,0.0403,-0.1063,-0.04,0.0,0.0,0.0,0.0,0.0,0.0,0.0,3.730000000000018,3.730000000000018
34.526199882,108.425153095,0.0,-0.17872171540421936,0.017627825445142728,-2.600540585471551,-2.062673857227829,-3.431559274523656,1.993,-0.0,-0.039,0.0032930676728086276,0.08377371448566268,0.11552088439120597,0.0032930676728086276,0.08377371448566268,0.11552088439120597,-0.0666,-0.07,0.053,-0.0666,-0.07,0.0,0.0,0.0,0.0,0.0,0.0,0.0,3.9320000000000164,3.9320000000000164
34.526204202,108.425161589,0.0,-0.18291050560900574,0.011693705988362009,-2.5935592684635735,2.3724045531873568,3.8606177092440737,1.993,-0.0,-0.039,0.0035977257710378377,0.11359996203832518,0.14158955428726222,0.0035977257710378377,0.11359996203832518,0.14158955428726222,-0.0154,-0.07,0.063,-0.0154,-0.07,0.0,0.0,0.0,0.0,0.0,0.0,0.0,4.032000000000153,4.032000000000153
34.526203258,108.425159752,0.0,-0.18203784098300857,0.007330382858376184,-2.5858798197547985,-1.0471969973899944,-1.686572626937008,1.993,-0.0,-0.039,0.00296559593234239,0.13373411320382284,0.11210599722118511,0.00296559593234239,0.13373411320382284,0.11210599722118511,0.0367,-0.05,0.0715,0.0367,-0.05,0.0,0.0,0.0,0.0,0.0,0.0,0.0,4.133000000000038,4.133000000000038
34.526202297,108.425157914,0.0,-0.17610372152622786,0.005235987755982988,-2.5780258381208236,-1.0555004044602811,-1.6707829758007906,1.993,-0.0,-0.039,0.002016108747286356,0.14907983011918388,0.06851197827752153,0.002016108747286356,0.14907983011918388,0.06851197827752153,0.0778,-0.02,0.0761,0.0778,-0.02,0.0,0.0,0.0,0.0,0.0,0.0,0.0,4.233000000000175,4.233000000000175
34.526200301,108.425154228,0.0,-0.15917402778188283,0.0041887902047863905,-2.562317874852875,-2.2142003213188035,-3.3841628574609057,1.993,-0.0,-0.039,0.0019527913544676954,0.15462258685228616,0.03474112583456745,0.0019527913544676954,0.15462258685228616,0.03474112583456745,0.066,-0.02,0.0759,0.066,-0.02,0.0,0.0,0.0,0.0,0.0,0.0,0.0,4.435000000000173,4.435000000000173
34.526199305,108.425152421,0.0,-0.15533430342749532,0.0017453292519943296,-2.5542893602937013,-0.5469710310156203,-0.8213016879690563,1.993,-0.0,-0.039,0.002138935680148482,0.15202717976898494,0.0728618992490265,0.002138935680148482,0.15202717976898494,0.0728618992490265,0.0045,-0.05,0.0745,0.0045,-0.05,0.0,0.0,0.0,0.0,0.0,0.0,0.0,4.535000000000082,4.535000000000082
34.526198296,108.425150622,0.0,-0.15795229730548685,-0.003490658503988659,-2.5459117798841286,-1.1193026273674078,-1.6516846057539925,1.993,-0.0,-0.039,0.0034608452711849995,0.1459832069133152,0.12802421335786382,0.0034608452711849995,0.1459832069133152,0.12802421335786382,-0.0573,-0.08,0.0758,-0.0573,-0.08,0.0,0.0,0.0,0.0,0.0,0.0,0.0,4.635999999999967,4.635999999999967
34.526197274,108.425148834,0.0,-0.16528268016386302,-0.01117010721276371,-2.536836067773758,-1.1224987401877604,-1.6253320707624437,1.993,-0.0,-0.039,0.004922853512559656,0.1503840068722603,0.18068849383975852,0.004922853512559656,0.1503840068722603,0.18068849383975852,-0.0787,-0.1,0.0791,-0.0787,-0.1,0.0,0.0,0.0,0.0,0.0,0.0,0.0,4.736000000000104,4.736000000000104
34.526195142,108.42514526,0.0,-0.17767451785302274,-0.027227136331111543,-2.5171138472262222,-2.365067480840808,-3.281334719706619,1.993,-0.0,-0.039,0.006840335573185743,0.16036504192241124,0.18927247366922131,0.006840335573185743,0.16036504192241124,0.18927247366922131,-0.0314,-0.08,0.0869,-0.0314,-0.08,0.0,0.0,0.0,0.0,0.0,0.0,0.0,4.939000000000078,4.939000000000078
34.52619944,108.425150415,0.0,-0.17976891295541594,-0.03298672286269283,-2.5071654704898543,2.348695817788355,2.3314636720377417,1.993,-0.0,-0.039,0.004212624008106634,0.17376927654804583,0.14833231863784818,0.004212624008106634,0.17376927654804583,0.14833231863784818,-0.0061,-0.06,0.0881,-0.0061,-0.06,0.0,0.0,0.0,0.0,0.0,0.0,0.0,5.038999999999987,5.038999999999987
34.526198365,108.425148685,0.0,-0.18029251173101424,-0.03682644721708035,-2.4975661596038856,-1.1925176764372425,-1.5883348865939664,1.993,-0.0,-0.039,0.0032068951850766653,0.1743088099762337,0.10953277836889402,0.0032068951850766653,0.1743088099762337,0.10953277836889402,0.0012,-0.05,0.0868,0.0012,-0.05,0.0,0.0,0.0,0.0,0.0,0.0,0.0,5.139000000000124,5.139000000000124
34.526197272,108.42514696,0.0,-0.18099064343181195,-0.040317105721069016,-2.4883159145683154,-1.2124853910387823,-1.5837443381730074,1.993,-0.0,-0.039,0.0029590809324170674,0.16856249549292937,0.10155558680530676,0.0029590809324170674,0.16856249549292937,0.10155558680530676,-0.0149,-0.05,0.0833,-0.0149,-0.05,0.0,0.0,0.0,0.0,0.0,0.0,0.0,5.239000000000033,5.239000000000033
34.526195003,108.425143511,0.0,-0.19268434942017396,-0.04974188368183839,-2.469989957422375,-2.517044200631202,-3.1665707732033987,1.993,-0.0,-0.039,0.004496485345495653,0.1566257792912827,0.12513270546794314,0.004496485345495653,0.1566257792912827,0.12513270546794314,-0.0856,-0.08,0.0819,-0.0856,-0.08,0.0,0.0,0.0,0.0,0.0,0.0,0.0,5.442000000000007,5.442000000000007
34.52619387,108.425141823,0.0,-0.20193459445574394,-0.056548667764616284,-2.460041580686007,-0.619141916069467,-0.763435637387605,1.993,-0.0,-0.039,0.004793346043963043,0.16338633149313156,0.17253418014119892,0.004793346043963043,0.16338633149313156,0.17253418014119892,-0.0839,-0.09,0.0869,-0.0839,-0.09,0.0,0.0,0.0,0.0,0.0,0.0,0.0,5.542000000000144,5.542000000000144
34.526192722,108.42514015,0.0,-0.2097885760897184,-0.06335545184739416,-2.4495696051740414,-1.2734978645957398,-1.5360026861377525,1.993,-0.0,-0.039,0.0049698678052081825,0.17273032516237552,0.17598451029949197,0.0049698678052081825,0.17273032516237552,0.17598451029949197,-0.0579,-0.09,0.0921,-0.0579,-0.09,0.0,0.0,0.0,0.0,0.0,0.0,0.0,5.642000000000053,5.642000000000053
34.526191559,108.425138492,0.0,-0.21485003092050198,-0.06911503837897545,-2.4385740308864774,-1.290137638039389,-1.522231067115286,1.993,-0.0,-0.039,0.004619391941981682,0.18750952917253688,0.1586782303819199,0.004619391941981682,0.18750952917253688,0.1586782303819199,-0.0216,-0.07,0.0967,-0.0216,-0.07,0.0,0.0,0.0,0.0,0.0,0.0,0.0,5.741999999999962,5.741999999999962
34.526189141,108.425135192,0.0,-0.21607176139689802,-0.0762708883121522,-2.4169319481617473,-2.682332560194386,-3.0297725174209966,1.993,-0.0,-0.039,0.004768315380677004,0.19204484065614544,0.1138777853261197,0.004768315380677004,0.19204484065614544,0.1138777853261197,0.011,-0.05,0.0974,0.011,-0.05,0.0,0.0,0.0,0.0,0.0,0.0,0.0,5.945000000000164,5.945000000000164
34.526192797,108.425138176,0.0,-0.21642082724729686,-0.07888888219014369,-2.4064599726497815,1.9978669631122041,1.3495810680685651,1.993,-0.0,-0.039,0.003026231942634904,0.19222717178207324,0.09555654828473215,0.003026231942634904,0.19222717178207324,0.09555654828473215,-0.0066,-0.05,0.0974,-0.0066,-0.05,0.0,0.0,0.0,0.0,0.0,0.0,0.0,6.045000000000073,6.045000000000073
34.526191582,108.425136588,0.0,-0.2192133540504878,-0.08150687606813518,-2.3956389312874165,-1.3478222400498654,-1.4579632410004466,1.993,-0.0,-0.039,0.0031297992149946262,0.19775721010769434,0.09758187714164426,0.0031297992149946262,0.19775721010769434,0.09758187714164426,-0.0359,-0.05,0.1022,-0.0359,-0.05,0.0,0.0,0.0,0.0,0.0,0.0,0.0,6.144999999999982,6.144999999999982
34.526190346,108.425135009,0.0,-0.22427480888127135,-0.08464846872172498,-2.3839452252990547,-1.3711179230232098,-1.4497002836113322,1.993,-0.0,-0.039,0.0036377709304980547,0.2109528703607709,0.11258054319562283,0.0036377709304980547,0.2109528703607709,0.11258054319562283,-0.0409,-0.06,0.1102,-0.0409,-0.06,0.0,0.0,0.0,0.0,0.0,0.0,0.0,6.245000000000118,6.245000000000118
34.526187775,108.42513189,0.0,-0.23003439541285262,-0.09005898940290741,-2.3582888852947383,-2.852058393537259,-2.86359434294167,1.993,-0.0,-0.039,0.0054604261846788885,0.2316000153359571,0.10864588884939727,0.0054604261846788885,0.2316000153359571,0.10864588884939727,0.0116,-0.05,0.1268,0.0116,-0.05,0.0,0.0,0.0,0.0,0.0,0.0,0.0,6.448000000000093,6.448000000000093
34.52618649,108.425130373,0.0,-0.22846359908605773,-0.09145525280450287,-2.344500784203983,-0.702204195287985,-0.686097278889489,1.993,-0.0,-0.039,0.003652664053122248,0.26138839201681546,0.0889133071042458,0.003652664053122248,0.26138839201681546,0.0889133071042458,0.0446,-0.04,0.1309,0.0446,-0.04,0.0,0.0,0.0,0.0,0.0,0.0,0.0,6.548000000000002,6.548000000000002
34.526185184,108.425128874,0.0,-0.22444934180647078,-0.09197885158010116,-2.3308872160384273,-1.4487702177014303,-1.3762514988307821,1.993,-0.0,-0.039,0.0032334515410293516,0.2631569880322097,0.07013402706854614,0.0032334515410293516,0.2631569880322097,0.07013402706854614,0.0575,-0.03,0.132,0.0575,-0.03,0.0,0.0,0.0,0.0,0.0,0.0,0.0,6.648000000000138,6.648000000000138
34.526183864,108.425127398,0.0,-0.22026055160168437,-0.0921533845053006,-2.3172736478728715,-1.4643006802356868,-1.3551349487285766,1.993,-0.0,-0.039,0.003077690507590774,0.2650267040332606,0.06224784974975298,0.003077690507590774,0.2650267040332606,0.06224784974975298,0.0512,-0.03,0.1328,0.0512,-0.03,0.0,0.0,0.0,0.0,0.0,0.0,0.0,6.748000000000047,6.748000000000047
34.5261811,108.425124525,0.0,-0.2150245638457014,-0.09337511498169662,-2.2813198652817883,-3.0661569213221402,-2.637739220403522,1.993,-0.0,-0.039,0.008040165232909688,0.34250054253311096,0.08610929555826716,0.008040165232909688,0.34250054253311096,0.08610929555826716,0.0284,-0.04,0.1458,0.0284,-0.04,0.0,0.0,0.0,0.0,0.0,0.0,0.0,6.951000000000022,6.951000000000022
34.5261846,108.425125302,0.0,-0.21258110289290932,-0.0937241808320955,-2.2659609678642383,1.9126192022769188,0.3514166122922401,1.993,-0.0,-0.039,0.0037409583622356438,0.29797759940039764,0.0708795458740383,0.0037409583622356438,0.29797759940039764,0.0708795458740383,0.0516,-0.03,0.1537,0.0516,-0.03,0.0,0.0,0.0,0.0,0.0,0.0,0.0,7.051000000000158,7.051000000000158
34.526183207,108.425123944,0.0,-0.2075196480621258,-0.09302604913129776,-2.24990393874589,-1.5452809931438307,-1.2467977675962638,1.993,-0.0,-0.039,0.003605621420167714,0.31722802324579435,0.051784393759690975,0.003605621420167714,0.31722802324579435,0.051784393759690975,0.0846,-0.02,0.1601,0.0846,-0.02,0.0,0.0,0.0,0.0,0.0,0.0,0.0,7.151000000000067,7.151000000000067
34.526181789,108.425122606,0.0,-0.19896753472735357,-0.09023352232810683,-2.2338469096275424,-1.5730139730021626,-1.2284355722350941,1.993,-0.0,-0.039,0.0028491562806955096,0.3272858673569859,0.00817485189945727,0.0028491562806955096,0.3272858673569859,0.00817485189945727,0.1179,0.0,0.1651,0.1179,0.0,0.0,0.0,0.0,0.0,0.0,0.0,0.0,7.250999999999976,7.250999999999976
34.526178839,108.425120004,0.0,-0.17226399717184032,-0.07888888219014369,-2.2013837855404477,-3.272490335972008,-2.3889310646799946,1.993,-0.0,-0.039,0.00486861638965237,0.3374971321848236,-0.05581358045469906,0.00486861638965237,0.3374971321848236,-0.05581358045469906,0.1726,0.05,0.1733,0.1726,0.05,0.0,0.0,0.0,0.0,0.0,0.0,0.0,7.454000000000178,7.454000000000178
34.526177374,108.425118756,0.0,-0.15533430342749532,-0.07068583470577035,-2.1848031576465017,-0.8005674845430258,-0.5644362540423095,1.993,-0.0,-0.039,0.0013526533402671102,0.3578689350933246,-0.1108141161031099,0.0013526533402671102,0.3578689350933246,-0.1108141161031099,0.1892,0.06,0.1781,0.1892,0.06,0.0,0.0,0.0,0.0,0.0,0.0,0.0,7.554000000000087,7.554000000000087
34.526175887,108.425117535,0.0,-0.13718287920675432,-0.062482787221396996,-2.167873463902157,-1.6495569972563866,-1.1210166087387634,1.993,-0.0,-0.039,0.001376598442278396,0.3633066761715299,-0.11617966120928021,0.001376598442278396,0.3633066761715299,-0.11617966120928021,0.199,0.05,0.1819,0.199,0.05,0.0,0.0,0.0,0.0,0.0,0.0,0.0,7.653999999999996,7.653999999999996
34.526174381,108.425116345,0.0,-0.11798425743481668,-0.05515240436302082,-2.150245638457014,-1.670634095215125,-1.0925551869202355,1.993,-0.0,-0.039,0.0017144772921633931,0.36961037518390033,-0.1030296230123966,0.0017144772921633931,0.36961037518390033,-0.1030296230123966,0.2034,0.04,0.1865,0.2034,0.04,0.0,0.0,0.0,0.0,0.0,0.0,0.0,7.755000000000109,7.755000000000109
34.526171259,108.425114071,0.0,-0.08587019919812101,-0.04468042885105484,-2.1132446583147346,-3.4290032611977845,-2.067119423485696,1.993,-0.0,-0.039,0.00611644237481342,0.3785473526351158,-0.07209820639430409,0.00611644237481342,0.3785473526351158,-0.07209820639430409,0.1145,0.02,0.188,0.1145,0.02,0.0,0.0,0.0,0.0,0.0,0.0,0.0,7.957000000000107,7.957000000000107
34.526174818,108.425112153,0.0,-0.07819075048934597,-0.04206243497306335,-2.094918701168794,1.9544893343679106,-0.8717511875246317,1.993,-0.0,-0.039,0.002976844310548849,0.3674571761056687,-0.02343820920641916,0.002976844310548849,0.3674571761056687,-0.02343820920641916,0.0489,0.0,0.1802,0.0489,0.0,0.0,0.0,0.0,0.0,0.0,0.0,0.0,8.057999999999993,8.057999999999993
34.526173253,108.425111103,0.0,-0.07731808586334879,-0.04136430327226561,-2.0774654086488504,-1.7188949973258294,-0.9544748071828423,1.993,-0.0,-0.039,0.003297265513073284,0.34818689036120015,0.012844909079893236,0.003297265513073284,0.34818689036120015,0.012844909079893236,-0.0219,-0.02,0.1705,-0.0219,-0.02,0.0,0.0,0.0,0.0,0.0,0.0,0.0,8.15800000000013,8.15800000000013
34.526171665,108.425110081,0.0,-0.08307767239493008,-0.04293509959906051,-2.0607102478297046,-1.7615983055669509,-0.9383124485670702,1.993,-0.0,-0.039,0.003934360878214657,0.327910426313454,0.058757058691149694,0.003934360878214657,0.327910426313454,0.058757058691149694,-0.0814,-0.04,0.161,-0.0814,-0.04,0.0,0.0,0.0,0.0,0.0,0.0,0.0,8.258000000000038,8.258000000000038
34.526168394,108.425108131,0.0,-0.11013027580084218,-0.052708943410228755,-2.0291197883686074,-3.6285819501214394,-1.7903224817258618,1.993,-0.0,-0.039,0.007734217133428957,0.2924719215141227,0.12909002808684614,0.007734217133428957,0.2924719215141227,0.12909002808684614,-0.1727,-0.08,0.1464,-0.1727,-0.08,0.0,0.0,0.0,0.0,0.0,0.0,0.0,8.461000000000013,8.461000000000013
34.526166771,108.425107201,0.0,-0.12950343049797924,-0.05969026041820607,-2.013586358025858,-0.8869086310563583,-0.4206138971164188,1.993,-0.0,-0.039,0.0062557152278355024,0.28136111434807176,0.1776703254010462,0.0062557152278355024,0.28136111434807176,0.1776703254010462,-0.1933,-0.09,0.1431,-0.1933,-0.09,0.0,0.0,0.0,0.0,0.0,0.0,0.0,8.56100000000015,8.56100000000015
34.526165134,108.4251063,0.0,-0.1499237827463129,-0.06667157742618339,-1.9982274606083081,-1.8159549809964222,-0.8272209936808211,1.993,-0.0,-0.039,0.006301348537650011,0.27374995177040357,0.18296859392404588,0.006301348537650011,0.27374995177040357,0.18296859392404588,-0.1911,-0.09,0.14,-0.1911,-0.09,0.0,0.0,0.0,0.0,0.0,0.0,0.0,8.661000000000058,8.661000000000058
34.526163488,108.425105429,0.0,-0.1689478715930511,-0.07278022980816354,-1.983392161966356,-1.8259388821724618,-0.7996776393105777,1.993,-0.0,-0.039,0.005774615039479075,0.26331784723156654,0.16938047930202402,0.005774615039479075,0.26331784723156654,0.16938047930202402,-0.1713,-0.08,0.1335,-0.1713,-0.08,0.0,0.0,0.0,0.0,0.0,0.0,0.0,8.760999999999967,8.760999999999967
34.526160108,108.425103772,0.0,-0.20263272615654165,-0.08237954069413235,-1.9561650256352447,-3.7494978829334342,-1.521315868761455,1.993,-0.0,-0.039,0.006768646070002205,0.2361098987479748,0.14555209681124592,0.006768646070002205,0.2361098987479748,0.14555209681124592,-0.1542,-0.07,0.1158,-0.1542,-0.07,0.0,0.0,0.0,0.0,0.0,0.0,0.0,8.96400000000017,8.96400000000017
34.526163208,108.425103329,0.0,-0.2192133540504878,-0.08604473212332044,-1.943773187946085,1.6940344860390257,-0.20035530327095102,1.993,-0.0,-0.039,0.004024773459444654,0.21830590642382008,0.12463948790648667,0.004024773459444654,0.21830590642382008,0.12463948790648667,-0.1475,-0.06,0.1147,-0.1475,-0.06,0.0,0.0,0.0,0.0,0.0,0.0,0.0,9.064000000000078,9.064000000000078
34.526161533,108.425102567,0.0,-0.23387411976724015,-0.08883725892651137,-1.931032284406526,-1.8581091923567719,-0.6996034370476923,1.993,-0.0,-0.039,0.0038249052594266624,0.22793187190925757,0.11258646570360009,0.0038249052594266624,0.22793187190925757,0.11258646570360009,-0.127,-0.05,0.1218,-0.127,-0.05,0.0,0.0,0.0,0.0,0.0,0.0,0.0,9.163999999999987,9.163999999999987
34.526159841,108.425101828,0.0,-0.24609142453120045,-0.08988445647770797,-1.91759324916617,-1.8769676312592338,-0.6784868936951536,1.993,-0.0,-0.039,0.003406340899100257,0.24938595066801472,0.08504925290895514,0.003406340899100257,0.24938595066801472,0.08504925290895514,-0.0897,-0.03,0.1341,-0.0897,-0.03,0.0,0.0,0.0,0.0,0.0,0.0,0.0,9.264000000000124,9.264000000000124
34.526156379,108.425100448,0.0,-0.2556907354171693,-0.0841248699461267,-1.8896679811342607,-3.840462220137769,-1.2669988589764305,1.993,-0.0,-0.039,0.0041972045372180656,0.2771452893717789,0.014028227025310785,0.0041972045372180656,0.2771452893717789,0.014028227025310785,0.0244,0.02,0.1454,0.0244,0.02,0.0,0.0,0.0,0.0,0.0,0.0,0.0,9.467000000000098,9.467000000000098
34.526154666,108.425099795,0.0,-0.2522000769131806,-0.0778416846389471,-1.8764034788191035,-0.9360903332532259,-0.2953346250940135,1.993,-0.0,-0.039,0.0010715796033689152,0.2881547853951171,-0.055666582045622526,0.0010715796033689152,0.2881547853951171,-0.055666582045622526,0.0678,0.04,0.1396,0.0678,0.04,0.0,0.0,0.0,0.0,0.0,0.0,0.0,9.567000000000007,9.567000000000007
34.526152942,108.425099165,0.0,-0.2441715623540067,-0.07016223593017204,-1.8643607069803427,-1.9124658984811556,-0.5784127106212387,1.993,-0.0,-0.039,0.00029592789864253503,0.27269696321309944,-0.09078107559686766,0.00029592789864253503,0.27269696321309944,-0.09078107559686766,0.1095,0.05,0.1338,0.1095,0.05,0.0,0.0,0.0,0.0,0.0,0.0,0.0,9.667000000000144,9.667000000000144
34.526151216,108.425098562,0.0,-0.2324778563656447,-0.06230825429619756,-1.852317935141582,-1.9146845665432624,-0.5536236972640559,1.993,-0.0,-0.039,0.00021648306030938244,0.27394230607617387,-0.09728071320650827,0.00021648306030938244,0.27394230607617387,-0.09728071320650827,0.1425,0.05,0.1356,0.1425,0.05,0.0,0.0,0.0,0.0,0.0,0.0,0.0,9.767000000000053,9.767000000000053
34.526147684,108.425097449,0.0,-0.19792033717615698,-0.04834562028024293,-1.8259634634364676,-3.9181147268757783,-1.0218630244510298,1.993,-0.0,-0.039,0.0029145107758135154,0.2870924323862865,-0.08392101359381764,0.0029145107758135154,0.2870924323862865,-0.08392101359381764,0.2129,0.03,0.1529,0.2129,0.03,0.0,0.0,0.0,0.0,0.0,0.0,0.0,9.970000000000027,9.970000000000027
34.526150162,108.425095742,0.0,-0.17697638615222502,-0.04223696789826278,-1.811477230644914,1.3541351923381322,-0.7720278190901709,1.993,-0.0,-0.039,0.001234619257504955,0.3137409365965126,-0.06925551599026844,0.001234619257504955,0.3137409365965126,-0.06925551599026844,0.2199,0.03,0.1519,0.2199,0.03,0.0,0.0,0.0,0.0,0.0,0.0,0.0,10.070000000000164,10.070000000000164
34.52614842,108.425095257,0.0,-0.15550883635269477,-0.03665191429188092,-1.79751459662896,-1.9324337366481108,-0.4452864636990626,1.993,-0.0,-0.039,0.0010659514738508812,0.3005092139901826,-0.06707291565741821,0.0010659514738508812,0.3005092139901826,-0.06707291565741821,0.2135,0.03,0.1408,0.2135,0.03,0.0,0.0,0.0,0.0,0.0,0.0,0.0,10.170000000000073,10.170000000000073
34.526146662,108.425094795,0.0,-0.13578661580515886,-0.0322885911618951,-1.784599160164202,-1.9501828696581098,-0.42416989277043127,1.993,-0.0,-0.039,0.0009497010580767655,0.274506773681111,-0.05147346714585111,0.0009497010580767655,0.274506773681111,-0.05147346714585111,0.1883,0.02,0.1242,0.1883,0.02,0.0,0.0,0.0,0.0,0.0,0.0,0.0,10.269999999999982,10.269999999999982
34.526143081,108.42509396,0.0,-0.10297442586766545,-0.029670597283903602,-1.761560814037877,-3.9724715483458155,-0.7666278522643077,1.993,-0.0,-0.039,0.002738619534218639,0.23393757523496583,-0.002515483944557261,0.002738619534218639,0.23393757523496583,-0.002515483944557261,0.1468,-0.02,0.1154,0.1468,-0.02,0.0,0.0,0.0,0.0,0.0,0.0,0.0,10.473000000000184,10.473000000000184
34.526141313,108.425093575,0.0,-0.0895353906273091,-0.031415926535897934,-1.749343509273917,-0.966145871425172,-0.1741257398274445,1.993,-0.0,-0.039,0.0026838071348151363,0.24467623630372143,0.05632150851325832,0.0026838071348151363,0.24467623630372143,0.05632150851325832,0.1251,-0.04,0.1245,0.1251,-0.04,0.0,0.0,0.0,0.0,0.0,0.0,0.0,10.573000000000093,10.573000000000093
34.526139538,108.425093217,0.0,-0.07906341511534314,-0.03438298626428829,-1.7362535398839594,-1.9690413723429023,-0.3286862337530008,1.993,-0.0,-0.039,0.003403080445360616,0.25950818721191343,0.0794578856144774,0.003403080445360616,0.25950818721191343,0.0794578856144774,0.0857,-0.04,0.1314,0.0857,-0.04,0.0,0.0,0.0,0.0,0.0,0.0,0.0,10.673000000000002,10.673000000000002
34.52613776,108.425092888,0.0,-0.07400196028455958,-0.03752457891787808,-1.7228145046436034,-1.9723693543058116,-0.30206096472610017,1.993,-0.0,-0.039,0.0034970299526200397,0.2618499275537689,0.08134070574375837,0.0034970299526200397,0.2618499275537689,0.08134070574375837,0.0207,-0.04,0.1295,0.0207,-0.04,0.0,0.0,0.0,0.0,0.0,0.0,0.0,10.774000000000115,10.774000000000115
34.526134966,108.425089541,0.0,-0.08307767239493008,-0.0445058959258554,-1.6978562963400834,-3.06874769462282,-3.0425023365248185,1.993,-0.0,-0.039,0.005010303973845094,0.23791885914744026,0.0889093480782719,0.005010303973845094,0.23791885914744026,0.0889093480782719,-0.0933,-0.05,0.1123,-0.0933,-0.05,0.0,0.0,0.0,0.0,0.0,0.0,0.0,10.976000000000113,10.976000000000113
34.526133188,108.425089292,0.0,-0.0937241808320955,-0.048869219055841226,-1.6863371232769213,-0.9764205029964145,-0.11317426603493354,1.993,-0.0,-0.039,0.003578397034530524,0.21625195066825728,0.10795300451277326,0.003578397034530524,0.21625195066825728,0.10795300451277326,-0.1049,-0.05,0.1102,-0.1049,-0.05,0.0,0.0,0.0,0.0,0.0,0.0,0.0,11.076000000000022,11.076000000000022
34.526131401,108.425089067,0.0,-0.10471975511965978,-0.052883476335428184,-1.674643417288559,-1.9823532997966975,-0.2065772920444178,1.993,-0.0,-0.039,0.003471145125573184,0.21690525537937733,0.10277143482630596,0.003471145125573184,0.21690525537937733,0.10277143482630596,-0.103,-0.05,0.114,-0.103,-0.05,0.0,0.0,0.0,0.0,0.0,0.0,0.0,11.177000000000135,11.177000000000135
34.52612961,108.425088868,0.0,-0.11571532940722405,-0.056025068989017976,-1.6626006454497981,-1.9671194059857076,-0.1808973979886687,1.993,-0.0,-0.039,0.003249402197990453,0.22680616122577082,0.08975991727880749,0.003249402197990453,0.22680616122577082,0.08975991727880749,-0.1063,-0.04,0.1196,-0.1063,-0.04,0.0,0.0,0.0,0.0,0.0,0.0,0.0,11.277000000000044,11.277000000000044
34.52612597,108.425088573,0.0,-0.14172073526193954,-0.05689773361501514,-1.63764243714628,-4.037921787837013,-0.27084717986841633,1.993,-0.0,-0.039,0.003792830852028614,0.23742073624898455,0.043014275033709665,0.003792830852028614,0.23742073624898455,0.043014275033709665,-0.1414,-0.0,0.1237,-0.1414,-0.0,0.0,0.0,0.0,0.0,0.0,0.0,0.0,11.479000000000042,11.479000000000042
34.526124176,108.425088454,0.0,-0.1567305668290908,-0.05497787143782138,-1.6255996653075182,-0.9852072399883698,-0.05408778356902887,1.993,-0.0,-0.039,0.0013862618523141483,0.2347281679932881,-0.000505240133677122,0.0013862618523141483,0.2347281679932881,-0.000505240133677122,-0.1387,0.01,0.1193,-0.1387,0.01,0.0,0.0,0.0,0.0,0.0,0.0,0.0,11.580000000000155,11.580000000000155
34.526122379,108.42508836,0.0,-0.16982053621904827,-0.052185344634630454,-1.6142550251695555,-1.973709506028927,-0.08545002716618767,1.993,-0.0,-0.039,0.0009717934490912554,0.22705632149765023,-0.01679741511347794,0.0009717934490912554,0.22705632149765023,-0.01679741511347794,-0.108,0.01,0.1138,-0.108,0.01,0.0,0.0,0.0,0.0,0.0,0.0,0.0,11.680000000000064,11.680000000000064
34.526120581,108.425088289,0.0,-0.17872171540421936,-0.04974188368183839,-1.6032594508819913,-1.994555945897043,-0.06518791427199733,1.993,-0.0,-0.039,0.0010469511224768442,0.22076935624112456,-0.009091524141899059,0.0010469511224768442,0.22076935624112456,-0.009091524141899059,-0.0513,0.0,0.1098,-0.0513,0.0,0.0,0.0,0.0,0.0,0.0,0.0,0.0,11.779999999999973,11.779999999999973
34.526120852,108.425087639,0.0,-0.1768018532270256,-0.0466002910282486,-1.5814428352320622,0.3006260881664849,-0.5967733501649085,1.993,-0.0,-0.039,0.0025319116956627682,0.2165861672202061,0.0071522067638046215,0.0025319116956627682,0.2165861672202061,0.0071522067638046215,0.0872,-0.01,0.1137,0.0872,-0.01,0.0,0.0,0.0,0.0,0.0,0.0,0.0,11.983000000000175,11.983000000000175
34.526119062,108.425087641,0.0,-0.16545721308906244,-0.04537856055185257,-1.5697491292437,-0.9781682016746536,0.0009036250484328477,1.993,-0.0,-0.039,0.001708068708707474,0.23827052980495084,0.014237375630650938,0.001708068708707474,0.23827052980495084,0.014237375630650938,0.1517,-0.01,0.1182,0.1517,-0.01,0.0,0.0,0.0,0.0,0.0,0.0,0.0,12.083000000000084,12.083000000000084
34.526117263,108.425087669,0.0,-0.14852751934471745,-0.0439822971502571,-1.5578808903301384,-1.995665347139329,0.025705281247004948,1.993,-0.0,-0.039,0.0016459456930095961,0.24461819976587884,0.0073243291435558695,0.0016459456930095961,0.24461819976587884,0.0073243291435558695,0.1904,-0.0,0.1207,0.1904,-0.0,0.0,0.0,0.0,0.0,0.0,0.0,0.0,12.182999999999993,12.182999999999993
34.526115465,108.425087723,0.0,-0.12932889757277982,-0.04223696789826278,-1.5458381184913776,-1.9945560448682564,0.049576229206467884,1.993,-0.0,-0.039,0.0014952924919346426,0.24995530195549925,-0.0037067566561518883,0.0014952924919346426,0.24995530195549925,-0.0037067566561518883,0.2009,0.0,0.1225,0.2009,0.0,0.0,0.0,0.0,0.0,0.0,0.0,0.0,12.28300000000013,12.28300000000013
34.526111817,108.42508794,0.0,-0.09232791743050003,-0.040317105721069016,-1.5217525748138558,-4.046796787832129,0.19922676778708315,1.993,-0.0,-0.039,0.0030936056894277737,0.2442688831911217,0.0027585312721299243,0.0030936056894277737,0.2442688831911217,0.0027585312721299243,0.1741,-0.01,0.1187,0.1741,-0.01,0.0,0.0,0.0,0.0,0.0,0.0,0.0,12.486000000000104,12.486000000000104
34.526110028,108.425088072,0.0,-0.07661995416255106,-0.040491638646268445,-1.5098843359002942,-0.9776217949649402,0.059699059738357034,1.993,-0.0,-0.039,0.0018968808230754378,0.24169082056727884,0.021450627298739307,0.0018968808230754378,0.24169082056727884,0.021450627298739307,0.1474,-0.02,0.1172,0.1474,-0.02,0.0,0.0,0.0,0.0,0.0,0.0,0.0,12.586000000000013,12.586000000000013
34.526108234,108.42508823,0.0,-0.06422811647339133,-0.04153883619746504,-1.4980160969867338,-1.9901188523091289,0.14506004857280577,1.993,-0.0,-0.039,0.0021744718123545064,0.23952943316198355,0.035905351882216885,0.0021744718123545064,0.23952943316198355,0.035905351882216885,0.1061,-0.02,0.1187,0.1061,-0.02,0.0,0.0,0.0,0.0,0.0,0.0,0.0,12.68600000000015,12.68600000000015
34.526106442,108.425088414,0.0,-0.056548667764616284,-0.04345869837465881,-1.4857987922227727,-1.9879002330507114,0.1689310073399324,1.993,-0.0,-0.039,0.0025753572856325293,0.24391804230868108,0.0518722638688228,0.0025753572856325293,0.24391804230868108,0.0518722638688228,0.0506,-0.03,0.1231,0.0506,-0.03,0.0,0.0,0.0,0.0,0.0,0.0,0.0,12.786000000000058,12.786000000000058
34.526106489,108.425086125,0.0,-0.06021385919380437,-0.04782202150464463,-1.4601424522184556,0.05214001230141231,-2.1015615805748595,1.993,-0.0,-0.039,0.0044356945366095645,0.24810367941455433,0.05774421537707438,0.0044356945366095645,0.24810367941455433,0.05774421537707438,-0.0806,-0.03,0.1313,-0.0806,-0.03,0.0,0.0,0.0,0.0,0.0,0.0,0.0,12.989000000000033,12.989000000000033
34.526104713,108.425086393,0.0,-0.07208209810736581,-0.049567350756638956,-1.4467034169780995,-0.9705178395157791,0.12120812808946713,1.993,-0.0,-0.039,0.0028219476521878176,0.2599522503906558,0.05384647970254256,0.0028219476521878176,0.2599522503906558,0.05384647970254256,-0.1421,-0.02,0.1309,-0.1421,-0.02,0.0,0.0,0.0,0.0,0.0,0.0,0.0,13.08900000000017,13.08900000000017
34.526102931,108.42508669,0.0,-0.0890117918517108,-0.05096361415823442,-1.4336134475881421,-1.9768071563416032,0.27267780277048564,1.993,-0.0,-0.039,0.0026345239963345723,0.25070604672459273,0.050739905060784546,0.0026345239963345723,0.25070604672459273,0.050739905060784546,-0.1804,-0.02,0.1262,-0.1804,-0.02,0.0,0.0,0.0,0.0,0.0,0.0,0.0,13.189000000000078,13.189000000000078
34.526101152,108.425087014,0.0,-0.10838494654884787,-0.05166174585903215,-1.421396142824182,-1.97347921307312,0.2974668742392913,1.993,-0.0,-0.039,0.0021839781458693323,0.2329301035966318,0.03999089056919749,0.0021839781458693323,0.2329301035966318,0.03999089056919749,-0.1908,-0.02,0.1177,-0.1908,-0.02,0.0,0.0,0.0,0.0,0.0,0.0,0.0,13.288999999999987,13.288999999999987
34.52609756,108.425087767,0.0,-0.1466076571675237,-0.05113814708343386,-1.3990559283986541,-3.9846753623121605,0.6913356906793203,1.993,-0.0,-0.039,0.0028108034150456066,0.21031390449099738,0.02665337669628457,0.0028108034150456066,0.21031390449099738,0.02665337669628457,-0.1755,-0.01,0.1061,-0.1755,-0.01,0.0,0.0,0.0,0.0,0.0,0.0,0.0,13.491999999999962,13.491999999999962
34.526095791,108.425088161,0.0,-0.16301375213627037,-0.050265482457436686,-1.3884094199614894,-0.9666926407701045,0.17819452832638957,1.993,-0.0,-0.039,0.0014043985673227182,0.20573695412764037,0.017123642477556406,0.0014043985673227182,0.20573695412764037,0.017123642477556406,-0.1313,-0.01,0.1092,-0.1313,-0.01,0.0,0.0,0.0,0.0,0.0,0.0,0.0,13.592000000000098,13.592000000000098
34.526094026,108.425088579,0.0,-0.1741838593490341,-0.04974188368183839,-1.3770647798235256,-1.9579488346926088,0.38376962141307525,1.993,-0.0,-0.039,0.001798910572601184,0.2200729003478134,0.028771128275621664,0.001798910572601184,0.2200729003478134,0.028771128275621664,-0.0736,-0.01,0.1146,-0.0736,-0.01,0.0,0.0,0.0,0.0,0.0,0.0,0.0,13.692000000000007,13.692000000000007
34.526092265,108.425089023,0.0,-0.17889624832941878,-0.04904375198104066,-1.3651965409099651,-1.9535115545012975,0.4076405989081144,1.993,-0.0,-0.039,0.0019394073663432715,0.23334137977633762,0.028273614761096945,0.0019394073663432715,0.23334137977633762,0.028273614761096945,-0.0067,-0.02,0.121,-0.0067,-0.02,0.0,0.0,0.0,0.0,0.0,0.0,0.0,13.792000000000144,13.792000000000144
34.526092389,108.425088253,0.0,-0.17086773377024483,-0.04852015320544236,-1.3407619313820438,0.13755624793232776,-0.70694732856912,1.993,-0.0,-0.039,0.003663107147632653,0.23875197837512888,0.03552252231298548,0.003663107147632653,0.23875197837512888,0.03552252231298548,0.0921,-0.02,0.1186,0.0921,-0.02,0.0,0.0,0.0,0.0,0.0,0.0,0.0,13.995000000000118,13.995000000000118
34.526090653,108.42508877,0.0,-0.15987215948268058,-0.04834562028024293,-1.3290682253936816,-0.9486594325148257,0.23382409959772932,1.993,-0.0,-0.039,0.002068472122872653,0.2348766206564017,0.03353039242742398,0.002068472122872653,0.2348766206564017,0.03353039242742398,0.146,-0.02,0.1145,0.146,-0.02,0.0,0.0,0.0,0.0,0.0,0.0,0.0,14.095000000000027,14.095000000000027
34.526088912,108.425089315,0.0,-0.14294246573833558,-0.04799655442984406,-1.3175490523305196,-1.9313252639365055,0.5003701066866849,1.993,-0.0,-0.039,0.001882736118568744,0.2324559146069744,0.025403079696190635,0.001882736118568744,0.2324559146069744,0.025403079696190635,0.2015,-0.01,0.114,0.2015,-0.01,0.0,0.0,0.0,0.0,0.0,0.0,0.0,14.19600000000014,14.19600000000014
34.526087178,108.425089884,0.0,-0.12217304763960307,-0.04799655442984406,-1.3058553463421572,-1.9045148926761586,0.5172325527806674,1.993,-0.0,-0.039,0.0020096691655577823,0.23936918474778607,0.028214977687586046,0.0020096691655577823,0.23936918474778607,0.028214977687586046,0.2148,-0.02,0.1176,0.2148,-0.02,0.0,0.0,0.0,0.0,0.0,0.0,0.0,14.29600000000005,14.29600000000005
34.526083684,108.425091142,0.0,-0.08569566627292158,-0.04939281783143953,-1.2810716709638374,-3.875962475950371,1.1549834205825629,1.993,-0.0,-0.039,0.003885140978720657,0.24941838425501525,0.034340785379477864,0.003885140978720657,0.24941838425501525,0.034340785379477864,0.1568,-0.02,0.1275,0.1568,-0.02,0.0,0.0,0.0,0.0,0.0,0.0,0.0,14.498000000000047,14.498000000000047
34.526081967,108.42509179,0.0,-0.07243116395776468,-0.05096361415823442,-1.2678071686486807,-0.9429216169400008,0.2945227405503613,1.993,-0.0,-0.039,0.002827696698834155,0.2665055516976612,0.050203118413455344,0.002827696698834155,0.2665055516976612,0.050203118413455344,0.1149,-0.03,0.1353,0.1149,-0.03,0.0,0.0,0.0,0.0,0.0,0.0,0.0,14.598000000000184,14.598000000000184
34.526080258,108.425092468,0.0,-0.06440264939859076,-0.052708943410228755,-1.2536700017075277,-1.8958271319273727,0.6224793889622794,1.993,-0.0,-0.039,0.0030652244926112114,0.2791806978729521,0.05217852960489463,0.0030652244926112114,0.2791806978729521,0.05217852960489463,0.0524,-0.03,0.1433,0.0524,-0.03,0.0,0.0,0.0,0.0,0.0,0.0,0.0,14.69900000000007,14.69900000000007
34.526078558,108.425093176,0.0,-0.06335545184739416,-0.054628805587422516,-1.2388347030655755,-1.867171572017019,0.6435869617028857,1.993,-0.0,-0.039,0.00334477294550174,0.29294929403871095,0.056757398622445235,0.00334477294550174,0.29294929403871095,0.056757398622445235,-0.0172,-0.03,0.15,-0.0172,-0.03,0.0,0.0,0.0,0.0,0.0,0.0,0.0,14.798999999999978,14.798999999999978
34.526078167,108.425091006,0.0,-0.08988445647770797,-0.05951572749300664,-1.1999138607461015,-0.43374202089001923,-1.9923071997911457,1.993,-0.0,-0.039,0.008989805423135414,0.372780761598453,0.08192585231912311,0.008989805423135414,0.372780761598453,0.08192585231912311,-0.1635,-0.03,0.1511,-0.1635,-0.03,0.0,0.0,0.0,0.0,0.0,0.0,0.0,15.000999999999976,15.000999999999976
34.52607651,108.425091819,0.0,-0.10873401239924674,-0.061261056745000965,-1.18490402917895,-0.9099716089062676,0.36951722941559784,1.993,-0.0,-0.039,0.003437804219890417,0.28324275033006213,0.06612114541233961,0.003437804219890417,0.28324275033006213,0.06612114541233961,-0.2007,-0.03,0.1442,-0.2007,-0.03,0.0,0.0,0.0,0.0,0.0,0.0,0.0,15.10200000000009,15.10200000000009
34.526074854,108.425092666,0.0,-0.13107422682477415,-0.06283185307179587,-1.1704177963873974,-1.8188448994306134,0.7699412911027305,1.993,-0.0,-0.039,0.0033310183681815424,0.273242247047786,0.06847788485476095,0.0033310183681815424,0.273242247047786,0.06847788485476095,-0.2199,-0.03,0.1385,-0.2199,-0.03,0.0,0.0,0.0,0.0,0.0,0.0,0.0,15.201999999999998,15.201999999999998
34.526073207,108.425093541,0.0,-0.1530653753999027,-0.06387905062299247,-1.1564551623714425,-1.8270495010771723,0.8033479240734588,1.993,-0.0,-0.039,0.0030633403016741894,0.26306817379892455,0.06275876170947414,0.0030633403016741894,0.26306817379892455,0.06275876170947414,-0.2008,-0.03,0.1351,-0.2008,-0.03,0.0,0.0,0.0,0.0,0.0,0.0,0.0,15.302000000000135,15.302000000000135
34.526069911,108.425095423,0.0,-0.19058995431778078,-0.06440264939859076,-1.1294025589655312,-3.6563177260252324,1.7278869826016905,1.993,-0.0,-0.039,0.004495561978626365,0.25365547472349254,0.05517231532736146,0.004495561978626365,0.25365547472349254,0.05517231532736146,-0.1533,-0.02,0.13,-0.1533,-0.02,0.0,0.0,0.0,0.0,0.0,0.0,0.0,15.504000000000133,15.504000000000133
34.526068297,108.425096376,0.0,-0.20525072003453315,-0.0635299847725936,-1.1163125895755739,-0.88635742671876,0.43314897852455275,1.993,-0.0,-0.039,0.002317934509008168,0.2505364975575851,0.03553330639022127,0.002317934509008168,0.2505364975575851,0.03553330639022127,-0.1228,-0.02,0.1283,-0.1228,-0.02,0.0,0.0,0.0,0.0,0.0,0.0,0.0,15.605000000000018,15.605000000000018
34.526066691,108.425097355,0.0,-0.21607176139689802,-0.06213372137099813,-1.103571686036015,-1.763928182038278,0.8899326202830861,1.993,-0.0,-0.039,0.0021102563400162725,0.24959103421439857,0.027030790434792847,0.0021102563400162725,0.24959103421439857,0.027030790434792847,-0.0722,-0.01,0.1278,-0.0722,-0.01,0.0,0.0,0.0,0.0,0.0,0.0,0.0,15.705000000000155,15.705000000000155
34.526065097,108.425098358,0.0,-0.2209586833024821,-0.0603883921190038,-1.0906562495712566,-1.768255627964205,0.9208667090363725,1.993,-0.0,-0.039,0.0021013762830082157,0.25670024035948913,0.022263786255715755,0.0021013762830082157,0.25670024035948913,0.022263786255715755,-0.0093,-0.01,0.1278,-0.0093,-0.01,0.0,0.0,0.0,0.0,0.0,0.0,0.0,15.805000000000064,15.805000000000064
34.526064965,108.425097614,0.0,-0.21345376751890652,-0.05707226654021458,-1.0653489754173382,-0.14642955666668728,-0.6830768536428606,1.993,-0.0,-0.039,0.0036326457030242247,0.25100899847281094,0.020530304898033737,0.0036326457030242247,0.25100899847281094,0.020530304898033737,0.093,-0.01,0.125,0.093,-0.01,0.0,0.0,0.0,0.0,0.0,0.0,0.0,16.008000000000038,16.008000000000038
34.52606341,108.425098684,0.0,-0.20315632493213998,-0.05585053606381855,-1.0529571377281797,-0.8497498734840588,0.48393124064851056,1.993,-0.0,-0.039,0.002098333018024119,0.25070539944677006,0.025790757214856155,0.002098333018024119,0.25070539944677006,0.025790757214856155,0.1297,-0.01,0.1223,0.1297,-0.01,0.0,0.0,0.0,0.0,0.0,0.0,0.0,16.108000000000175,16.108000000000175
34.526061858,108.425099783,0.0,-0.18936822384138474,-0.05480333851262195,-1.0405653000390194,-1.7216642803944597,1.009005743846583,1.993,-0.0,-0.039,0.002111645942504588,0.25175521813546153,0.025794490537261135,0.002111645942504588,0.25175521813546153,0.025794490537261135,0.156,-0.01,0.1233,0.156,-0.01,0.0,0.0,0.0,0.0,0.0,0.0,0.0,16.208000000000084,16.208000000000084
34.526060317,108.425100906,0.0,-0.17453292519943295,-0.053581608036225914,-1.028173462349859,-1.7094617895919755,1.0310405359147852,1.993,-0.0,-0.039,0.001982610908840846,0.2531328864335555,0.01871344715612882,0.001982610908840846,0.2531328864335555,0.01871344715612882,0.1455,-0.01,0.1254,0.1455,-0.01,0.0,0.0,0.0,0.0,0.0,0.0,0.0,16.307999999999993,16.307999999999993
34.526057244,108.425103275,0.0,-0.15341444125030154,-0.05131268000863329,-1.0028661881959424,-3.4089397428712074,2.1750092136473294,1.993,-0.0,-0.039,0.003577418170301128,0.252898506003496,0.015687549709199784,0.003577418170301128,0.252898506003496,0.015687549709199784,0.0664,-0.01,0.1265,0.0664,-0.01,0.0,0.0,0.0,0.0,0.0,0.0,0.0,16.510999999999967,16.510999999999967
34.526055744,108.425104464,0.0,-0.1494001839707146,-0.05113814708343386,-0.9901252846563835,-0.8196944463687813,0.5377518257694309,1.993,-0.0,-0.039,0.002306308484996345,0.2531059801412229,0.03421869356440994,0.002306308484996345,0.2531059801412229,0.03421869356440994,0.0244,-0.02,0.1286,0.0244,-0.02,0.0,0.0,0.0,0.0,0.0,0.0,0.0,16.611000000000104,16.611000000000104
34.526054251,108.425105682,0.0,-0.14905111812031574,-0.05183627878423159,-0.9768607823412268,-1.6562144786723962,1.1182615556704365,1.993,-0.0,-0.039,0.0027934112008104893,0.2594238843044926,0.0528733629047591,0.0027934112008104893,0.2594238843044926,0.0528733629047591,0.0015,-0.03,0.133,0.0015,-0.03,0.0,0.0,0.0,0.0,0.0,0.0,0.0,16.711000000000013,16.711000000000013
34.526052775,108.425106923,0.0,-0.1499237827463129,-0.05305800926062762,-0.9628981483252709,-1.637356036678345,1.139378247102331,1.993,-0.0,-0.039,0.00323284871239375,0.2710901594389733,0.06547889503319339,0.00323284871239375,0.2710901594389733,0.06547889503319339,-0.005,-0.04,0.1373,-0.005,-0.04,0.0,0.0,0.0,0.0,0.0,0.0,0.0,16.81100000000015,16.81100000000015
34.526052166,108.425104087,0.0,-0.15132004614790837,-0.05637413483941684,-0.9342747485925641,-0.6755734025487591,-2.6037718857581553,1.625,-0.266,-0.133,-1.8072903830896705,-1.037829194369891,-0.38880261709442154,-1.8072903830896705,-1.037829194369891,-0.38880261709442154,0.0269,-0.04,0.1406,0.0269,-0.04,0.0,0.0,0.0,0.0,0.0,0.0,0.0,17.014000000000124,17.014000000000124
34.526050862,108.425104925,0.0,-0.1488765851951163,-0.05759586531581287,-0.9199630487262117,-0.7125876292731663,0.37900415465088017,1.625,-0.266,-0.133,0.0432275058835941,0.23071870429907188,0.04523477870784934,0.0432275058835941,0.23071870429907188,0.04523477870784934,0.0335,-0.03,0.1393,0.0335,-0.03,0.0,0.0,0.0,0.0,0.0,0.0,0.0,17.114000000000033,17.114000000000033
34.52604956,108.42510579,0.0,-0.1467821900927231,-0.05811946409141117,-0.9060004147102559,-1.4443342468802447,0.7941675372820385,1.625,-0.266,-0.133,0.041484473382649364,0.22641711334228956,0.033679093925233515,0.041484473382649364,0.22641711334228956,0.033679093925233515,0.0213,-0.02,0.1352,0.0213,-0.02,0.0,0.0,0.0,0.0,0.0,0.0,0.0,17.21400000000017,17.21400000000017
34.526048268,108.425106676,0.0,-0.14590952546672595,-0.05777039824101231,-0.8925613794698999,-1.4332410627775958,0.8134479606551897,1.625,-0.266,-0.133,0.0390579672263156,0.2184711636008058,0.0215776597629371,0.0390579672263156,0.2184711636008058,0.0215776597629371,0.009,-0.01,0.1303,0.009,-0.01,0.0,0.0,0.0,0.0,0.0,0.0,0.0,17.314000000000078,17.314000000000078
34.526045682,108.425108554,0.0,-0.14817845349431857,-0.05585053606381855,-0.8676031711663819,-2.8687008274416725,1.7242160939664024,1.625,-0.266,-0.133,0.0363053075728118,0.19855867481643127,0.015192571107498953,0.0363053075728118,0.19855867481643127,0.015192571107498953,-0.0181,-0.01,0.1192,-0.0181,-0.01,0.0,0.0,0.0,0.0,0.0,0.0,0.0,17.517000000000053,17.517000000000053
34.526044424,108.425109492,0.0,-0.15114551322270894,-0.05480333851262195,-0.8560839981032189,-0.6874503548070582,0.42423152856219787,1.625,-0.266,-0.133,0.03263835121995063,0.1840429186696445,0.017442403015102116,0.03263835121995063,0.1840429186696445,0.017442403015102116,-0.024,-0.01,0.1146,-0.024,-0.01,0.0,0.0,0.0,0.0,0.0,0.0,0.0,17.616999999999962,17.616999999999962
34.526043168,108.425110452,0.0,-0.15358897417550102,-0.054105206811824215,-0.8447393579652551,-1.3933055983322145,0.8813885319665915,1.625,-0.266,-0.133,0.03246835292491457,0.18103652542256862,0.021731754947312918,0.03246835292491457,0.18103652542256862,0.021731754947312918,-0.0081,-0.01,0.1114,-0.0081,-0.01,0.0,0.0,0.0,0.0,0.0,0.0,0.0,17.7170000000001,17.7170000000001
34.526041921,108.425111428,0.0,-0.15428710587629874,-0.054105206811824215,-0.8335692507524917,-1.3833217157391744,0.8960783965270768,1.625,-0.266,-0.133,0.032602414062070706,0.17880111333579085,0.028022009592682227,0.032602414062070706,0.17880111333579085,0.028022009592682227,0.0099,-0.02,0.1096,0.0099,-0.02,0.0,0.0,0.0,0.0,0.0,0.0,0.0,17.817000000000007,17.817000000000007
34.52604046,108.425113617,0.0,-0.15027284859671178,-0.05585053606381855,-0.8112290363269646,-1.6207168050509142,2.009750723481803,1.5,-0.258,-0.148,-0.5818516753122329,0.21694545573862417,-0.04041508255746308,-0.5818516753122329,0.21694545573862417,-0.04041508255746308,0.0393,-0.03,0.1093,0.0393,-0.03,0.0,0.0,0.0,0.0,0.0,0.0,0.0,18.019999999999982,18.019999999999982
34.526039332,108.42511455,0.0,-0.14625859131712482,-0.05689773361501514,-0.799884396189002,-0.6164101850441714,0.42197027680058813,1.5,-0.258,-0.148,0.033503528112880834,0.17248474879774028,0.028181376567867348,0.033503528112880834,0.17248474879774028,0.028181376567867348,0.0591,-0.02,0.1107,0.0591,-0.02,0.0,0.0,0.0,0.0,0.0,0.0,0.0,18.12000000000012,18.12000000000012
34.526038208,108.425115504,0.0,-0.14032447186034408,-0.05742133239061344,-0.7885397560510382,-1.2468753965962207,0.87588007852434,1.5,-0.258,-0.148,0.032889092885976225,0.17663779150999637,0.01443607443322676,0.032889092885976225,0.17663779150999637,0.01443607443322676,0.0711,-0.02,0.115,0.0711,-0.02,0.0,0.0,0.0,0.0,0.0,0.0,0.0,18.220000000000027,18.220000000000027
34.526037093,108.425116473,0.0,-0.13369222070276565,-0.05707226654021458,-0.7766715171374766,-1.2368915380396808,0.8896518178660093,1.5,-0.258,-0.148,0.03339440062608149,0.1874070402543187,-0.00048146130577172985,0.03339440062608149,0.1874070402543187,-0.00048146130577172985,0.0766,-0.01,0.1205,0.0766,-0.01,0.0,0.0,0.0,0.0,0.0,0.0,0.0,18.320000000000164,18.320000000000164
34.526034873,108.425118509,0.0,-0.11972958668681101,-0.054105206811824215,-0.7513642429835591,-2.462689917863601,1.869278902091852,1.5,-0.258,-0.148,0.03504254525908066,0.1986116219976971,-0.01921571829127345,0.03504254525908066,0.1986116219976971,-0.01921571829127345,0.0751,0.0,0.1344,0.0751,0.0,0.0,0.0,0.0,0.0,0.0,0.0,0.0,18.52300000000014,18.52300000000014
34.526033792,108.425119528,0.0,-0.11309733552923257,-0.05201081170943102,-0.737925207743202,-0.5907264391778597,0.46086582451798624,1.5,-0.258,-0.148,0.03570652175255569,0.21411994000084356,-0.02754881053756642,0.03570652175255569,0.21411994000084356,-0.02754881053756642,0.0691,0.01,0.1396,0.0691,0.01,0.0,0.0,0.0,0.0,0.0,0.0,0.0,18.623000000000047,18.623000000000047
34.526032722,108.425120566,0.0,-0.10786134777324956,-0.04991641660703782,-0.7239625737272483,-1.1869721816290872,0.9530018354749411,1.5,-0.258,-0.148,0.03710400586807299,0.21982930421775787,-0.02414996100757805,0.03710400586807299,0.21982930421775787,-0.02414996100757805,0.0448,0.0,0.1413,0.0448,0.0,0.0,0.0,0.0,0.0,0.0,0.0,0.0,18.723000000000184,18.723000000000184
34.526031662,108.425121624,0.0,-0.10541788682045751,-0.04799655442984406,-0.7099999397112934,-1.1758789705943984,0.9713641370995756,1.5,-0.258,-0.148,0.03719423647581105,0.21541200145695485,-0.014764378962305775,0.03719423647581105,0.21541200145695485,-0.014764378962305775,0.0207,0.0,0.1398,0.0207,0.0,0.0,0.0,0.0,0.0,0.0,0.0,0.0,18.823000000000093,18.823000000000093
34.526029488,108.425125498,0.0,-0.10663961729685355,-0.04590215932745086,-0.6829473363053811,-2.41166210342139,3.556773220927509,1.602,-0.156,-0.086,0.540172934813301,0.7021917786610378,0.3110823944946183,0.540172934813301,0.7021917786610378,0.3110823944946183,-0.0195,-0.01,0.1308,-0.0195,-0.01,0.0,0.0,0.0,0.0,0.0,0.0,0.0,19.026000000000067,19.026000000000067
34.526028485,108.425126755,0.0,-0.10978120995044333,-0.04537856055185257,-0.6700318998406228,-0.5481023798957854,0.5685069028889921,1.602,-0.156,-0.086,0.022170799067243584,0.2040287613785821,0.018216025139771615,0.022170799067243584,0.2040287613785821,0.018216025139771615,-0.0322,-0.01,0.1246,-0.0322,-0.01,0.0,0.0,0.0,0.0,0.0,0.0,0.0,19.125999999999976,19.125999999999976
34.526027489,108.425128032,0.0,-0.11379546723003028,-0.045553093477052,-0.6578145950766627,-1.1048825992434277,1.1724313426729176,1.602,-0.156,-0.086,0.02117731569866442,0.18894330422623706,0.02999974973491268,0.02117731569866442,0.18894330422623706,0.02999974973491268,-0.0289,-0.02,0.1183,-0.0289,-0.02,0.0,0.0,0.0,0.0,0.0,0.0,0.0,19.22700000000009,19.22700000000009
34.526026508,108.425129322,0.0,-0.11606439525762292,-0.04590215932745086,-0.6461208890883005,-1.077468112712888,1.1726404558988583,1.602,-0.156,-0.086,0.020577902772638774,0.18362721978009514,0.029863289047711086,0.020577902772638774,0.18362721978009514,0.029863289047711086,-0.0093,-0.02,0.1142,-0.0093,-0.02,0.0,0.0,0.0,0.0,0.0,0.0,0.0,19.326999999999998,19.326999999999998
34.526024567,108.425131995,0.0,-0.11798425743481668,-0.04729842272904633,-0.6230825429619754,-2.153189913242568,2.4541184384613084,1.602,-0.156,-0.086,0.021362814842666743,0.17936175760733042,0.032994368841355835,0.021362814842666743,0.17936175760733042,0.032994368841355835,-0.0084,-0.02,0.1118,-0.0084,-0.02,0.0,0.0,0.0,0.0,0.0,0.0,0.0,19.528999999999996,19.528999999999996
34.526023621,108.425133327,0.0,-0.11990411961201045,-0.04834562028024293,-0.6115633698988124,-0.5195131637685084,0.6054097823085838,1.602,-0.156,-0.086,0.02076178337430243,0.17971245826356463,0.04076470303100235,0.02076178337430243,0.17971245826356463,0.04076470303100235,-0.0165,-0.02,0.1133,-0.0165,-0.02,0.0,0.0,0.0,0.0,0.0,0.0,0.0,19.629000000000133,19.629000000000133
34.526022689,108.425134672,0.0,-0.12199851471440364,-0.04939281783143953,-0.5998696639104512,-1.033886123894245,1.2348632851446812,1.602,-0.156,-0.086,0.020883694514073188,0.18045342812479187,0.041305858540351015,0.020883694514073188,0.18045342812479187,0.041305858540351015,-0.0146,-0.02,0.1174,-0.0146,-0.02,0.0,0.0,0.0,0.0,0.0,0.0,0.0,19.730000000000018,19.730000000000018
34.52602177,108.42513603,0.0,-0.12322024519079966,-0.050265482457436686,-0.5878268920716904,-1.009371250400114,1.2344542680802055,1.602,-0.156,-0.086,0.021628341525205968,0.18885703819250665,0.0384449550613438,0.021628341525205968,0.18885703819250665,0.0384449550613438,0.0074,-0.02,0.1207,0.0074,-0.02,0.0,0.0,0.0,0.0,0.0,0.0,0.0,19.830000000000155,19.830000000000155
34.526019946,108.425138624,0.0,-0.12060225131280818,-0.050789081233034994,-0.5628686837681712,-2.023399363221376,2.3815877397722147,1.602,-0.203,-0.102,0.02293388076121311,-0.03536171634105396,-0.054195069849066475,0.02293388076121311,-0.03536171634105396,-0.054195069849066475,0.0216,-0.01,0.1244,0.0216,-0.01,0.0,0.0,0.0,0.0,0.0,0.0,0.0,20.03300000000013,20.03300000000013
34.526019038,108.42513999,0.0,-0.11938052083641214,-0.05044001538263613,-0.5503023131538116,-0.4961883625575433,0.6178048355074667,1.602,-0.203,-0.102,0.02782913897565708,0.20201608888211278,0.014541120872036673,0.02782913897565708,0.20201608888211278,0.014541120872036673,0.0118,-0.01,0.1249,0.0118,-0.01,0.0,0.0,0.0,0.0,0.0,0.0,0.0,20.133000000000038,20.133000000000038
