lat,lon,alt,roll,pitch,yaw,vn,ve,vf,vl,vu,ax,ay,az,af,al,au,wx,wy,wz,wf,wl,wu,pos_accuracy,vel_accuracy,navstat,numsats,posmode,velmode,orimode,time
38.862197883,121.663368148,0.0,0.005061454830783556,-0.02234021442552742,-2.288650248140164,0.0,0.0,0.016,-0.07,-0.055,0.0,0.0,0.0,0.0,0.0,0.0,-0.0564,-0.04,-0.0117,-0.0564,-0.04,0.0,0.0,0.0,0.0,0.0,0.0,0.0,0.0,0.0
38.862201008,121.663370298,0.0,-0.010995574287564275,-0.04014257279586958,-2.2870794518133692,0.0,0.0,0.016,-0.07,-0.055,0.0027365532490751573,-0.00216490842227687,0.0034633151933522325,0.0027365532490751573,-0.00216490842227687,0.0034633151933522325,-0.0553,-0.01,0.0281,-0.0553,-0.01,0.0,0.0,0.0,0.0,0.0,0.0,0.0,0.40099999999983993,0.40099999999983993
38.862200972,121.663370211,0.0,-0.02775073510670984,-0.03560471674068432,-2.2804472006557908,-0.009966238253086594,-0.018830656202429807,0.039,-0.016,-0.047,0.1138354442055001,0.2607354957899564,0.04450281588529337,0.1138354442055001,0.2607354957899564,0.04450281588529337,-0.1049,0.06,0.0352,-0.1049,0.06,0.0,0.0,0.0,0.0,0.0,0.0,0.0,0.6049999999995634,0.6049999999995634
38.862200955,121.663370168,0.0,-0.039269908169872414,-0.02775073510670984,-2.2774801409274006,-0.009251074474656463,-0.018294852539150953,0.039,-0.016,-0.047,-0.0031281857115694864,-0.004099247798639005,-0.0012301363545441125,-0.0031281857115694864,-0.004099247798639005,-0.0012301363545441125,-0.1334,0.09,0.0275,-0.1334,0.09,0.0,0.0,0.0,0.0,0.0,0.0,0.0,0.7049999999999272,0.7049999999999272
38.862200937,121.663370125,0.0,-0.053581608036225914,-0.017453292519943295,-2.275734811675406,-0.019982305757554355,-0.037321496045470644,0.039,-0.016,-0.047,-0.004438813074097013,-0.005824395296163755,-0.0017608456622787978,-0.004438813074097013,-0.005824395296163755,-0.0017608456622787978,-0.1496,0.11,0.0153,-0.1496,0.11,0.0,0.0,0.0,0.0,0.0,0.0,0.0,0.8049999999993815,0.8049999999993815
38.86220092,121.663370082,0.0,-0.06876597252857658,-0.005934119456780721,-2.275560278750207,-0.01887219072928854,-0.037321498529139734,0.039,-0.016,-0.047,-0.0052492583233933535,-0.006774734996877563,-0.002132452547165767,-0.0052492583233933535,-0.006774734996877563,-0.002132452547165767,-0.1527,0.12,-0.0005,-0.1527,0.12,0.0,0.0,0.0,0.0,0.0,0.0,0.0,0.9049999999997453,0.9049999999997453
38.862200884,121.663369995,0.0,-0.09669124056048586,0.013962634015954637,-2.28079626650619,-0.039964621166241936,-0.07551093842841285,0.039,-0.016,-0.047,-0.004966446098395014,-0.007166141338827048,-0.0018522893831960782,-0.004966446098395014,-0.007166141338827048,-0.0018522893831960782,-0.1177,0.08,-0.0348,-0.1177,0.08,0.0,0.0,0.0,0.0,0.0,0.0,0.0,1.106999999999971,1.106999999999971
38.862200867,121.663369952,0.0,-0.10821041362364843,0.019896753472735354,-2.2855086554865744,-0.009342668448679724,-0.018475989239652966,0.039,-0.016,-0.047,-0.00363729238477619,-0.006971208918153673,-0.0007113136415807899,-0.00363729238477619,-0.006971208918153673,-0.0007113136415807899,-0.1082,0.05,-0.0448,-0.1082,0.05,0.0,0.0,0.0,0.0,0.0,0.0,0.0,1.2069999999994252,1.2069999999994252
38.86220085,121.663369909,0.0,-0.11798425743481668,0.022514747350726852,-2.290570110317358,-0.018872178081088275,-0.037321492579252206,0.039,-0.016,-0.047,-0.0022335452010651805,-0.006395628151557676,0.00027496527887745483,-0.0022335452010651805,-0.006395628151557676,0.00027496527887745483,-0.0836,0.02,-0.0498,-0.0836,0.02,0.0,0.0,0.0,0.0,0.0,0.0,0.0,1.306999999999789,1.306999999999789
38.862202288,121.663371369,0.0,-0.12496557444279399,0.022165681500327987,-2.2954570322229424,1.596364852331253,1.267194965832853,0.039,-0.016,-0.047,-0.0008856703430475904,-0.005143372400686485,0.000986005746491359,-0.0008856703430475904,-0.005143372400686485,0.000986005746491359,-0.0499,-0.01,-0.0463,-0.0499,-0.01,0.0,0.0,0.0,0.0,0.0,0.0,0.0,1.4070000000001528,1.4070000000001528
38.862202549,121.663371326,0.0,-0.12688543661998775,0.016057029118347832,-2.3027874150813186,0.28974353806171643,-0.03732151122728312,-0.094,-0.109,0.117,-0.6546052182588421,-0.46008316788238124,0.8090063068472026,-0.6546052182588421,-0.46008316788238124,0.8090063068472026,0.0372,-0.04,-0.0312,0.0372,-0.04,0.0,0.0,0.0,0.0,0.0,0.0,0.0,1.6099999999996726,1.6099999999996726
38.862202678,121.663371305,0.0,-0.12095131716320703,0.011868238913561441,-2.3048818101837116,0.0705451135285316,-0.008978711500039082,-0.094,-0.109,0.117,-0.007330511752632591,-0.004531533440960795,-0.010035628253669259,-0.007330511752632591,-0.004531533440960795,-0.010035628253669259,0.0822,-0.04,-0.0191,0.0822,-0.04,0.0,0.0,0.0,0.0,0.0,0.0,0.0,1.71100000000024,1.71100000000024
38.862202806,121.663371283,0.0,-0.11082840750163991,0.007853981633974483,-2.305754474809709,0.1406895650323081,-0.018905660325400666,-0.094,-0.109,0.117,-0.006019255502999266,-0.010680995114162008,-0.014630936030744186,-0.006019255502999266,-0.010680995114162008,-0.014630936030744186,0.1205,-0.04,-0.0064,0.1205,-0.04,0.0,0.0,0.0,0.0,0.0,0.0,0.0,1.8109999999996944,1.8109999999996944
38.862202935,121.663371262,0.0,-0.0973893722612836,0.0041887902047863905,-2.3052308760341105,0.14320656336000315,-0.01822679105960133,-0.094,-0.109,0.117,-0.004210794464501954,-0.015972379438346482,-0.0180080947005001,-0.004210794464501954,-0.015972379438346482,-0.0180080947005001,0.1495,-0.03,0.0084,0.1495,-0.03,0.0,0.0,0.0,0.0,0.0,0.0,0.0,1.9110000000000582,1.9110000000000582
38.862203196,121.663371217,0.0,-0.05497787143782138,-0.0005235987755982988,-2.2984240919513326,0.289743564892559,-0.039057379717625816,-0.094,-0.109,0.117,0.0002925350797287145,-0.028078623788578557,-0.02471569494421314,0.0002925350797287145,-0.028078623788578557,-0.02471569494421314,0.1792,-0.01,0.0381,0.1792,-0.01,0.0,0.0,0.0,0.0,0.0,0.0,0.0,2.1129999999993743,2.1129999999993743
38.862203324,121.663371194,0.0,-0.03717551306747922,-0.0005235987755982988,-2.294409834671746,0.07034476761468979,-0.00988250781531927,-0.094,-0.109,0.117,0.00410325547685628,-0.024781907158842018,-0.01936094508010635,0.00410325547685628,-0.024781907158842018,-0.01936094508010635,0.1757,0.0,0.0407,0.1757,0.0,0.0,0.0,0.0,0.0,0.0,0.0,0.0,2.212999999999738,2.212999999999738
38.862203452,121.663371171,0.0,-0.020245819323134222,-0.0,-2.2907446432425576,0.14209645063472373,-0.019962678423299338,-0.094,-0.109,0.117,0.004459860087278151,-0.023426873477633416,-0.017862508232422795,0.004459860087278151,-0.023426873477633416,-0.017862508232422795,0.1608,0.01,0.0305,0.1608,0.01,0.0,0.0,0.0,0.0,0.0,0.0,0.0,2.313000000000102,2.313000000000102
38.86220182,121.663369632,0.0,-0.005235987755982988,0.0006981317007977319,-2.288475715214965,-1.811729770301391,-1.3357623330688664,-0.125,-0.008,0.039,-0.30675171651045446,0.9901774211913664,-0.7955812763724467,-0.30675171651045446,0.9901774211913664,-0.7955812763724467,0.1367,0.01,0.0162,0.1367,0.01,0.0,0.0,0.0,0.0,0.0,0.0,0.0,2.412999999999556,2.412999999999556
38.862202003,121.663369811,0.0,0.015009831567151233,-0.00034906585039886593,-2.2891738469157628,0.20315351609350946,0.15536157284553584,-0.125,-0.008,0.039,-0.00022646542377398473,-0.0034434205380574493,-0.0013957753508503112,-0.00022646542377398473,-0.0034434205380574493,-0.0013957753508503112,0.0584,-0.02,-0.0213,0.0584,-0.02,0.0,0.0,0.0,0.0,0.0,0.0,0.0,2.6179999999994834,2.6179999999994834
38.862202092,121.663369899,0.0,0.018500490071139894,-0.0033161255787892262,-2.2919663737189535,0.04819582157013818,0.037257990309241366,-0.125,-0.008,0.039,-0.001403556832558765,0.0020596947890782844,-0.00404711469662876,-0.001403556832558765,0.0020596947890782844,-0.00404711469662876,0.0099,-0.04,-0.0321,0.0099,-0.04,0.0,0.0,0.0,0.0,0.0,0.0,0.0,2.717999999999847,2.717999999999847
38.862202181,121.663369988,0.0,0.017278759594743863,-0.007330382858376184,-2.2952824992977425,0.0988014381459082,0.07724681377432083,-0.125,-0.008,0.039,-0.0018654599663042897,0.004538108930366426,-0.00498541506409152,-0.0018654599663042897,0.004538108930366426,-0.00498541506409152,-0.0371,-0.05,-0.0309,-0.0371,-0.05,0.0,0.0,0.0,0.0,0.0,0.0,0.0,2.818000000000211,2.818000000000211
38.86220227,121.663370077,0.0,0.011344640137963142,-0.012042771838760872,-2.298249559026133,0.09880144176760947,0.07724681360750232,-0.125,-0.008,0.039,-0.0021077337010311503,0.005962695156325186,-0.005443177653482195,-0.0021077337010311503,0.005962695156325186,-0.005443177653482195,-0.0825,-0.05,-0.0254,-0.0825,-0.05,0.0,0.0,0.0,0.0,0.0,0.0,0.0,2.9179999999996653,2.9179999999996653
38.862202449,121.663370258,0.0,-0.012915436464758038,-0.01972222054753592,-2.301391151679723,0.1987130149765817,0.15709745915381176,-0.125,-0.008,0.039,-0.0016316834260070964,0.00668385740413142,-0.003700651830664916,-0.0016316834260070964,0.00668385740413142,-0.003700651830664916,-0.1633,-0.03,-0.0088,-0.1633,-0.03,0.0,0.0,0.0,0.0,0.0,0.0,0.0,3.119999999999891,3.119999999999891
38.862202537,121.663370348,0.0,-0.031066860685499065,-0.022165681500327987,-2.302089283380521,0.0483620390906182,0.03867067298137136,-0.125,-0.008,0.039,-0.0010117484777552926,0.008037724795077706,-0.0015069687404206634,-0.0010117484777552926,0.008037724795077706,-0.0015069687404206634,-0.2031,-0.02,-0.004,-0.2031,-0.02,0.0,0.0,0.0,0.0,0.0,0.0,0.0,3.2200000000002547,3.2200000000002547
38.862202626,121.663370437,0.0,-0.05305800926062762,-0.024085543677521744,-2.30226381630572,0.09880144044918687,0.07724681360901695,-0.125,-0.008,0.039,-0.0007673162263431311,0.008903049798949186,-0.0005303439274764402,-0.0007673162263431311,0.008903049798949186,-0.0005303439274764402,-0.2377,-0.02,-0.0053,-0.2377,-0.02,0.0,0.0,0.0,0.0,0.0,0.0,0.0,3.319999999999709,3.319999999999709
38.862199494,121.663365601,0.0,-0.07801621756414652,-0.025656340004316644,-2.3029619480065175,-3.476922553685768,-4.197366510967057,0.125,-0.063,-0.047,2.4993384196342823,-0.5392629739232423,-0.8597695540953125,2.4993384196342823,-0.5392629739232423,-0.8597695540953125,-0.2603,-0.02,-0.0076,-0.2603,-0.02,0.0,0.0,0.0,0.0,0.0,0.0,0.0,3.4200000000000728,3.4200000000000728
38.862199401,121.663365297,0.0,-0.1308996938995747,-0.030019663134302467,-2.3048818101837116,-0.10324194650609153,-0.26385430235480056,0.125,-0.063,-0.047,0.00028025340997180363,-0.014207379367329742,0.018605631105134468,0.00028025340997180363,-0.014207379367329742,0.018605631105134468,-0.2561,-0.03,-0.0131,-0.2561,-0.03,0.0,0.0,0.0,0.0,0.0,0.0,0.0,3.6229999999995925,3.6229999999995925
38.862199355,121.663365147,0.0,-0.1551597705022959,-0.03316125578789226,-2.305754474809709,-0.025155618020946048,-0.06413363788089858,0.125,-0.063,-0.047,0.0006139432503725551,-0.01328357189947607,0.018871484656800816,0.0006139432503725551,-0.01328357189947607,0.018871484656800816,-0.2259,-0.03,-0.0134,-0.2259,-0.03,0.0,0.0,0.0,0.0,0.0,0.0,0.0,3.7229999999999563,3.7229999999999563
38.862199309,121.663364997,0.0,-0.17558012275062956,-0.03647738136668149,-2.306278073585307,-0.05106593079393031,-0.13019126304524276,0.125,-0.063,-0.047,0.000860351876341127,-0.011104731377518365,0.016743038945819935,0.000860351876341127,-0.011104731377518365,0.016743038945819935,-0.1765,-0.03,-0.0073,-0.1765,-0.03,0.0,0.0,0.0,0.0,0.0,0.0,0.0,3.8229999999994106,3.8229999999994106
38.862199264,121.663364847,0.0,-0.19024088846738194,-0.03979350694547071,-2.3061035406601076,-0.04995576865954315,-0.13019127185933946,0.125,-0.063,-0.047,0.0012990706252651047,-0.007524275284005122,0.013290762500142135,0.0012990706252651047,-0.007524275284005122,0.013290762500142135,-0.1112,-0.03,-0.0008,-0.1112,-0.03,0.0,0.0,0.0,0.0,0.0,0.0,0.0,3.9229999999997744,3.9229999999997744
38.862199171,121.663364544,0.0,-0.19774580425095753,-0.04258603374866164,-2.303834612632515,-0.10324193714270147,-0.26298636523107627,0.125,-0.063,-0.047,0.0012713287726744316,-0.0006979569220326332,0.004272996359440163,0.0012713287726744316,-0.0006979569220326332,0.004272996359440163,0.0393,0.0,0.016,0.0393,0.0,0.0,0.0,0.0,0.0,0.0,0.0,0.0,4.125,4.125
38.862199125,121.663364395,0.0,-0.1907644872429802,-0.041015237421866746,-2.30226381630572,-0.02528015352525809,-0.06402145803510367,0.125,-0.063,-0.047,0.0005880482683815109,0.005594299824830282,-0.006006830976607057,0.0005880482683815109,0.005594299824830282,-0.006006830976607057,0.1048,0.02,0.0205,0.1048,0.02,0.0,0.0,0.0,0.0,0.0,0.0,0.0,4.224999999999454,4.224999999999454
38.862199078,121.663364245,0.0,-0.17749998492782332,-0.03717551306747922,-2.300867552904125,-0.05217603234725222,-0.1301912795411108,0.125,-0.063,-0.047,-0.0003153783964429434,0.00876817508878395,-0.012849397857660518,-0.0003153783964429434,0.00876817508878395,-0.012849397857660518,0.1629,0.05,0.0214,0.1629,0.05,0.0,0.0,0.0,0.0,0.0,0.0,0.0,4.324999999999818,4.324999999999818
38.86220118,121.66336305,0.0,-0.158824961931484,-0.031241393610698498,-2.2998203553529284,2.3334902270216102,-1.0371903387003372,0.0,-0.0,-0.047,-1.2513264851414407,0.6411494205638417,-0.018990634155014813,-1.2513264851414407,0.6411494205638417,-0.018990634155014813,0.2102,0.07,0.0213,0.2102,0.07,0.0,0.0,0.0,0.0,0.0,0.0,0.0,4.425000000000182,4.425000000000182
38.86220118,121.66336305,0.0,-0.11135200627723822,-0.015707963267948967,-2.298249559026133,0.0,0.0,0.0,-0.0,-0.047,-0.0034593984040137125,0.010894084465682475,-0.0002851022167244079,-0.0034593984040137125,0.010894084465682475,-0.0002851022167244079,0.2559,0.08,0.0165,0.2559,0.08,0.0,0.0,0.0,0.0,0.0,0.0,0.0,4.630000000000109,4.630000000000109
38.86220118,121.66336305,0.0,-0.08569566627292158,-0.007504915783575617,-2.297376894400136,0.0,0.0,0.0,-0.0,-0.047,-0.003785933291805227,0.012064890467639398,-0.0001701317209444552,-0.003785933291805227,0.012064890467639398,-0.0001701317209444552,0.2526,0.08,0.0169,0.2526,0.08,0.0,0.0,0.0,0.0,0.0,0.0,0.0,4.729999999999563,4.729999999999563
38.86220118,121.66336305,0.0,-0.061261056745000965,-0.00017453292519943296,-2.29615516392374,0.0,0.0,0.0,-0.0,-0.047,-0.0033834563119051523,0.011488150060456654,-0.00015260495393469586,-0.0033834563119051523,0.011488150060456654,-0.00015260495393469586,0.2347,0.07,0.0171,0.2347,0.07,0.0,0.0,0.0,0.0,0.0,0.0,0.0,4.829999999999927,4.829999999999927
38.86220118,121.66336305,0.0,-0.039095375244672985,0.005934119456780721,-2.2947589005221443,0.0,0.0,0.0,-0.0,-0.047,-0.002825486637571404,0.010417436236694404,-0.00012395927487861698,-0.002825486637571404,0.010417436236694404,-0.00012395927487861698,0.2064,0.05,0.0178,0.2064,0.05,0.0,0.0,0.0,0.0,0.0,0.0,0.0,4.9299999999993815,4.9299999999993815
38.86220118,121.66336305,0.0,-0.004537856055185257,0.012740903539558606,-2.291268242018156,0.0,0.0,0.0,-0.0,-0.047,-0.001550800818709671,0.008034161998801937,-0.00014392168129627063,-0.001550800818709671,0.008034161998801937,-0.00014392168129627063,0.1358,0.01,0.0171,0.1358,0.01,0.0,0.0,0.0,0.0,0.0,0.0,0.0,5.131999999999607,5.131999999999607
38.86220118,121.66336305,0.0,0.007330382858376184,0.012566370614359171,-2.2895229127661616,0.0,0.0,0.0,-0.0,-0.047,8.489368971367657e-05,0.005512363994366976,-3.2657845300718564e-05,8.489368971367657e-05,0.005512363994366976,-3.2657845300718564e-05,0.1035,-0.01,0.0179,0.1035,-0.01,0.0,0.0,0.0,0.0,0.0,0.0,0.0,5.233000000000175,5.233000000000175
38.86220118,121.66336305,0.0,0.016406094968746697,0.009948376736367677,-2.2877775835141674,0.0,0.0,0.0,-0.0,-0.047,0.0012244008701438752,0.004255197662045613,-2.0857765617150943e-05,0.0012244008701438752,0.004255197662045613,-2.0857765617150943e-05,0.0755,-0.04,0.0165,0.0755,-0.04,0.0,0.0,0.0,0.0,0.0,0.0,0.0,5.332999999999629,5.332999999999629
38.862199108,121.663358968,0.0,0.022863813201125717,0.005235987755982988,-2.2862067871873726,-2.300186038536094,-3.5429386103298213,0.0,-0.0,-0.047,0.0022023993094808605,0.003027653645472128,-1.4912203924953023e-05,0.0022023993094808605,0.003027653645472128,-1.4912203924953023e-05,0.0512,-0.06,0.019,0.0512,-0.06,0.0,0.0,0.0,0.0,0.0,0.0,0.0,5.432999999999993,5.432999999999993
38.862199108,121.663358968,0.0,0.02757620218151041,-0.00942477796076938,-2.282192529907785,0.0,0.0,0.0,-0.0,-0.047,0.0033720989895708845,0.0010855407505306306,-2.710305886309038e-05,0.0033720989895708845,0.0010855407505306306,-2.710305886309038e-05,-0.0085,-0.08,0.0297,-0.0085,-0.08,0.0,0.0,0.0,0.0,0.0,0.0,0.0,5.6359999999995125,5.6359999999995125
38.862199108,121.663358968,0.0,0.024783675378319478,-0.017976891295541596,-2.279050937254196,0.0,0.0,0.0,-0.0,-0.047,0.003977232132265101,-0.0012989232469982717,-1.862332325925857e-05,0.003977232132265101,-0.0012989232469982717,-1.862332325925857e-05,-0.0502,-0.08,0.0352,-0.0502,-0.08,0.0,0.0,0.0,0.0,0.0,0.0,0.0,5.735999999999876,5.735999999999876
38.862199108,121.663358968,0.0,0.017627825445142728,-0.02600540585471551,-2.275560278750207,0.0,0.0,0.0,-0.0,-0.047,0.0037316116057429646,-0.0033339203530304744,-2.6638999715819095e-05,0.0037316116057429646,-0.0033339203530304744,-2.6638999715819095e-05,-0.0958,-0.08,0.0379,-0.0958,-0.08,0.0,0.0,0.0,0.0,0.0,0.0,0.0,5.83600000000024,5.83600000000024
38.862199108,121.663358968,0.0,0.005759586531581287,-0.03316125578789226,-2.2718950873210186,0.0,0.0,0.0,-0.0,-0.047,0.0033324322023036003,-0.005533164108366893,-4.4386148471310446e-05,0.0033324322023036003,-0.005533164108366893,-4.4386148471310446e-05,-0.1409,-0.06,0.0355,-0.1409,-0.06,0.0,0.0,0.0,0.0,0.0,0.0,0.0,5.935999999999694,5.935999999999694
38.862199108,121.663358968,0.0,-0.030543261909900768,-0.04153883619746504,-2.2663100337146367,0.0,0.0,0.0,-0.0,-0.047,0.0019418260806677362,-0.008401522398952877,-0.00015984177597131184,0.0019418260806677362,-0.008401522398952877,-0.00015984177597131184,-0.2143,-0.02,0.0174,-0.2143,-0.02,0.0,0.0,0.0,0.0,0.0,0.0,0.0,6.13799999999992,6.13799999999992
38.862199108,121.663358968,0.0,-0.052708943410228755,-0.04293509959906051,-2.2650883032382407,0.0,0.0,0.0,-0.0,-0.047,0.0006734715100700328,-0.010393163064454921,-0.00011540927836171217,0.0006734715100700328,-0.010393163064454921,-0.00011540927836171217,-0.2258,-0.0,0.0066,-0.2258,-0.0,0.0,0.0,0.0,0.0,0.0,0.0,0.0,6.237999999999374,6.237999999999374
38.862199108,121.663358968,0.0,-0.07504915783575616,-0.04241150082346221,-2.2649137703130418,0.0,0.0,0.0,-0.0,-0.047,-0.00024143148465673351,-0.010495503105619194,-0.0001172634311858992,-0.00024143148465673351,-0.010495503105619194,-0.0001172634311858992,-0.2159,0.01,-0.0019,-0.2159,0.01,0.0,0.0,0.0,0.0,0.0,0.0,0.0,6.337999999999738,6.337999999999738
38.862194703,121.663353741,0.0,-0.09546951008408983,-0.04066617157146788,-2.2656119020138394,-4.890115584167247,-4.536732632266861,0.0,-0.0,-0.047,-0.0008425722665915077,-0.00961074401781462,-9.902780330493788e-05,-0.0008425722665915077,-0.00961074401781462,-9.902780330493788e-05,-0.1924,0.02,-0.0088,-0.1924,0.02,0.0,0.0,0.0,0.0,0.0,0.0,0.0,6.438000000000102,6.438000000000102
38.862194703,121.663353741,0.0,-0.12793263417118436,-0.035430183815484885,-2.267880830041432,0.0,0.0,0.0,-0.0,-0.047,-0.001256767280539284,-0.007535737956924639,-0.00012608180379062477,-0.001256767280539284,-0.007535737956924639,-0.00012608180379062477,-0.1305,0.03,-0.0066,-0.1305,0.03,0.0,0.0,0.0,0.0,0.0,0.0,0.0,6.640999999999622,6.640999999999622
38.862194703,121.663353741,0.0,-0.13945180723434694,-0.03298672286269283,-2.268578961742229,0.0,0.0,0.0,-0.0,-0.047,-0.0011808766016317834,-0.005425320633086825,-3.2797499144614954e-05,-0.0011808766016317834,-0.005425320633086825,-3.2797499144614954e-05,-0.099,0.03,0.0,-0.099,0.03,0.0,0.0,0.0,0.0,0.0,0.0,0.0,6.7409999999999854,6.7409999999999854
38.862194703,121.663353741,0.0,-0.14782938764391973,-0.030368728984701335,-2.268578961742229,0.0,0.0,0.0,-0.0,-0.047,-0.0012185108762034617,-0.003937181800839848,-1.8070740255156457e-05,-0.0012185108762034617,-0.003937181800839848,-1.8070740255156457e-05,-0.0651,0.03,0.0093,-0.0651,0.03,0.0,0.0,0.0,0.0,0.0,0.0,0.0,6.84099999999944,6.84099999999944
38.862194703,121.663353741,0.0,-0.1525417766243044,-0.027052603405912107,-2.2677062971162325,0.0,0.0,0.0,-0.0,-0.047,-0.0014811817265814571,-0.002202028939809221,-7.492432867548394e-06,-0.0014811817265814571,-0.002202028939809221,-7.492432867548394e-06,-0.0257,0.03,0.0209,-0.0257,0.03,0.0,0.0,0.0,0.0,0.0,0.0,0.0,6.9409999999998035,6.9409999999998035
38.862194703,121.663353741,0.0,-0.1488765851951163,-0.016755160819145562,-2.2628193752106482,0.0,0.0,0.0,-0.0,-0.047,-0.0021844361738546044,0.0008803157592337257,-1.1978858803278708e-05,-0.0021844361738546044,0.0008803157592337257,-1.1978858803278708e-05,0.0672,0.06,0.0407,0.0672,0.06,0.0,0.0,0.0,0.0,0.0,0.0,0.0,7.144000000000233,7.144000000000233
38.862194703,121.663353741,0.0,-0.13980087308474579,-0.009075712110370514,-2.2595032496318592,0.0,0.0,0.0,-0.0,-0.047,-0.003338167895778162,0.004292920957098305,-3.146119686303942e-05,-0.003338167895778162,0.004292920957098305,-3.146119686303942e-05,0.1125,0.08,0.046,0.1125,0.08,0.0,0.0,0.0,0.0,0.0,0.0,0.0,7.243999999999687,7.243999999999687
38.862187812,121.663347478,0.0,-0.12688543661998775,-0.00017453292519943296,-2.25618712405307,0.0,0.0,0.0,-0.0,-0.047,-0.003925479295328706,0.006085961536478325,-5.579939265315927e-05,-0.003925479295328706,0.006085961536478325,-5.579939265315927e-05,0.1499,0.09,0.0466,0.1499,0.09,0.0,0.0,0.0,0.0,0.0,0.0,0.0,7.344000000000051,7.344000000000051
38.862187812,121.663347478,0.0,-0.11047934165124106,0.008726646259971648,-2.252521932623882,0.0,0.0,0.0,-0.0,-0.047,-0.003931883504030453,0.007712244705255434,-7.972849246268927e-05,-0.003931883504030453,0.007712244705255434,-7.972849246268927e-05,0.1777,0.08,0.0446,0.1777,0.08,0.0,0.0,0.0,0.0,0.0,0.0,0.0,7.443999999999505,7.443999999999505
38.862187812,121.663347478,0.0,-0.07260569688296412,0.019547687622336492,-2.2457151485411035,0.0,0.0,0.0,-0.0,-0.047,-0.0023278330792511396,0.008796519868342388,-0.00017799477294917017,-0.0023278330792511396,0.008796519868342388,-0.00017799477294917017,0.1883,0.01,0.0327,0.1883,0.01,0.0,0.0,0.0,0.0,0.0,0.0,0.0,7.645999999999731,7.645999999999731
38.862187812,121.663347478,0.0,-0.054628805587422516,0.018675022996339326,-2.2425735558875144,0.0,0.0,0.0,-0.0,-0.047,0.0005161193289966314,0.008419674168042993,-7.570534420971034e-05,0.0005161193289966314,0.008419674168042993,-7.570534420971034e-05,0.1682,-0.04,0.0294,0.1682,-0.04,0.0,0.0,0.0,0.0,0.0,0.0,0.0,7.746000000000095,7.746000000000095
38.862187812,121.663347478,0.0,-0.039095375244672985,0.012915436464758038,-2.2394319632339243,0.0,0.0,0.0,-0.0,-0.047,0.002783524332408297,0.007273044930636009,-6.452058848738885e-05,0.002783524332408297,0.007273044930636009,-6.452058848738885e-05,0.1374,-0.08,0.0311,0.1374,-0.08,0.0,0.0,0.0,0.0,0.0,0.0,0.0,7.845999999999549,7.845999999999549
38.862187812,121.663347478,0.0,-0.027052603405912107,0.003665191429188092,-2.235766771804736,0.0,0.0,0.0,-0.0,-0.047,0.004411519840907348,0.005638156588526998,-5.452477656911177e-05,0.004411519840907348,0.005638156588526998,-5.452477656911177e-05,0.0971,-0.11,0.0336,0.0971,-0.11,0.0,0.0,0.0,0.0,0.0,0.0,0.0,7.945999999999913,7.945999999999913
38.862187812,121.663347478,0.0,-0.013788101090755204,-0.019198621771937627,-2.228087323095961,0.0,0.0,0.0,-0.0,-0.047,0.005365685548527148,0.0030803240979112635,-8.227362632443894e-05,0.005365685548527148,0.0030803240979112635,-8.227362632443894e-05,0.0448,-0.11,0.0383,0.0448,-0.11,0.0,0.0,0.0,0.0,0.0,0.0,0.0,8.148000000000138,8.148000000000138
38.862187812,121.663347478,0.0,-0.009773843811168246,-0.0291469985083053,-2.2240730658163743,0.0,0.0,0.0,-0.0,-0.047,0.004701290238180782,0.0019230929303782663,-2.7448052891536053e-05,0.004701290238180782,0.0019230929303782663,-2.7448052891536053e-05,0.0395,-0.09,0.0388,0.0395,-0.09,0.0,0.0,0.0,0.0,0.0,0.0,0.0,8.247999999999593,8.247999999999593
38.862181922,121.663340471,0.0,-0.006108652381980153,-0.03647738136668149,-2.2202333414619866,0.0,0.0,0.0,-0.0,-0.047,0.003462811940051521,0.0017752729943135105,-1.6109489630082482e-05,0.003462811940051521,0.0017752729943135105,-1.6109489630082482e-05,0.0384,-0.06,0.0391,0.0384,-0.06,0.0,0.0,0.0,0.0,0.0,0.0,0.0,8.347999999999956,8.347999999999956
38.862181922,121.663340471,0.0,-0.0024434609527920616,-0.04066617157146788,-2.2163936171075993,0.0,0.0,0.0,-0.0,-0.047,0.0019798300505189234,0.001788439601006111,-7.572660192057992e-06,0.0019798300505189234,0.001788439601006111,-7.572660192057992e-06,0.0344,-0.02,0.0366,0.0344,-0.02,0.0,0.0,0.0,0.0,0.0,0.0,0.0,8.44799999999941,8.44799999999941
38.862181922,121.663340471,0.0,0.0022689280275926286,-0.040317105721069016,-2.209586833024821,0.0,0.0,0.0,-0.0,-0.047,-7.637622183095972e-05,0.001149435473189171,-2.8799668065072783e-06,-7.637622183095972e-05,0.001149435473189171,-2.8799668065072783e-06,0.0126,0.02,0.0285,0.0126,0.02,0.0,0.0,0.0,0.0,0.0,0.0,0.0,8.652000000000044,8.652000000000044
38.862181922,121.663340471,0.0,0.0024434609527920616,-0.03752457891787808,-2.2069688391468296,0.0,0.0,0.0,-0.0,-0.047,-0.0013152074871979609,0.0001316246001706767,-1.8586161958534584e-06,-0.0013152074871979609,0.0001316246001706767,-1.8586161958534584e-06,-0.0107,0.03,0.0236,-0.0107,0.03,0.0,0.0,0.0,0.0,0.0,0.0,0.0,8.751999999999498,8.751999999999498
38.862181922,121.663340471,0.0,0.0,-0.034557519189487726,-2.205048976969636,0.0,0.0,0.0,-0.0,-0.047,-0.0013966828883237778,-0.0011145717068355508,-3.396813530411784e-06,-0.0013966828883237778,-0.0011145717068355508,-3.396813530411784e-06,-0.039,0.03,0.0111,-0.039,0.03,0.0,0.0,0.0,0.0,0.0,0.0,0.0,8.851999999999862,8.851999999999862
38.862181922,121.663340471,0.0,-0.005235987755982988,-0.032114058236695664,-2.2045253781940377,0.0,0.0,0.0,-0.0,-0.047,-0.0011484232801959272,-0.0024523931543612215,-7.801243695241458e-06,-0.0011484232801959272,-0.0024523931543612215,-7.801243695241458e-06,-0.0707,0.02,0.0002,-0.0707,0.02,0.0,0.0,0.0,0.0,0.0,0.0,0.0,8.952000000000226,8.952000000000226
38.862181922,121.663340471,0.0,-0.02548180707911721,-0.0307177948351002,-2.2064452403712314,0.0,0.0,0.0,-0.0,-0.047,-0.00032719265073702727,-0.004724675454152303,-4.820480053044417e-05,-0.00032719265073702727,-0.004724675454152303,-4.820480053044417e-05,-0.1278,-0.0,-0.0139,-0.1278,-0.0,0.0,0.0,0.0,0.0,0.0,0.0,0.0,9.153999999999542,9.153999999999542
38.862181922,121.663340471,0.0,-0.039095375244672985,-0.0307177948351002,-2.2076669708476278,0.0,0.0,0.0,-0.0,-0.047,-1.4612739601785811e-05,-0.006415822477401265,-4.379245677988856e-05,-1.4612739601785811e-05,-0.006415822477401265,-4.379245677988856e-05,-0.1442,0.0,-0.0102,-0.1442,0.0,0.0,0.0,0.0,0.0,0.0,0.0,0.0,9.253999999999905,9.253999999999905
38.862178808,121.663333973,0.0,-0.05375614096142535,-0.029845130209103034,-2.208365102548425,-3.4569382936699826,0.0,0.0,-0.0,-0.047,-0.00041846977141471437,-0.0068320631846257186,-5.034392149634684e-05,-0.00041846977141471437,-0.0068320631846257186,-5.034392149634684e-05,-0.1509,0.02,0.0004,-0.1509,0.02,0.0,0.0,0.0,0.0,0.0,0.0,0.0,9.354999999999563,9.354999999999563
38.862178808,121.663333973,0.0,-0.06876597252857658,-0.02757620218151041,-2.2078415037728267,0.0,0.0,0.0,-0.0,-0.047,-0.0010516353895842372,-0.007046935735400268,-5.400867786052517e-05,-0.0010516353895842372,-0.007046935735400268,-5.400867786052517e-05,-0.1468,0.03,0.0125,-0.1468,0.03,0.0,0.0,0.0,0.0,0.0,0.0,0.0,9.454999999999927,9.454999999999927
38.862178808,121.663333973,0.0,-0.09494591130849153,-0.01780235837034216,-2.20382724649324,0.0,0.0,0.0,-0.0,-0.047,-0.00221545014155553,-0.006094237791706581,-8.992834234436821e-05,-0.00221545014155553,-0.006094237791706581,-8.992834234436821e-05,-0.106,0.06,0.0325,-0.106,0.06,0.0,0.0,0.0,0.0,0.0,0.0,0.0,9.655999999999949,9.655999999999949
38.862178808,121.663333973,0.0,-0.10384709049366261,-0.011868238913561441,-2.2008601867648494,0.0,0.0,0.0,-0.0,-0.047,-0.002644225989521382,-0.004158097986692972,-2.583231623304907e-05,-0.002644225989521382,-0.004158097986692972,-2.583231623304907e-05,-0.0664,0.05,0.0381,-0.0664,0.05,0.0,0.0,0.0,0.0,0.0,0.0,0.0,9.755999999999403,9.755999999999403
38.862178808,121.663333973,0.0,-0.10821041362364843,-0.006981317007977318,-2.1977185941112594,0.0,0.0,0.0,-0.0,-0.047,-0.002110284386979444,-0.0020128206557016694,-9.138169147912236e-06,-0.002110284386979444,-0.0020128206557016694,-9.138169147912236e-06,-0.0148,0.04,0.0369,-0.0148,0.04,0.0,0.0,0.0,0.0,0.0,0.0,0.0,9.856999999999971,9.856999999999971
38.862178808,121.663333973,0.0,-0.1069886831472524,-0.003839724354387525,-2.194053402682072,0.0,0.0,0.0,-0.0,-0.047,-0.0012818456178077416,0.0005860841697049346,-2.1134333067930594e-06,-0.0012818456178077416,0.0005860841697049346,-2.1134333067930594e-06,0.0455,0.01,0.0384,0.0455,0.01,0.0,0.0,0.0,0.0,0.0,0.0,0.0,9.956999999999425,9.956999999999425
38.862178808,121.663333973,0.0,-0.08656833089891874,-0.005585053606381855,-2.1860248881228976,0.0,0.0,0.0,-0.0,-0.047,0.0006032686801454285,0.004757373806976051,-4.942334280781294e-05,0.0006032686801454285,0.004757373806976051,-4.942334280781294e-05,0.1516,-0.04,0.0451,0.1516,-0.04,0.0,0.0,0.0,0.0,0.0,0.0,0.0,10.15899999999965,10.15899999999965
38.862178808,121.663333973,0.0,-0.06998770300497262,-0.009948376736367677,-2.1807889003669145,0.0,0.0,0.0,-0.0,-0.047,0.0022558715002124054,0.007806101341377443,-7.024373251005478e-05,0.0022558715002124054,0.007806101341377443,-7.024373251005478e-05,0.1784,-0.05,0.0517,0.1784,-0.05,0.0,0.0,0.0,0.0,0.0,0.0,0.0,10.259000000000015,10.259000000000015
38.862176038,121.663328173,0.0,-0.05166174585903215,-0.0153588974175501,-2.1750293138353336,-3.075053992139582,-5.03406530225039,0.0,-0.0,-0.047,0.0027260633167936373,0.008639505846190961,-8.73192629010213e-05,0.0027260633167936373,0.008639505846190961,-8.73192629010213e-05,0.1888,-0.06,0.0577,0.1888,-0.06,0.0,0.0,0.0,0.0,0.0,0.0,0.0,10.358999999999469,10.358999999999469
38.862176038,121.663328173,0.0,-0.03298672286269283,-0.020594885173533087,-2.1689206614533534,0.0,0.0,0.0,-0.0,-0.047,0.002605980187968169,0.008820622657629893,-9.000278437222296e-05,0.002605980187968169,0.008820622657629893,-9.000278437222296e-05,0.1831,-0.05,0.0587,0.1831,-0.05,0.0,0.0,0.0,0.0,0.0,0.0,0.0,10.458999999999833,10.458999999999833
38.862176038,121.663328173,0.0,-0.0012217304763960308,-0.028099800957108706,-2.15757602131539,0.0,0.0,0.0,-0.0,-0.047,0.0018325545351301883,0.007443466434821281,-0.00012631318669967056,0.0018325545351301883,0.007443466434821281,-0.00012631318669967056,0.1256,-0.03,0.0486,0.1256,-0.03,0.0,0.0,0.0,0.0,0.0,0.0,0.0,10.661000000000058,10.661000000000058
38.862176038,121.663328173,0.0,0.012042771838760872,-0.031241393610698498,-2.151118303083011,0.0,0.0,0.0,-0.0,-0.047,0.0014805264943913228,0.0063193602877708544,-4.48173209992845e-05,0.0014805264943913228,0.0063193602877708544,-4.48173209992845e-05,0.0489,-0.02,0.0386,0.0489,-0.02,0.0,0.0,0.0,0.0,0.0,0.0,0.0,10.760999999999513,10.760999999999513
38.862176038,121.663328173,0.0,0.013962634015954637,-0.032637657012293965,-2.1476276445790226,0.0,0.0,0.0,-0.0,-0.047,0.0006365389407238777,0.0009536094873002276,-1.3984625883317782e-06,0.0006365389407238777,0.0009536094873002276,-1.3984625883317782e-06,-0.0109,-0.01,0.0332,-0.0109,-0.01,0.0,0.0,0.0,0.0,0.0,0.0,0.0,10.860999999999876,10.860999999999876
38.862176038,121.663328173,0.0,0.009948376736367677,-0.033510321638291124,-2.144486051925433,0.0,0.0,0.0,-0.0,-0.047,0.00038572648324519394,-0.001820280234445599,-3.7200437012835146e-06,0.00038572648324519394,-0.001820280234445599,-3.7200437012835146e-06,-0.0694,-0.01,0.0272,-0.0694,-0.01,0.0,0.0,0.0,0.0,0.0,0.0,0.0,10.961999999999534,10.961999999999534
38.862176038,121.663328173,0.0,-0.013788101090755204,-0.031939525311496235,-2.1406463275710452,0.0,0.0,0.0,-0.0,-0.047,-0.00037428983385784555,-0.00549237996116791,-6.51354869803914e-05,-0.00037428983385784555,-0.00549237996116791,-6.51354869803914e-05,-0.1602,0.03,0.0073,-0.1602,0.03,0.0,0.0,0.0,0.0,0.0,0.0,0.0,11.16399999999976,11.16399999999976
38.862176038,121.663328173,0.0,-0.030892327760299633,-0.028274333882308142,-2.1408208604962446,0.0,0.0,0.0,-0.0,-0.047,-0.001723602698851173,-0.008041116223773466,-7.195269529620369e-05,-0.001723602698851173,-0.008041116223773466,-7.195269529620369e-05,-0.1817,0.05,-0.011,-0.1817,0.05,0.0,0.0,0.0,0.0,0.0,0.0,0.0,11.264000000000124,11.264000000000124
38.862173833,121.663323005,0.0,-0.04921828490624009,-0.02181661564992912,-2.143089788523837,-2.4478313059770183,-4.485525961446976,0.0,-0.0,-0.047,-0.003066554510592176,-0.00864240520337709,-8.947120144795102e-05,-0.003066554510592176,-0.00864240520337709,-8.947120144795102e-05,-0.1812,0.08,-0.0277,-0.1812,0.08,0.0,0.0,0.0,0.0,0.0,0.0,0.0,11.363999999999578,11.363999999999578
38.862173833,121.663323005,0.0,-0.06632251157578452,-0.012915436464758038,-2.1467549799530254,0.0,0.0,0.0,-0.0,-0.047,-0.00426310798012228,-0.008075040634457482,-8.871089417189412e-05,-0.00426310798012228,-0.008075040634457482,-8.871089417189412e-05,-0.1589,0.1,-0.0367,-0.1589,0.1,0.0,0.0,0.0,0.0,0.0,0.0,0.0,11.463999999999942,11.463999999999942
38.862173833,121.663323005,0.0,-0.09005898940290741,0.00890117918517108,-2.155830692063396,0.0,0.0,0.0,-0.0,-0.047,-0.005204399432570601,-0.0055449787753964475,-0.00012431169496930893,-0.005204399432570601,-0.0055449787753964475,-0.00012431169496930893,-0.07,0.12,-0.0253,-0.07,0.12,0.0,0.0,0.0,0.0,0.0,0.0,0.0,11.666000000000167,11.666000000000167
38.862173833,121.663323005,0.0,-0.09494591130849153,0.01972222054753592,-2.158448685941387,0.0,0.0,0.0,-0.0,-0.047,-0.005175836280597706,-0.0022833244519479662,-3.4046820151198724e-05,-0.005175836280597706,-0.0022833244519479662,-3.4046820151198724e-05,-0.0261,0.1,-0.0048,-0.0261,0.1,0.0,0.0,0.0,0.0,0.0,0.0,0.0,11.765999999999622,11.765999999999622
38.862173833,121.663323005,0.0,-0.0958185759344887,0.028797932657906436,-2.158797751791786,0.0,0.0,0.0,-0.0,-0.047,-0.004261861933825111,-0.0004050625541667022,-1.9497790403861278e-05,-0.004261861933825111,-0.0004050625541667022,-1.9497790403861278e-05,0.0071,0.07,0.0183,0.0071,0.07,0.0,0.0,0.0,0.0,0.0,0.0,0.0,11.865999999999985,11.865999999999985
38.862173833,121.663323005,0.0,-0.09407324668249435,0.034732052114687155,-2.1563542908389945,0.0,0.0,0.0,-0.0,-0.047,-0.002666460559384264,0.0007878157123665419,-8.224184200779849e-06,-0.002666460559384264,0.0007878157123665419,-8.224184200779849e-06,0.025,0.04,0.0394,0.025,0.04,0.0,0.0,0.0,0.0,0.0,0.0,0.0,11.96599999999944,11.96599999999944
38.862173833,121.663323005,0.0,-0.08813912722571364,0.035255650890285456,-2.146231381177427,0.0,0.0,0.0,-0.0,-0.047,9.891533482527087e-05,0.001291402010903778,-3.6227218492764656e-06,9.891533482527087e-05,0.001291402010903778,-3.6227218492764656e-06,0.0231,-0.05,0.0541,0.0231,-0.05,0.0,0.0,0.0,0.0,0.0,0.0,0.0,12.168999999999869,12.168999999999869
38.862173833,121.663323005,0.0,-0.08587019919812101,0.029321531433504737,-2.1404717946458454,0.0,0.0,0.0,-0.0,-0.047,0.003016100507866629,0.0009711237369146327,-1.0680912412773237e-05,0.003016100507866629,0.0009711237369146327,-1.0680912412773237e-05,0.02,-0.08,0.0441,0.02,-0.08,0.0,0.0,0.0,0.0,0.0,0.0,0.0,12.269000000000233,12.269000000000233
38.862162745,121.663317765,0.0,-0.08342673824532895,0.020594885173533087,-2.13610847151586,0.0,-4.54802349728583,0.0,-0.0,-0.047,0.004262073960738052,0.001089534507014767,-2.058806782662912e-05,0.004262073960738052,0.001089534507014767,-2.058806782662912e-05,0.029,-0.1,0.0275,0.029,-0.1,0.0,0.0,0.0,0.0,0.0,0.0,0.0,12.368999999999687,12.368999999999687
38.862162745,121.663317765,0.0,-0.079412480965742,0.01064650843716541,-2.1331414117874696,0.0,0.0,0.0,-0.0,-0.047,0.004775554007093676,0.0018597367031175595,-2.7941827048205876e-05,0.004775554007093676,0.0018597367031175595,-2.7941827048205876e-05,0.0553,-0.1,0.0154,0.0553,-0.1,0.0,0.0,0.0,0.0,0.0,0.0,0.0,12.469000000000051,12.469000000000051
38.862162745,121.663317765,0.0,-0.06161012259539983,-0.005585053606381855,-2.1299998191338796,0.0,0.0,0.0,-0.0,-0.047,0.003822556633132129,0.004135981503395751,-6.81705504854494e-05,0.003822556633132129,0.004135981503395751,-6.81705504854494e-05,0.1222,-0.06,0.0087,0.1222,-0.06,0.0,0.0,0.0,0.0,0.0,0.0,0.0,12.670999999999367,12.670999999999367
38.862162745,121.663317765,0.0,-0.04834562028024293,-0.009599310885968814,-2.1287780886574836,0.0,0.0,0.0,-0.0,-0.047,0.0019184715140489344,0.006237507930536442,-4.530754351839779e-05,0.0019184715140489344,0.006237507930536442,-4.530754351839779e-05,0.145,-0.02,0.0129,0.145,-0.02,0.0,0.0,0.0,0.0,0.0,0.0,0.0,12.77099999999973,12.77099999999973
38.862162745,121.663317765,0.0,-0.033335788713091695,-0.010471975511965976,-2.1270327594054894,0.0,0.0,0.0,-0.0,-0.047,0.00044932045547423717,0.007062201830317878,-5.327598073844833e-05,0.00044932045547423717,0.007062201830317878,-5.327598073844833e-05,0.1531,0.0,0.0193,0.1531,0.0,0.0,0.0,0.0,0.0,0.0,0.0,0.0,12.871000000000095,12.871000000000095
38.862162745,121.663317765,0.0,-0.01832595714594046,-0.009075712110370514,-2.1251128972282953,0.0,0.0,0.0,-0.0,-0.047,-0.0006257966923779865,0.007063782692131898,-5.350160621640115e-05,-0.0006257966923779865,0.007063782692131898,-5.350160621640115e-05,0.1452,0.02,0.0201,0.1452,0.02,0.0,0.0,0.0,0.0,0.0,0.0,0.0,12.970999999999549,12.970999999999549
38.862162745,121.663317765,0.0,0.006981317007977318,-0.005235987755982988,-2.1209241070235096,0.0,0.0,0.0,-0.0,-0.047,-0.0008710587675344136,0.005867444380140469,-7.599849796357185e-05,-0.0008710587675344136,0.005867444380140469,-7.599849796357185e-05,0.1008,0.01,0.0214,0.1008,0.01,0.0,0.0,0.0,0.0,0.0,0.0,0.0,13.173999999999978,13.173999999999978
38.862162745,121.663317765,0.0,0.015184364492350668,-0.005235987755982988,-2.1186551789959163,0.0,0.0,0.0,-0.0,-0.047,-7.438346662640643e-06,0.003860980942662422,-1.5859021996982434e-05,-7.438346662640643e-06,0.003860980942662422,-1.5859021996982434e-05,0.0628,-0.01,0.0217,0.0628,-0.01,0.0,0.0,0.0,0.0,0.0,0.0,0.0,13.273999999999432,13.273999999999432
38.862155763,121.663310048,0.0,0.019547687622336492,-0.007504915783575617,-2.116735316818723,0.0,0.0,0.0,-0.0,-0.047,0.0010421548437114792,0.0020351188341889994,-5.617133201024528e-06,0.0010421548437114792,0.0020351188341889994,-5.617133201024528e-06,0.0234,-0.03,0.0203,0.0234,-0.03,0.0,0.0,0.0,0.0,0.0,0.0,0.0,13.375,13.375
38.862155763,121.663310048,0.0,0.02076941809873252,-0.011519173063162575,-2.1146409217163296,0.0,0.0,0.0,-0.0,-0.047,0.0018671035781478603,0.0005815437993045204,-4.068388844536728e-06,0.0018671035781478603,0.0005815437993045204,-4.068388844536728e-06,0.001,-0.05,0.0215,0.001,-0.05,0.0,0.0,0.0,0.0,0.0,0.0,0.0,13.474999999999454,13.474999999999454
38.862155763,121.663310048,0.0,0.017976891295541596,-0.02199114857512855,-2.110626664436743,0.0,0.0,0.0,-0.0,-0.047,0.002416607597790372,-0.0006391734841210018,-1.3428090407428594e-05,0.002416607597790372,-0.0006391734841210018,-1.3428090407428594e-05,-0.0267,-0.05,0.0204,-0.0267,-0.05,0.0,0.0,0.0,0.0,0.0,0.0,0.0,13.67699999999968,13.67699999999968
38.862155763,121.663310048,0.0,0.015009831567151233,-0.026703537555513242,-2.1087068022595488,0.0,0.0,0.0,-0.0,-0.047,0.0021982612749769466,-0.0013747359431503473,-7.151385839216635e-06,0.0021982612749769466,-0.0013747359431503473,-7.151385839216635e-06,-0.0342,-0.04,0.0175,-0.0342,-0.04,0.0,0.0,0.0,0.0,0.0,0.0,0.0,13.777000000000044,13.777000000000044
38.862155763,121.663310048,0.0,0.010995574287564275,-0.0301941960595019,-2.107310538857954,0.0,0.0,0.0,-0.0,-0.047,0.0016305883378700992,-0.0018691982835553865,-6.545492972519474e-06,0.0016305883378700992,-0.0018691982835553865,-6.545492972519474e-06,-0.044,-0.03,0.013,-0.044,-0.03,0.0,0.0,0.0,0.0,0.0,0.0,0.0,13.876999999999498,13.876999999999498
38.862155763,121.663310048,0.0,0.006108652381980153,-0.03246312408709453,-2.1064378742319563,0.0,0.0,0.0,-0.0,-0.047,0.0010618287999325587,-0.002284467323839392,-6.751400995358326e-06,0.0010618287999325587,-0.002284467323839392,-6.751400995358326e-06,-0.0557,-0.01,0.0052,-0.0557,-0.01,0.0,0.0,0.0,0.0,0.0,0.0,0.0,13.976999999999862,13.976999999999862
38.862155763,121.663310048,0.0,-0.007853981633974483,-0.031939525311496235,-2.107136005932754,0.0,0.0,0.0,-0.0,-0.047,-0.00012083156359958264,-0.0032538972837635213,-2.278509921360245e-05,-0.00012083156359958264,-0.0032538972837635213,-2.278509921360245e-05,-0.0902,0.02,-0.0131,-0.0902,0.02,0.0,0.0,0.0,0.0,0.0,0.0,0.0,14.179000000000087,14.179000000000087
38.862155763,121.663310048,0.0,-0.01780235837034216,-0.02949606435870417,-2.1088813351847486,0.0,0.0,0.0,-0.0,-0.047,-0.0011548070220348083,-0.004701834673786883,-2.4937713241560084e-05,-0.0011548070220348083,-0.004701834673786883,-2.4937713241560084e-05,-0.1106,0.03,-0.0219,-0.1106,0.03,0.0,0.0,0.0,0.0,0.0,0.0,0.0,14.278999999999542,14.278999999999542
38.862151155,121.663302808,0.0,-0.029670597283903602,-0.025830872929516076,-2.1114993290627395,-5.115467965814115,0.0,0.0,-0.0,-0.047,-0.0017442122212495276,-0.005614159727034581,-3.676852940279741e-05,-0.0017442122212495276,-0.005614159727034581,-3.676852940279741e-05,-0.1289,0.04,-0.0287,-0.1289,0.04,0.0,0.0,0.0,0.0,0.0,0.0,0.0,14.378999999999905,14.378999999999905
38.862151155,121.663302808,0.0,-0.04310963252425994,-0.02076941809873252,-2.1146409217163296,0.0,0.0,0.0,-0.0,-0.047,-0.0024215608412950815,-0.0063540890233867555,-4.9192366078382735e-05,-0.0024215608412950815,-0.0063540890233867555,-4.9192366078382735e-05,-0.1368,0.06,-0.0312,-0.1368,0.06,0.0,0.0,0.0,0.0,0.0,0.0,0.0,14.47899999999936,14.47899999999936
38.862151155,121.663302808,0.0,-0.06928957130417489,-0.008028514559173916,-2.121447705799108,0.0,0.0,0.0,-0.0,-0.047,-0.003029772772348253,-0.0061224211269617105,-0.0001002986373572261,-0.003029772772348253,-0.0061224211269617105,-0.0001002986373572261,-0.1224,0.07,-0.0245,-0.1224,0.07,0.0,0.0,0.0,0.0,0.0,0.0,0.0,14.680999999999585,14.680999999999585
38.862151155,121.663302808,0.0,-0.08080874436733745,-0.0015707963267948964,-2.124065699677099,0.0,0.0,0.0,-0.0,-0.047,-0.00311300008695585,-0.005423047156436688,-4.1597808914918164e-05,-0.00311300008695585,-0.005423047156436688,-4.1597808914918164e-05,-0.1072,0.06,-0.0166,-0.1072,0.06,0.0,0.0,0.0,0.0,0.0,0.0,0.0,14.780999999999949,14.780999999999949
38.862151155,121.663302808,0.0,-0.09058258817850572,0.003665191429188092,-2.1254619630786946,0.0,0.0,0.0,-0.0,-0.047,-0.002505843909336685,-0.004594095077747376,-2.9133842619189247e-05,-0.002505843909336685,-0.004594095077747376,-2.9133842619189247e-05,-0.0884,0.04,-0.0037,-0.0884,0.04,0.0,0.0,0.0,0.0,0.0,0.0,0.0,14.880999999999403,14.880999999999403
38.862151155,121.663302808,0.0,-0.09861110273767963,0.006457718232379019,-2.125636496003894,0.0,0.0,0.0,-0.0,-0.047,-0.0013015101100280059,-0.003735524339745532,-1.6813656268111106e-05,-0.0013015101100280059,-0.003735524339745532,-1.6813656268111106e-05,-0.0693,0.01,0.0091,-0.0693,0.01,0.0,0.0,0.0,0.0,0.0,0.0,0.0,14.981999999999971,14.981999999999971
38.862151155,121.663302808,0.0,-0.10855947947404729,0.0012217304763960308,-2.1210986399487086,0.0,0.0,0.0,-0.0,-0.047,0.0013162831365089668,-0.0023213326410920047,-1.5303478573961153e-05,0.0013162831365089668,-0.0023213326410920047,-1.5303478573961153e-05,-0.0296,-0.07,0.0287,-0.0296,-0.07,0.0,0.0,0.0,0.0,0.0,0.0,0.0,15.184000000000196,15.184000000000196
38.862151155,121.663302808,0.0,-0.11082840750163991,-0.0066322511575784525,-2.116909849743922,0.0,0.0,0.0,-0.0,-0.047,0.0038828978767352276,-0.0010674653884664065,-1.7251782872984133e-05,0.0038828978767352276,-0.0010674653884664065,-1.7251782872984133e-05,-0.0144,-0.1,0.035,-0.0144,-0.1,0.0,0.0,0.0,0.0,0.0,0.0,0.0,15.28399999999965,15.28399999999965
38.862137452,121.663297005,0.0,-0.1117010721276371,-0.017627825445142728,-2.1121974607635376,0.0,-5.036681592507031,0.0,-0.0,-0.047,0.005381068794101307,-0.00039258891880908657,-3.096913458886282e-05,0.005381068794101307,-0.00039258891880908657,-3.096913458886282e-05,0.0001,-0.12,0.0333,0.0001,-0.12,0.0,0.0,0.0,0.0,0.0,0.0,0.0,15.384000000000015,15.384000000000015
38.862137452,121.663297005,0.0,-0.11082840750163991,-0.029845130209103034,-2.1076596047083522,0.0,0.0,0.0,-0.0,-0.047,0.005943923970506894,0.0004513873669320396,-3.7803629613077146e-05,0.005943923970506894,0.0004513873669320396,-3.7803629613077146e-05,0.0205,-0.13,0.0284,0.0205,-0.13,0.0,0.0,0.0,0.0,0.0,0.0,0.0,15.483999999999469,15.483999999999469
38.862137452,121.663297005,0.0,-0.10245082709206714,-0.05183627878423159,-2.101550952326372,0.0,0.0,0.0,-0.0,-0.047,0.005242067110012152,0.001997222391226465,-6.763290737627421e-05,0.005242067110012152,0.001997222391226465,-6.763290737627421e-05,0.0701,-0.09,0.0086,0.0701,-0.09,0.0,0.0,0.0,0.0,0.0,0.0,0.0,15.685999999999694,15.685999999999694
38.862137452,121.663297005,0.0,-0.09389871375729493,-0.058643062867009474,-2.1006782877003753,0.0,0.0,0.0,-0.0,-0.047,0.003224273083208339,0.004041718821638492,-2.8438549680484467e-05,0.003224273083208339,0.004041718821638492,-2.8438549680484467e-05,0.105,-0.05,-0.005,0.105,-0.05,0.0,0.0,0.0,0.0,0.0,0.0,0.0,15.786000000000058,15.786000000000058
38.862137452,121.663297005,0.0,-0.08168140899333462,-0.061784655520599266,-2.101201886475973,0.0,0.0,0.0,-0.0,-0.047,0.0014470156222285316,0.005727744683794009,-3.713009789095816e-05,0.0014470156222285316,0.005727744683794009,-3.713009789095816e-05,0.1399,-0.01,-0.0114,0.1399,-0.01,0.0,0.0,0.0,0.0,0.0,0.0,0.0,15.885999999999513,15.885999999999513
38.862137452,121.663297005,0.0,-0.06579891280018622,-0.061086523819801536,-2.102772682802768,0.0,0.0,0.0,-0.0,-0.047,-0.000387116146348149,0.0074188433420591835,-5.8715471224962353e-05,-0.000387116146348149,0.0074188433420591835,-5.8715471224962353e-05,0.1752,0.03,-0.0187,0.1752,0.03,0.0,0.0,0.0,0.0,0.0,0.0,0.0,15.985999999999876,15.985999999999876
38.862137452,121.663297005,0.0,-0.024434609527920613,-0.049567350756638956,-2.107485071783153,0.0,0.0,0.0,-0.0,-0.047,-0.002732663554811767,0.009507902436312065,-0.00021144905337731586,-0.002732663554811767,0.009507902436312065,-0.00021144905337731586,0.2309,0.08,-0.0244,0.2309,0.08,0.0,0.0,0.0,0.0,0.0,0.0,0.0,16.188999999999396,16.188999999999396
38.862137452,121.663297005,0.0,-0.0008726646259971648,-0.040491638646268445,-2.1099285327359447,0.0,0.0,0.0,-0.0,-0.047,-0.004292218928162856,0.011016186994051233,-0.00014872514721830194,-0.004292218928162856,0.011016186994051233,-0.00014872514721830194,0.2356,0.1,-0.0233,0.2356,0.1,0.0,0.0,0.0,0.0,0.0,0.0,0.0,16.28899999999976,16.28899999999976
38.86213332,121.663291685,0.0,0.022165681500327987,-0.030892327760299633,-2.112371993688737,-4.587047288488196,-4.617458273075347,0.0,-0.0,-0.047,-0.004512550051587892,0.010780106841026442,-0.00014531375272259746,-0.004512550051587892,0.010780106841026442,-0.00014531375272259746,0.2204,0.1,-0.025,0.2204,0.1,0.0,0.0,0.0,0.0,0.0,0.0,0.0,16.389000000000124,16.389000000000124
38.86213332,121.663291685,0.0,0.04258603374866164,-0.021467549799530253,-2.1142918558659307,0.0,0.0,0.0,-0.0,-0.047,-0.004408470584965152,0.009568172301897103,-0.00011808348702820764,-0.004408470584965152,0.009568172301897103,-0.00011808348702820764,0.1815,0.09,-0.0195,0.1815,0.09,0.0,0.0,0.0,0.0,0.0,0.0,0.0,16.488999999999578,16.488999999999578
38.86213332,121.663291685,0.0,0.06789330790257943,-0.008028514559173916,-2.1160371851179254,0.0,0.0,0.0,-0.0,-0.047,-0.003106679567838659,0.005877590016013079,-9.499704731989658e-05,-0.003106679567838659,0.005877590016013079,-9.499704731989658e-05,0.0614,0.05,-0.0014,0.0614,0.05,0.0,0.0,0.0,0.0,0.0,0.0,0.0,16.690999999999804,16.690999999999804
38.86213332,121.663291685,0.0,0.07068583470577035,-0.004363323129985824,-2.1153390534171272,0.0,0.0,0.0,-0.0,-0.047,-0.0017409264324334567,0.0013148997241152756,-5.063629540471811e-06,-0.0017409264324334567,0.0013148997241152756,-5.063629540471811e-06,-0.0112,0.03,0.01,-0.0112,0.03,0.0,0.0,0.0,0.0,0.0,0.0,0.0,16.791000000000167,16.791000000000167
38.86213332,121.663291685,0.0,0.06597344572538566,-0.0020943951023931952,-2.113593724165133,0.0,0.0,0.0,-0.0,-0.047,-0.0011216646317159555,-0.0022112731965779017,-6.540322842277707e-06,-0.0011216646317159555,-0.0022112731965779017,-6.540322842277707e-06,-0.0846,0.02,0.022,-0.0846,0.02,0.0,0.0,0.0,0.0,0.0,0.0,0.0,16.89099999999962,16.89099999999962
38.86213332,121.663291685,0.0,0.05445427266222309,0.00017453292519943296,-2.1109757302871412,0.0,0.0,0.0,-0.0,-0.047,-0.001145190520957941,-0.005411284413978513,-3.2547361350158304e-05,-0.001145190520957941,-0.005411284413978513,-3.2547361350158304e-05,-0.1473,0.03,0.0269,-0.1473,0.03,0.0,0.0,0.0,0.0,0.0,0.0,0.0,16.990999999999985,16.990999999999985
38.86213332,121.663291685,0.0,0.016231562043547264,0.008552113334772215,-2.105041610830361,0.0,0.0,0.0,-0.0,-0.047,-0.0020115149346545866,-0.008847598033518138,-0.0001778578382043365,-0.0020115149346545866,-0.008847598033518138,-0.0001778578382043365,-0.2306,0.06,0.0249,-0.2306,0.06,0.0,0.0,0.0,0.0,0.0,0.0,0.0,17.193999999999505,17.193999999999505
38.86213332,121.663291685,0.0,-0.008028514559173916,0.014311699866353502,-2.102772682802768,0.0,0.0,0.0,-0.0,-0.047,-0.0027239511862715907,-0.011410151692774826,-0.0001464179893036339,-0.0027239511862715907,-0.011410151692774826,-0.0001464179893036339,-0.2585,0.06,0.0212,-0.2585,0.06,0.0,0.0,0.0,0.0,0.0,0.0,0.0,17.29399999999987,17.29399999999987
38.862128123,121.663282891,0.0,-0.03508111796508602,0.020245819323134222,-2.101201886475973,0.0,0.0,0.0,-0.0,-0.047,-0.0027830122217572216,-0.01272345016708576,-0.0001804935309531353,-0.0027830122217572216,-0.01272345016708576,-0.0001804935309531353,-0.2827,0.05,0.0141,-0.2827,0.05,0.0,0.0,0.0,0.0,0.0,0.0,0.0,17.394000000000233,17.394000000000233
38.862128123,121.663282891,0.0,-0.06405358354819189,0.024783675378319478,-2.100154688924777,0.0,0.0,0.0,-0.0,-0.047,-0.0021142205012729706,-0.013624818112850462,-0.00020228352719214371,-0.0021142205012729706,-0.013624818112850462,-0.00020228352719214371,-0.296,0.03,0.0089,-0.296,0.03,0.0,0.0,0.0,0.0,0.0,0.0,0.0,17.493999999999687,17.493999999999687
38.862128123,121.663282891,0.0,-0.12391837689159739,0.02356194490192345,-2.099805623074378,0.0,0.0,0.0,-0.0,-0.047,0.00028887797494131945,-0.01392260658852823,-0.00041710076964503813,0.00028887797494131945,-0.01392260658852823,-0.00041710076964503813,-0.2973,-0.05,-0.006,-0.2973,-0.05,0.0,0.0,0.0,0.0,0.0,0.0,0.0,17.695999999999913,17.695999999999913
38.862128123,121.663282891,0.0,-0.15289084247470328,0.016755160819145562,-2.099805623074378,0.0,0.0,0.0,-0.0,-0.047,0.003174632427836026,-0.013613508378917802,-0.00020792461072065933,0.003174632427836026,-0.013613508378917802,-0.00020792461072065933,-0.2786,-0.09,-0.0158,-0.2786,-0.09,0.0,0.0,0.0,0.0,0.0,0.0,0.0,17.795999999999367,17.795999999999367
38.862128123,121.663282891,0.0,-0.17924531417981765,0.006806784082777886,-2.100154688924777,0.0,0.0,0.0,-0.0,-0.047,0.004550626145194293,-0.012255812382209158,-0.0001836769589513912,0.004550626145194293,-0.012255812382209158,-0.0001836769589513912,-0.242,-0.11,-0.0228,-0.242,-0.11,0.0,0.0,0.0,0.0,0.0,0.0,0.0,17.896999999999935,17.896999999999935
38.862128123,121.663282891,0.0,-0.2012364627549462,-0.004363323129985824,-2.1008528206255748,0.0,0.0,0.0,-0.0,-0.047,0.005107230925838195,-0.010327157682940824,-0.00014122759443704175,0.005107230925838195,-0.010327157682940824,-0.00014122759443704175,-0.189,-0.11,-0.0332,-0.189,-0.11,0.0,0.0,0.0,0.0,0.0,0.0,0.0,17.99699999999939,17.99699999999939
38.862128123,121.663282891,0.0,-0.22392574303087248,-0.023387411976724018,-2.104168946204364,0.0,0.0,0.0,-0.0,-0.047,0.0041826364122334436,-0.00527384186289636,-9.738406893367176e-05,0.0041826364122334436,-0.00527384186289636,-9.738406893367176e-05,-0.024,-0.06,-0.041,-0.024,-0.06,0.0,0.0,0.0,0.0,0.0,0.0,0.0,18.198999999999614,18.198999999999614
38.862128123,121.663282891,0.0,-0.2214822820780804,-0.02844886680750757,-2.107310538857954,0.0,0.0,0.0,-0.0,-0.047,0.0019917858974019,0.0011143190950425239,-5.541434908693904e-06,0.0019917858974019,0.0011143190950425239,-5.541434908693904e-06,0.0801,-0.02,-0.038,0.0801,-0.02,0.0,0.0,0.0,0.0,0.0,0.0,0.0,18.298999999999978,18.298999999999978
38.862121442,121.663276875,0.0,-0.20821777976292352,-0.0301941960595019,-2.110452131511543,0.0,0.0,0.0,-0.0,-0.047,0.00047611720244832923,0.006191665856448553,-4.10266987852998e-05,0.00047611720244832923,0.006191665856448553,-4.10266987852998e-05,0.188,0.0,-0.0312,0.188,0.0,0.0,0.0,0.0,0.0,0.0,0.0,0.0,18.398999999999432,18.398999999999432
38.862121442,121.663276875,0.0,-0.18448130193580065,-0.029845130209103034,-2.1132446583147346,0.0,0.0,0.0,-0.0,-0.047,-0.00042738112741865755,0.011005084296383357,-0.00013034536187414613,-0.00042738112741865755,0.011005084296383357,-0.00013034536187414613,0.2845,0.01,-0.0222,0.2845,0.01,0.0,0.0,0.0,0.0,0.0,0.0,0.0,18.5,18.5
38.862121442,121.663276875,0.0,-0.11449359893082801,-0.0291469985083053,-2.1165607838935236,0.0,0.0,0.0,-0.0,-0.047,-0.00030111730063037633,0.016247793386582898,-0.0005681879619435183,-0.00030111730063037633,0.016247793386582898,-0.0005681879619435183,0.3979,-0.01,-0.0071,0.3979,-0.01,0.0,0.0,0.0,0.0,0.0,0.0,0.0,18.702000000000226,18.702000000000226
38.862121442,121.663276875,0.0,-0.07382742735936015,-0.031241393610698498,-2.116909849743922,0.0,0.0,0.0,-0.0,-0.047,0.0009591871680599249,0.019103125193111244,-0.0003893628037850976,0.0009591871680599249,0.019103125193111244,-0.0003893628037850976,0.4102,-0.03,-0.0019,0.4102,-0.03,0.0,0.0,0.0,0.0,0.0,0.0,0.0,18.80199999999968,18.80199999999968
38.862121442,121.663276875,0.0,-0.03316125578789226,-0.03560471674068432,-2.116386250968324,0.0,0.0,0.0,-0.0,-0.047,0.0020633113895515316,0.019115659509952025,-0.00039342603876589826,0.0020633113895515316,0.019115659509952025,-0.00039342603876589826,0.3968,-0.05,0.0067,0.3968,-0.05,0.0,0.0,0.0,0.0,0.0,0.0,0.0,18.902000000000044,18.902000000000044
38.862121442,121.663276875,0.0,0.004537856055185257,-0.041189770347066175,-2.1153390534171272,0.0,0.0,0.0,-0.0,-0.047,0.0026398321133457706,0.017731851527116663,-0.0003420258019297129,0.0026398321133457706,0.017731851527116663,-0.0003420258019297129,0.3559,-0.06,0.0134,0.3559,-0.06,0.0,0.0,0.0,0.0,0.0,0.0,0.0,19.001999999999498,19.001999999999498
38.862121442,121.663276875,0.0,0.06230825429619756,-0.0486946861306418,-2.111848394913139,0.0,0.0,0.0,-0.0,-0.047,0.0017339521052161415,0.013400799512165077,-0.000394648769354754,0.0017339521052161415,0.013400799512165077,-0.000394648769354754,0.2059,-0.01,0.0228,0.2059,-0.01,0.0,0.0,0.0,0.0,0.0,0.0,0.0,19.204999999999927,19.204999999999927
38.862121442,121.663276875,0.0,0.07819075048934597,-0.04729842272904633,-2.1097539998107453,0.0,0.0,0.0,-0.0,-0.047,-0.0007161459371917534,0.00751238915066525,-6.058779429248006e-05,-0.0007161459371917534,0.00751238915066525,-6.058779429248006e-05,0.1073,0.04,0.0187,0.1073,0.04,0.0,0.0,0.0,0.0,0.0,0.0,0.0,19.30499999999938,19.30499999999938
38.862115685,121.66326795,0.0,0.08395033702092725,-0.04136430327226561,-2.1076596047083522,0.0,0.0,0.0,-0.0,-0.047,-0.0028572738879350215,0.0027528815584475837,-1.674750151522683e-05,-0.0028572738879350215,0.0027528815584475837,-1.674750151522683e-05,0.0065,0.09,0.0084,0.0065,0.09,0.0,0.0,0.0,0.0,0.0,0.0,0.0,19.404999999999745,19.404999999999745
38.862115685,121.66326795,0.0,0.07993607974134029,-0.0307177948351002,-2.1066124071571557,0.0,0.0,0.0,-0.0,-0.047,-0.0050273826847788555,-0.001868476039729156,-3.060288926303161e-05,-0.0050273826847788555,-0.001868476039729156,-3.060288926303161e-05,-0.0906,0.12,-0.002,-0.0906,0.12,0.0,0.0,0.0,0.0,0.0,0.0,0.0,19.50500000000011,19.50500000000011
38.862115685,121.66326795,0.0,0.04485496177625427,-0.0022689280275926286,-2.1060888083815574,0.0,0.0,0.0,-0.0,-0.047,-0.0065744444514129,-0.00812103969427824,-0.00023589085916773153,-0.0065744444514129,-0.00812103969427824,-0.00023589085916773153,-0.2521,0.15,-0.0068,-0.2521,0.15,0.0,0.0,0.0,0.0,0.0,0.0,0.0,19.70799999999963,19.70799999999963
38.862115685,121.66326795,0.0,0.017278759594743863,0.011344640137963142,-2.105914275456358,0.0,0.0,0.0,-0.0,-0.047,-0.0063954220066717495,-0.012959738637980054,-0.00022224004132419503,-0.0063954220066717495,-0.012959738637980054,-0.00022224004132419503,-0.2978,0.12,0.0028,-0.2978,0.12,0.0,0.0,0.0,0.0,0.0,0.0,0.0,19.807999999999993,19.807999999999993
38.862115685,121.66326795,0.0,-0.013613568165555772,0.021642082724729686,-2.105041610830361,0.0,0.0,0.0,-0.0,-0.047,-0.0048460769802038525,-0.014521392216769997,-0.00024938030270802445,-0.0048460769802038525,-0.014521392216769997,-0.00024938030270802445,-0.3207,0.08,0.0172,-0.3207,0.08,0.0,0.0,0.0,0.0,0.0,0.0,0.0,19.907999999999447,19.907999999999447
38.862115685,121.66326795,0.0,-0.045553093477052,0.026878070480712675,-2.102947215727968,0.0,0.0,0.0,-0.0,-0.047,-0.0024473017972658113,-0.01503003973713797,-0.0002467577340073769,-0.0024473017972658113,-0.01503003973713797,-0.0002467577340073769,-0.3156,0.02,0.025,-0.3156,0.02,0.0,0.0,0.0,0.0,0.0,0.0,0.0,20.00799999999981,20.00799999999981
38.862115685,121.66326795,0.0,-0.10245082709206714,0.022689280275926284,-2.0978857608971837,0.0,0.0,0.0,-0.0,-0.047,0.001027139340154553,-0.01326294126365838,-0.00038058835834659617,0.001027139340154553,-0.01326294126365838,-0.00038058835834659617,-0.2386,-0.06,0.0129,-0.2386,-0.06,0.0,0.0,0.0,0.0,0.0,0.0,0.0,20.210000000000036,20.210000000000036
38.862115685,121.66326795,0.0,-0.12356931104119853,0.0158824961931484,-2.096838563345987,0.0,0.0,0.0,-0.0,-0.047,0.0032327132105705253,-0.009934762453759466,-0.00011613130446121514,0.0032327132105705253,-0.009934762453759466,-0.00011613130446121514,-0.1786,-0.07,-0.0064,-0.1786,-0.07,0.0,0.0,0.0,0.0,0.0,0.0,0.0,20.30999999999949,20.30999999999949
38.862104828,121.663264658,0.0,-0.13788101090755203,0.008377580409572781,-2.0973621621215854,0.0,-2.857281447052009,0.0,-0.0,-0.047,0.0034700499284946425,-0.006720595134857943,-6.0863138079732954e-05,0.0034700499284946425,-0.006720595134857943,-6.0863138079732954e-05,-0.1042,-0.07,-0.028,-0.1042,-0.07,0.0,0.0,0.0,0.0,0.0,0.0,0.0,20.409999999999854,20.409999999999854
38.862104089,121.663264126,0.0,-0.1446877949903299,0.0020943951023931952,-2.100154688924777,-0.8203844487493936,-0.46174659355202924,0.945,0.016,0.0,9.452744642498736,0.15681274354672,0.4699811786998102,9.452744642498736,0.15681274354672,0.4699811786998102,-0.0259,-0.05,-0.0431,-0.0259,-0.05,0.0,0.0,0.0,0.0,0.0,0.0,0.0,20.51000000000022,20.51000000000022
38.862102598,121.663263024,0.0,-0.1265363707695889,-0.003490658503988659,-2.1109757302871412,-1.655200510121553,-0.9564750515862228,0.945,0.016,0.0,0.0012587727965108363,-0.05349631136444904,0.020964818993972567,0.0012587727965108363,-0.05349631136444904,0.020964818993972567,0.1617,0.01,-0.0408,0.1617,0.01,0.0,0.0,0.0,0.0,0.0,0.0,0.0,20.711999999999534,20.711999999999534
38.862101865,121.663262479,0.0,-0.10803588069844901,-0.0033161255787892262,-2.11446638879113,-0.40283349347495057,-0.23417320760498997,0.945,0.016,0.0,0.000608228098434502,-0.0325879800235089,-0.0022385418107318065,0.000608228098434502,-0.0325879800235089,-0.0022385418107318065,0.2091,0.0,-0.023,0.2091,0.0,0.0,0.0,0.0,0.0,0.0,0.0,0.0,20.811999999999898,20.811999999999898
38.862101129,121.663261929,0.0,-0.08587019919812101,-0.003665191429188092,-2.1158626521927255,-0.8170540188014938,-0.4773695896980043,0.945,0.016,0.0,0.00023790753111771224,-0.013389453871408604,0.005700265285850267,0.00023790753111771224,-0.013389453871408604,0.005700265285850267,0.2285,-0.01,-0.0051,0.2285,-0.01,0.0,0.0,0.0,0.0,0.0,0.0,0.0,20.911999999999352,20.911999999999352
38.862100389,121.663261377,0.0,-0.06283185307179587,-0.006108652381980153,-2.115164520491928,-0.8214945453345976,-0.47910550531853213,0.945,0.016,0.0,-4.724394736329871e-05,0.005176899412198105,0.027145804228853546,-4.724394736329871e-05,0.005176899412198105,0.027145804228853546,0.2286,-0.04,0.0171,0.2286,-0.04,0.0,0.0,0.0,0.0,0.0,0.0,0.0,21.011999999999716,21.011999999999716
38.862098893,121.663260277,0.0,-0.02007128639793479,-0.017976891295541596,-2.1088813351847486,-1.6607511317596368,-0.954739277228151,0.945,0.016,0.0,-1.5709806588647254e-05,0.028207520435936523,0.05919947222744151,-1.5709806588647254e-05,0.028207520435936523,0.05919947222744151,0.1859,-0.07,0.0354,0.1859,-0.07,0.0,0.0,0.0,0.0,0.0,0.0,0.0,21.215000000000146,21.215000000000146
