lat_gps,lon_gps,alt_gps,roll,pitch,yaw,vn,ve,vf,vl,vu,ax,ay,az,af,al,au,wx,wy,wz,wf,wl,wu,pos_accuracy,vel_accuracy,navstat,numsats,posmode,velmode,orimode,lat,lon,depth,height,time,time_gps
40.595791668,121.029191667,13.8989,-0.15271630954950383,0.05480333851262195,2.1005037547751755,10.25496530973609,16.936291405659027,0.136096,-20.0,2.8380040591806286,0.0,0.0,0.0,0.0,0.0,0.0,-0.0446,-0.01,0.0047,-0.0446,-0.01,0.0047,0.136096,20.0,-0.195,0.0,0.0,0.0,0.0,40.605151253,121.017654322,0.0,-0.0446,0.0,0.0
40.595791668,121.029191667,13.8989,-0.16283921921107095,0.056025068989017976,2.101376419401173,1077.3826378471374,1532.8469355982531,136.630417,-1892.298828,298.47894159614947,673.0562413869334,-9321.669103553853,-0.8472906404036851,673.0562413869334,-9321.669103553853,-0.8472906404036851,-0.024,0.02,0.006,-0.024,0.02,0.006,136.630417,1892.298828,-0.172,0.2029999999977008,0.2029999999977008,0.2029999999977008,0.2029999999977008,40.605154665,121.017650975,0.0,-0.024,0.2029999999977008,0.0
40.595791668,121.029191667,13.6957,-0.16772614111665507,0.061086523819801536,2.101550952326372,1078.4248103463594,1529.9153937023568,136.626755,-1891.837769,306.7178888469104,679.735099499338,-9412.128203936489,-0.8955223880555521,679.735099499338,-9412.128203936489,-0.8955223880555521,0.0086,0.03,-0.0043,0.0086,0.03,-0.0043,136.626755,1891.837769,-0.18,0.4039999999986321,0.4039999999986321,0.4039999999986321,0.4039999999986321,40.605157949,121.017647651,0.0,0.0086,0.4039999999986321,0.0
40.595791668,121.029191667,13.6957,-0.16441001553786586,0.062482787221396996,2.0992820242987795,1075.39388857751,1533.047417928413,136.62442,-1891.611694,300.257683219018,1352.7170297197313,-18728.82865369741,-2.0891089109169747,1352.7170297197313,-18728.82865369741,-2.0891089109169747,0.0441,0.0,-0.0393,0.0441,0.0,-0.0393,136.62442,1891.611694,-0.211,0.5049999999973807,0.5049999999973807,0.5049999999973807,0.5049999999973807,40.605159562,121.017646025,0.0,0.0441,0.5049999999973807,0.0
40.595791668,121.029191667,13.6957,-0.16057029118347832,0.06056292504420324,2.093871503617597,1066.6769321592294,1540.176328985953,136.620911,-1891.381104,293.33429817438054,1339.4206960444176,-18542.951999529112,-2.372549019547593,1339.4206960444176,-18542.951999529112,-2.372549019547593,0.0517,-0.03,-0.0751,0.0517,-0.03,-0.0751,136.620911,1891.381104,-0.242,0.6069999999999709,0.6069999999999709,0.6069999999999709,0.6069999999999709,40.605161214,121.017644379,0.0,0.0517,0.6069999999999709,0.0
40.595791668,121.029191667,13.6957,-0.15132004614790837,0.05550147021341968,2.0856684561332237,1053.0976495424568,1552.250849672043,136.615463,-1891.150635,276.79815745084204,1339.3672843274835,-18540.69250019045,-2.60784313728169,1339.3672843274835,-18540.69250019045,-2.60784313728169,0.1561,-0.05,-0.1027,0.1561,-0.05,-0.1027,136.615463,1891.150635,-0.266,0.7089999999989232,0.7089999999989232,0.7089999999989232,0.7089999999989232,40.605162876,121.017642751,0.0,0.1561,0.7089999999989232,0.0
40.595791668,121.029191667,13.6957,-0.10070549784007281,0.03787364476827695,2.0622810441565,1014.4532954121644,1590.6670202420792,136.593903,-1890.694458,184.51676496804095,679.5716567132692,-9406.440089508655,-1.2835820895462915,679.5716567132692,-9406.440089508655,-1.2835820895462915,0.3557,-0.09,-0.1515,0.3557,-0.09,-0.1515,136.593903,1890.694458,-0.258,0.9099999999998545,0.9099999999998545,0.9099999999998545,0.9099999999998545,40.605166224,121.017639629,0.0,0.3557,0.9099999999998545,0.0
40.595791668,121.029191667,13.6957,-0.06056292504420324,0.026878070480712675,2.0470966796641488,989.2460982248832,1612.9780922981452,136.579544,-1890.464355,110.46872336501227,1352.2727128880429,-18717.46886161806,-2.3960396039900846,1352.2727128880429,-18717.46886161806,-2.3960396039900846,0.4681,-0.1,-0.1708,0.4681,-0.1,-0.1708,136.579544,1890.464355,-0.242,1.010999999998603,1.010999999998603,1.010999999998603,1.010999999998603,40.605167932,121.017638086,0.0,0.4681,1.010999999998603,0.0
40.595791668,121.029191667,13.6957,-0.010471975511965976,0.015184364492350668,2.0294688542190062,959.5707209510588,1634.1827470360022,136.561142,-1890.234497,17.499368489111383,1338.8347255039484,-18531.710755092317,-2.147058823551466,1338.8347255039484,-18531.710755092317,-2.147058823551466,0.5342,-0.12,-0.1893,0.5342,-0.12,-0.1893,136.561142,1890.234497,-0.219,1.1129999999975553,1.1129999999975553,1.1129999999975553,1.1129999999975553,40.605169661,121.017636583,0.0,0.5342,1.1129999999975553,0.0
40.595791668,121.029191667,13.6957,0.0460766922526503,0.003839724354387525,2.0093975678210714,925.0898245598266,1651.4445159350735,136.538101,-1890.005005,-87.757800984164,1351.862386106671,-18712.920841141993,-1.7821782177796712,1351.862386106671,-18712.920841141993,-1.7821782177796712,0.5979,-0.12,-0.2064,0.5979,-0.12,-0.2064,136.538101,1890.005005,-0.18,1.2139999999999418,1.2139999999999418,1.2139999999999418,1.2139999999999418,40.605171413,121.017635126,0.0,0.5979,1.2139999999999418,0.0
40.595791668,121.029191667,13.4926,0.18343410438460403,-0.01658062789394613,1.96070288169043,837.6759782359243,1664.3609724692963,136.479599,-1889.562134,-342.45183140608583,675.6415792162925,-9354.267990214916,-0.4653465346592313,675.6415792162925,-9354.267990214916,-0.4653465346592313,0.6986,-0.13,-0.2286,0.6986,-0.13,-0.2286,136.479599,1889.562134,-0.094,1.4159999999974389,1.4159999999974389,1.4159999999974389,1.4159999999974389,40.605174872,121.017632446,0.0,0.6986,1.4159999999974389,0.0
40.595791668,121.029191667,13.4926,0.25359634031477607,-0.023911010752322315,1.9352210746113125,789.8782587262364,1656.1359009510757,136.444351,-1889.339355,-470.66599225906117,1350.9341682849108,-18706.330247082744,-0.5445544554326773,1350.9341682849108,-18706.330247082744,-0.5445544554326773,0.7017,-0.13,-0.2375,0.7017,-0.13,-0.2375,136.444351,1889.339355,-0.055,1.5169999999998254,1.5169999999998254,1.5169999999998254,1.5169999999998254,40.605176644,121.017631152,0.0,0.7017,1.5169999999998254,0.0
40.595791668,121.029191667,13.4926,0.32602750427254074,-0.0291469985083053,1.9086920699809988,738.5287012931047,1637.361900882794,136.403229,-1889.117554,-600.826378149606,1337.286558837266,-18520.760333523576,-0.07843137254982525,1337.286558837266,-18520.760333523576,-0.07843137254982525,0.7174,-0.13,-0.242,0.7174,-0.13,-0.242,136.403229,1889.117554,-0.008,1.6189999999987776,1.6189999999987776,1.6189999999987776,1.6189999999987776,40.605178442,121.01762992,0.0,0.7174,1.6189999999987776,0.0
40.595791668,121.029191667,13.4926,0.39723693775390945,-0.03246312408709453,1.8814649336498872,684.8101475428743,1609.5299350806033,136.356033,-1888.896973,-725.9291926729463,1350.0597326899956,-18701.9502279545,0.22772277228004936,1350.0597326899956,-18701.9502279545,0.22772277228004936,0.6945,-0.13,-0.2446,0.6945,-0.13,-0.2446,136.356033,1888.896973,0.023,1.7199999999975262,1.7199999999975262,1.7199999999975262,1.7199999999975262,40.605180264,121.017628752,0.0,0.6945,1.7199999999975262,0.0
40.595791668,121.029191667,13.4926,0.5331980864842677,-0.03316125578789226,1.8259634634364676,573.05385991355,1531.3068595078835,136.238556,-1888.465576,-954.7626722784366,677.8037611908892,-9395.351124334577,0.46766169154012166,677.8037611908892,-9395.351124334577,0.46766169154012166,0.6347,-0.13,-0.2494,0.6347,-0.13,-0.2494,136.238556,1888.465576,0.094,1.9209999999984575,1.9209999999984575,1.9209999999984575,1.9209999999984575,40.605183966,121.017626706,0.0,0.6347,1.9209999999984575,0.0
40.595791668,121.029191667,13.4926,0.5979498017332573,-0.030543261909900768,1.797863662479359,515.586406985056,1482.6825648569134,136.173141,-1888.249634,-1058.2310187560684,1335.0307941313604,-18512.251313915647,1.2254901960910196,1335.0307941313604,-18512.251313915647,1.2254901960910196,0.6445,-0.13,-0.2534,0.6445,-0.13,-0.2534,136.173141,1888.249634,0.125,2.0229999999974098,2.0229999999974098,2.0229999999974098,2.0229999999974098,40.605185857,121.017625743,0.0,0.6445,2.0229999999974098,0.0
40.595791668,121.029191667,13.4926,0.6628760499074463,-0.02600540585471551,1.7699383944474496,457.40502929279495,1425.9886298920137,136.101776,-1888.035645,-1157.8166440128916,1334.3311372210173,-18510.153381882883,1.5294117646670438,1334.3311372210173,-18510.153381882883,1.5294117646670438,0.6245,-0.13,-0.2525,0.6245,-0.13,-0.2525,136.101776,1888.035645,0.156,2.125,2.125,2.125,2.125,40.605187767,121.017624849,0.0,0.6245,2.125,0.0
40.595791668,121.029191667,13.4926,0.7298966931840286,-0.019024088846738195,1.7393951325375487,393.77236925786104,1360.2192638762435,136.023941,-1887.82373,-1255.8375117288483,1346.7716930859945,-18691.32405963754,1.7821782178438645,1346.7716930859945,-18691.32405963754,1.7821782178438645,0.5832,-0.13,-0.2553,0.5832,-0.13,-0.2553,136.023941,1887.82373,0.18,2.2259999999987485,2.2259999999987485,2.2259999999987485,2.2259999999987485,40.605189697,121.017624032,0.0,0.5832,2.2259999999987485,0.0
40.595791668,121.029191667,13.0941,0.8428194957880617,-0.0005235987755982988,1.685464458650924,279.4551760691908,1232.0957117133798,135.909576,-1887.429321,-1408.795890427587,676.1670447729864,-9390.195626822164,1.0497512437762306,676.1670447729864,-9390.195626822164,1.0497512437762306,0.5335,-0.12,-0.2545,0.5335,-0.12,-0.2545,135.909576,1887.429321,0.211,2.42699999999968,2.42699999999968,2.42699999999968,2.42699999999968,40.605193123,121.017622225,0.0,0.5335,2.42699999999968,0.0
40.595791668,121.029191667,13.0941,0.8932595111706979,0.010821041362364843,1.659633585721408,224.4327346051235,1167.9181293296322,135.84671,-1887.231689,-1471.6300526713421,1331.8304902097589,-18502.271460974367,2.0686274510016407,1331.8304902097589,-18502.271460974367,2.0686274510016407,0.4704,-0.12,-0.2521,0.4704,-0.12,-0.2521,135.84671,1887.231689,0.211,2.528999999998632,2.528999999998632,2.528999999998632,2.528999999998632,40.605194869,121.017621371,0.0,0.4704,2.528999999998632,0.0
40.595791668,121.029191667,13.0941,0.9382890058721516,0.02303834612632515,1.634675377417889,171.70211229783743,1107.0176264910415,135.778931,-1887.035645,-1524.5884179291374,1344.345851501806,-18683.521237855264,2.009900990123914,1344.345851501806,-18683.521237855264,2.009900990123914,0.4168,-0.12,-0.2464,0.4168,-0.12,-0.2464,135.778931,1887.035645,0.203,2.6299999999973807,2.6299999999973807,2.6299999999973807,2.6299999999973807,40.605196631,121.017620575,0.0,0.4168,2.6299999999973807,0.0
40.595791668,121.029191667,13.0941,0.9754645189396308,0.03577924966588375,1.6107643666655669,121.96123492004898,1054.2271936499453,135.706528,-1886.841309,-1565.987516181526,1330.4561568289587,-18498.444205412594,1.7647058823081272,1330.4561568289587,-18498.444205412594,1.7647058823081272,0.3411,-0.12,-0.236,0.3411,-0.12,-0.236,135.706528,1886.841309,0.18,2.731999999999971,2.731999999999971,2.731999999999971,2.731999999999971,40.605198408,121.017619834,0.0,0.3411,2.731999999999971,0.0
40.595791668,121.029191667,13.0941,1.0267771989482641,0.059864793343405505,1.565909404889313,33.96256405958419,976.6647346585244,135.54599,-1886.463135,-1619.286394470416,674.358159213061,-9385.388731469666,0.5422885572212328,674.358159213061,-9385.388731469666,0.5422885572212328,0.1798,-0.13,-0.2058,0.1798,-0.13,-0.2058,135.54599,1886.463135,0.109,2.9329999999972642,2.9329999999972642,2.9329999999972642,2.9329999999972642,40.605201973,121.017618576,0.0,0.1798,2.9329999999972642,0.0
40.595791668,121.029191667,13.0941,1.039692635413022,0.07033676885537149,1.544790920940181,-4.026117524778447,955.6427823230888,135.461044,-1886.273926,-1631.9036997597273,1328.0494509466669,-18492.88162698136,0.6176470588078445,1328.0494509466669,-18492.88162698136,0.6176470588078445,0.108,-0.13,-0.1892,0.108,-0.13,-0.1892,135.461044,1886.273926,0.063,3.0349999999998545,3.0349999999998545,3.0349999999998545,3.0349999999998545,40.605203782,121.017617991,0.0,0.108,3.0349999999998545,0.0
40.595791668,121.029191667,13.0941,1.045277689019404,0.08028514559173916,1.5226252394398532,-41.48121684282618,945.2904536891537,135.371765,-1886.08667,-1637.1785817620191,1340.3145049671027,-18674.12544577594,0.15841584158612132,1340.3145049671027,-18674.12544577594,0.15841584158612132,0.0221,-0.13,-0.1679,0.0221,-0.13,-0.1679,135.371765,1886.08667,0.016,3.135999999998603,3.135999999998603,3.135999999998603,3.135999999998603,40.605205602,121.017617458,0.0,0.0221,3.135999999998603,0.0
40.595791668,121.029191667,13.0941,1.0423106292910136,0.08744099552491591,1.5034266176679152,-71.46134660666061,948.2412319742289,135.278961,-1885.901001,-1634.2138248455126,1326.264323543035,-18489.22550018992,-0.22549019608074758,1326.264323543035,-18489.22550018992,-0.22549019608074758,-0.0633,-0.13,-0.1508,-0.0633,-0.13,-0.1508,135.278961,1885.901001,-0.023,3.2379999999975553,3.2379999999975553,3.2379999999975553,3.2379999999975553,40.605207428,121.017616972,0.0,-0.0633,3.2379999999975553,0.0
40.595791668,121.029191667,16.5943,1.0128145649323095,0.09669124056048586,1.4657275058248382,-124.54396559574808,990.6654470976403,135.10083,-1885.571289,-1605.210922719294,672.1434328327066,-9380.951686523698,-0.5820895522361089,672.1434328327066,-9380.951686523698,-0.5820895522361089,-0.2124,-0.14,-0.1207,-0.2124,-0.14,-0.1207,135.10083,1885.571289,-0.117,3.4389999999984866,3.4389999999984866,3.4389999999984866,3.4389999999984866,40.605210747,121.017616231,0.0,-0.2124,3.4389999999984866,0.0
40.595791668,121.029191667,16.5943,0.9861110273767962,0.09861110273767963,1.4472270157536984,-148.53314904074034,1030.0354181816401,135.007904,-1885.406616,-1577.9576070422358,1323.6069019743802,-18484.378588425163,-1.6078431372714177,1323.6069019743802,-18484.378588425163,-1.6078431372714177,-0.283,-0.15,-0.1077,-0.283,-0.15,-0.1077,135.007904,1885.406616,-0.164,3.540999999997439,3.540999999997439,3.540999999997439,3.540999999997439,40.605212428,121.017615898,0.0,-0.283,3.540999999997439,0.0
40.595791668,121.029191667,16.5943,0.9524261728133057,0.09826203688728075,1.4287265256825583,-171.00797433162583,1079.3864876199407,134.911835,-1885.24353,-1542.0847884916732,1335.760742542695,-18665.777524311423,-2.0099009900515186,1335.760742542695,-18665.777524311423,-2.0099009900515186,-0.3396,-0.16,-0.0957,-0.3396,-0.16,-0.0957,134.911835,1885.24353,-0.203,3.6419999999998254,3.6419999999998254,3.6419999999998254,3.6419999999998254,40.605214113,121.017615605,0.0,-0.3396,3.6419999999998254,0.0
40.595791668,121.029191667,16.5943,0.9157742585214247,0.0958185759344887,1.4104005685366177,-192.10033328690125,1132.0064968122456,134.812927,-1885.082275,-1501.1224202227515,1321.6953627586745,-18481.198774699642,-2.372549019632214,1321.6953627586745,-18481.198774699642,-2.372549019632214,-0.3701,-0.17,-0.0823,-0.3701,-0.17,-0.0823,134.812927,1885.082275,-0.242,3.7439999999987776,3.7439999999987776,3.7439999999987776,3.7439999999987776,40.605215801,121.017615354,0.0,-0.3701,3.7439999999987776,0.0
40.595791668,121.029191667,16.5943,0.8281587300713095,0.08377580409572781,1.3723523908431412,-233.64712573091313,1252.8515276164942,134.604996,-1884.770508,-1395.0808332747024,669.6765970118224,-9376.96770144909,-1.477611940291661,669.6765970118224,-9376.96770144909,-1.477611940291661,-0.4265,-0.19,-0.0613,-0.4265,-0.19,-0.0613,134.604996,1884.770508,-0.297,3.944999999999709,3.944999999999709,3.944999999999709,3.944999999999709,40.605219158,121.017615022,0.0,-0.4265,3.944999999999709,0.0
40.595791668,121.029191667,16.5943,0.7827801695194568,0.07487462491055674,1.3547245653979987,-252.5346678123569,1312.2592432803906,134.497131,-1884.61499,-1335.6890194678588,1331.6547623927377,-18659.55435666685,-3.099009901028498,1331.6547623927377,-18659.55435666685,-3.099009901028498,-0.445,-0.19,-0.055,-0.445,-0.19,-0.055,134.497131,1884.61499,-0.313,4.0459999999984575,4.0459999999984575,4.0459999999984575,4.0459999999984575,40.605220855,121.017614894,0.0,-0.445,4.0459999999984575,0.0
40.595791668,121.029191667,16.5943,0.7367034772668065,0.06440264939859076,1.3372712728780554,-271.7666094312229,1369.8756123306146,134.386749,-1884.461426,-1272.3358375558016,1317.5171470723571,-18475.11201979762,-3.13725490199301,1317.5171470723571,-18475.11201979762,-3.13725490199301,-0.4584,-0.2,-0.0515,-0.4584,-0.2,-0.0515,134.386749,1884.461426,-0.32,4.14799999999741,4.14799999999741,4.14799999999741,4.14799999999741,40.605222554,121.017614805,0.0,-0.4584,4.14799999999741,0.0
40.595791668,121.029191667,16.5943,0.6892305216125608,0.052708943410228755,1.3205161120589102,-291.3860440784287,1426.2584813263811,134.273727,-1884.309692,-1203.9657241207042,1316.4090882018647,-18473.62443090342,-3.068627450902466,1316.4090882018647,-18473.62443090342,-3.068627450902466,-0.4603,-0.2,-0.0516,-0.4603,-0.2,-0.0516,134.273727,1884.309692,-0.313,4.25,4.25,4.25,4.25,40.605224253,121.017614753,0.0,-0.4603,4.25,0.0
40.595791668,121.029191667,15.0942,0.6052801845916335,0.028623399732707003,1.2882275208970146,-332.74917064398807,1516.5446406627455,134.036652,-1884.046265,-1075.6238031062078,666.8490149343529,-9373.364502613784,-1.323383084594935,666.8490149343529,-9373.364502613784,-1.323383084594935,-0.3381,-0.18,-0.0623,-0.3381,-0.18,-0.0623,134.036652,1884.046265,-0.266,4.450999999997293,4.450999999997293,4.450999999997293,4.450999999997293,40.605227429,121.017615045,0.0,-0.3381,4.450999999997293,0.0
40.595791668,121.029191667,15.0942,0.5747369226817327,0.017627825445142728,1.2728686234794646,-353.38307444976925,1545.4596392203434,133.914917,-1883.915039,-1026.5203554508028,1325.8902672954034,-18652.624148074112,-2.316831683113573,1325.8902672954034,-18652.624148074112,-2.316831683113573,-0.2655,-0.17,-0.0701,-0.2655,-0.17,-0.0701,133.914917,1883.915039,-0.234,4.55199999999968,4.55199999999968,4.55199999999968,4.55199999999968,40.605229031,121.017615225,0.0,-0.2655,4.55199999999968,0.0
40.595791668,121.029191667,15.0942,0.5516985765554075,0.00767944870877505,1.257684258987114,-374.0571970478793,1565.0693545511651,133.791214,-1883.785889,-988.528469255993,1311.6785686409244,-18468.489108032845,-1.9901960784518158,1311.6785686409244,-18468.489108032845,-1.9901960784518158,-0.1848,-0.15,-0.0788,-0.1848,-0.15,-0.0788,133.791214,1883.785889,-0.203,4.653999999998632,4.653999999998632,4.653999999998632,4.653999999998632,40.60523063,121.017615437,0.0,-0.1848,4.653999999998632,0.0
40.595791668,121.029191667,15.0942,0.5347688828110626,-0.0013962634015954637,1.2419762957191653,-395.55740990176844,1577.3590725778645,133.665527,-1883.658447,-959.9522588518355,1323.4210594223387,-18650.083633894454,-1.7029702970508038,1323.4210594223387,-18650.083633894454,-1.7029702970508038,-0.1414,-0.13,-0.0797,-0.1414,-0.13,-0.0797,133.665527,1883.658447,-0.172,4.754999999997381,4.754999999997381,4.754999999997381,4.754999999997381,40.605232227,121.017615681,0.0,-0.1414,4.754999999997381,0.0
40.595791668,121.029191667,15.0942,0.5037020221255635,-0.013439035240356337,1.2170180874156462,-434.83806817605097,1597.7311537629191,133.410309,-1883.412476,-907.310254405436,660.4470742537147,-9323.824138561471,-0.6584158415804587,660.4470742537147,-9323.824138561471,-0.6584158415804587,-0.1769,-0.1,-0.0732,-0.1769,-0.1,-0.0732,133.410309,1883.412476,-0.133,4.956999999998516,4.956999999998516,4.956999999998516,4.956999999998516,40.605235379,121.017616269,0.0,-0.1769,4.956999999998516,0.0
40.595791668,121.029191667,15.0942,0.48589966375522137,-0.017976891295541596,1.2067206448288792,-453.6737653794982,1609.1839267024156,133.280243,-1883.289673,-877.0694578769512,1319.6063663529847,-18646.432406171636,-1.1584158415985122,1319.6063663529847,-18646.432406171636,-1.1584158415985122,-0.1913,-0.08,-0.064,-0.1913,-0.08,-0.064,133.280243,1883.289673,-0.117,5.057999999997264,5.057999999997264,5.057999999997264,5.057999999997264,40.605236968,121.017616588,0.0,-0.1913,5.057999999997264,0.0
40.595791668,121.029191667,15.0942,0.4667010419832837,-0.021642082724729686,1.1981685314941068,-471.19450096565964,1621.4575312933905,133.149094,-1883.167969,-844.3349507471979,1305.3832744766542,-18462.431068158607,-1.068627450953255,1305.3832744766542,-18462.431068158607,-1.068627450953255,-0.2081,-0.06,-0.0534,-0.2081,-0.06,-0.0534,133.149094,1883.167969,-0.109,5.1599999999998545,5.1599999999998545,5.1599999999998545,5.1599999999998545,40.605238555,121.017616924,0.0,-0.2081,5.1599999999998545,0.0
40.595791668,121.029191667,15.0942,0.4443608275577563,-0.024783675378319478,1.1913617474113292,-487.56623496845606,1635.8910918460408,133.017136,-1883.047119,-806.0394065194924,1317.0013465509721,-18644.030881419134,-1.0792079208054515,1317.0013465509721,-18644.030881419134,-1.0792079208054515,-0.2358,-0.05,-0.0415,-0.2358,-0.05,-0.0415,133.017136,1883.047119,-0.109,5.260999999998603,5.260999999998603,5.260999999998603,5.260999999998603,40.60524014,121.017617274,0.0,-0.2358,5.260999999998603,0.0
40.595791668,121.029191667,15.6958,0.39147735122232813,-0.030019663134302467,1.1826351011513576,-515.9843970211031,1669.2585714171225,132.687973,-1882.85376,-714.1990716251455,660.1391691511701,-9367.43164174764,-0.5074626865648129,660.1391691511701,-9367.43164174764,-0.5074626865648129,-0.2855,-0.03,-0.0149,-0.2855,-0.03,-0.0149,132.687973,1882.85376,-0.102,5.461999999999534,5.461999999999534,5.461999999999534,5.461999999999534,40.605243329,121.017618936,0.0,-0.2855,5.461999999999534,0.0
40.595791668,121.029191667,15.6958,0.3626794185644217,-0.03246312408709453,1.1805407060489643,-527.0952513969214,1686.5336327476775,132.521622,-1882.756714,-663.4076698225059,1299.2315882486398,-18458.39915705235,-1.0000000000102718,1299.2315882486398,-18458.39915705235,-1.0000000000102718,-0.3035,-0.03,-0.0046,-0.3035,-0.03,-0.0046,132.521622,1882.756714,-0.102,5.563999999998487,5.563999999998487,5.563999999998487,5.563999999998487,40.605244937,121.017619779,0.0,-0.3035,5.563999999998487,0.0
40.595791668,121.029191667,15.6958,0.32916909692613056,-0.03508111796508602,1.1794935084977676,-537.459824816069,1705.4775053261258,132.355164,-1882.659546,-603.6623903488166,1297.5996470721525,-18457.44652960136,-1.0000000000102718,1297.5996470721525,-18457.44652960136,-1.0000000000102718,-0.309,-0.02,0.0033,-0.309,-0.02,0.0033,132.355164,1882.659546,-0.102,5.665999999997439,5.665999999997439,5.665999999997439,5.665999999997439,40.605246545,121.017620625,0.0,-0.309,5.665999999997439,0.0
40.595791668,121.029191667,15.6958,0.2984513020910304,-0.03735004599267865,1.1793189755725684,-545.3220239994613,1721.4760854086996,132.188629,-1882.562622,-548.3245820674895,1308.7983068997676,-18639.233880747695,-1.009900990075147,1308.7983068997676,-18639.233880747695,-1.009900990075147,-0.3048,-0.02,0.0085,-0.3048,-0.02,0.0085,132.188629,1882.562622,-0.102,5.766999999999825,5.766999999999825,5.766999999999825,5.766999999999825,40.605248152,121.017621471,0.0,-0.3048,5.766999999999825,0.0
40.595791668,121.029191667,15.6958,0.24068090385001803,-0.04206243497306335,1.1800171072733665,-557.0767419252277,1747.6450749265223,131.859009,-1882.370117,-442.83886477600356,656.0149701580875,-9365.025457837552,-0.46766169154858606,656.0149701580875,-9365.025457837552,-0.46766169154858606,-0.2744,-0.02,0.0092,-0.2744,-0.02,0.0092,131.859009,1882.370117,-0.094,5.967999999997119,5.967999999997119,5.967999999997119,5.967999999997119,40.605251337,121.017623143,0.0,-0.2744,5.967999999997119,0.0
40.595791668,121.029191667,15.6958,0.21275563581810877,-0.044331363000655974,1.180366173123765,-562.2530759345676,1758.1349460429328,131.692581,-1882.272949,-391.31494907341676,1291.1037352613305,-18453.656362276477,-0.9215686274275776,1291.1037352613305,-18453.656362276477,-0.9215686274275776,-0.2773,-0.02,0.0076,-0.2773,-0.02,0.0076,131.692581,1882.272949,-0.094,6.069999999999709,6.069999999999709,6.069999999999709,6.069999999999709,40.605252945,121.017623987,0.0,-0.2773,6.069999999999709,0.0
40.595791668,121.029191667,15.6958,0.18622663118779495,-0.046774823953448036,1.1805407060489643,-567.062222080386,1766.7277775638975,131.52623,-1882.175781,-342.05003270042096,1302.2399010062347,-18635.403772508133,-0.9306930693184626,1302.2399010062347,-18635.403772508133,-0.9306930693184626,-0.2478,-0.02,0.005,-0.2478,-0.02,0.005,131.52623,1882.175781,-0.094,6.1709999999984575,6.1709999999984575,6.1709999999984575,6.1709999999984575,40.605254554,121.01762483,0.0,-0.2478,6.1709999999984575,0.0
40.595791668,121.029191667,15.6958,0.16196655458507378,-0.04921828490624009,1.180366173123765,-571.7729832212767,1773.2685640787133,131.359802,-1882.078613,-296.76517187490293,1287.84119609166,-18451.751108032673,-0.9215686274604467,1287.84119609166,-18451.751108032673,-0.9215686274604467,-0.2449,-0.03,0.0002,-0.2449,-0.03,0.0002,131.359802,1882.078613,-0.094,6.27299999999741,6.27299999999741,6.27299999999741,6.27299999999741,40.605256162,121.017625674,0.0,-0.2449,6.27299999999741,0.0
40.595791668,121.029191667,14.6958,0.11990411961201045,-0.054628805587422516,1.1787953767969706,-581.5272265618257,1781.3308279679998,131.020813,-1881.896484,-217.68647392269057,651.8448407929997,-9362.669074583484,-0.34825870646604806,651.8448407929997,-9362.669074583484,-0.34825870646604806,-0.1719,-0.03,-0.0073,-0.1719,-0.03,-0.0073,131.020813,1881.896484,-0.07,6.473999999998341,6.473999999998341,6.473999999998341,6.473999999998341,40.605259325,121.017627509,0.0,-0.1719,6.473999999998341,0.0
40.595791668,121.029191667,14.6958,0.10245082709206714,-0.05777039824101231,1.1775736463205746,-586.3353569294528,1783.3775539790724,130.849518,-1881.804932,-184.62597284073894,1282.838411777883,-18449.06796097382,-0.4607843137302233,1282.838411777883,-18449.06796097382,-0.4607843137302233,-0.137,-0.03,-0.0097,-0.137,-0.03,-0.0097,130.849518,1881.804932,-0.047,6.575999999997293,6.575999999997293,6.575999999997293,6.575999999997293,40.605260922,121.017628439,0.0,-0.137,6.575999999997293,0.0
40.595791668,121.029191667,14.6958,0.09058258817850572,-0.06056292504420324,1.176526448769378,-589.9217404399957,1784.282565851609,130.678223,-1881.713379,-162.01884013064884,1293.8437920486358,-18630.82553421324,-0.2277227722718469,1293.8437920486358,-18630.82553421324,-0.2277227722718469,-0.1065,-0.03,-0.0085,-0.1065,-0.03,-0.0085,130.678223,1881.713379,-0.023,6.67699999999968,6.67699999999968,6.67699999999968,6.67699999999968,40.605262517,121.01762937,0.0,-0.1065,6.67699999999968,0.0
40.595791668,121.029191667,14.6958,0.08115781021773633,-0.06318091892219473,1.175304718292981,-593.4512549898056,1784.548754767652,130.506638,-1881.62207,-143.9963425972792,1279.4768431503976,-18447.27519626792,0.0,1279.4768431503976,-18447.27519626792,0.0,-0.0817,-0.03,-0.0066,-0.0817,-0.03,-0.0066,130.506638,1881.62207,0.0,6.778999999998632,6.778999999998632,6.778999999998632,6.778999999998632,40.605264112,121.017630304,0.0,-0.0817,6.778999999998632,0.0
40.595791668,121.029191667,14.6958,0.061086523819801536,-0.06719517620178168,1.1737339219661866,-599.3406121029946,1785.0385410798297,130.166733,-1881.441772,-105.80529464536875,647.5956865641635,-9360.406825827275,0.27363184079475206,647.5956865641635,-9360.406825827275,0.27363184079475206,-0.1229,-0.01,-0.0058,-0.1229,-0.01,-0.0058,130.166733,1881.441772,0.055,6.979999999999563,6.979999999999563,6.979999999999563,6.979999999999563,40.605267268,121.017632161,0.0,-0.1229,6.979999999999563,0.0
40.595791668,121.029191667,14.6958,0.049567350756638956,-0.06824237375297829,1.1732103231905888,-602.1221887295051,1785.1505845210488,129.995102,-1881.350708,-84.056406917263,1274.4617843268168,-18444.61478450319,0.7647058823607962,1274.4617843268168,-18444.61478450319,0.7647058823607962,-0.1047,-0.01,-0.0036,-0.1047,-0.01,-0.0036,129.995102,1881.350708,0.078,7.081999999998516,7.081999999998516,7.081999999998516,7.081999999998516,40.605268861,121.017633099,0.0,-0.1047,7.081999999998516,0.0
40.595791668,121.029191667,14.6958,0.038397243543875255,-0.06859143960337716,1.1728612573401893,-604.5277796897348,1785.0952026574764,129.823456,-1881.259888,-63.041167812950945,1285.3807524911742,-18626.33552498327,1.0792079208054515,1285.3807524911742,-18626.33552498327,1.0792079208054515,-0.1321,-0.0,-0.0015,-0.1321,-0.0,-0.0015,129.823456,1881.259888,0.109,7.182999999997264,7.182999999997264,7.182999999997264,7.182999999997264,40.605270454,121.017634038,0.0,-0.1321,7.182999999997264,0.0
40.595791668,121.029191667,14.6958,0.024609142453120045,-0.06824237375297829,1.17268672441499,-606.9300863292349,1784.897212180627,129.651642,-1881.169067,-37.20802142226184,1271.094529379486,-18442.833989727733,1.3039215685943386,1271.094529379486,-18442.833989727733,1.3039215685943386,-0.1446,0.01,-0.0025,-0.1446,0.01,-0.0025,129.651642,1881.169067,0.133,7.2849999999998545,7.2849999999998545,7.2849999999998545,7.2849999999998545,40.605272047,121.017634978,0.0,-0.1446,7.2849999999998545,0.0
40.595791668,121.029191667,13.1957,-0.005235987755982988,-0.06475171524898962,1.172163125639392,-611.8187816889448,1783.3429431397317,129.293106,-1881.025024,18.374060512148777,643.2492835907515,-9358.333452862338,0.8955223880717605,643.2492835907515,-9358.333452862338,0.8955223880717605,-0.1649,0.02,-0.0009,-0.1649,0.02,-0.0009,129.293106,1881.025024,0.18,7.485999999997148,7.485999999997148,7.485999999997148,7.485999999997148,40.605275049,121.017637272,0.0,-0.1649,7.485999999997148,0.0
40.595791668,121.029191667,13.1957,-0.02076941809873252,-0.06213372137099813,1.171988592714192,-613.7481816592517,1782.0598287451492,129.112106,-1880.952393,47.19973470214116,1278.3376831381113,-18623.291019361932,1.9306930692613107,1278.3376831381113,-18623.291019361932,1.9306930692613107,-0.1561,0.03,-0.0031,-0.1561,0.03,-0.0031,129.112106,1880.952393,0.195,7.586999999999534,7.586999999999534,7.586999999999534,7.586999999999534,40.605276565,121.017638431,0.0,-0.1561,7.586999999999534,0.0
40.595791668,121.029191667,13.1957,-0.03577924966588375,-0.059166661642607775,1.1716395268637934,-615.6064676859589,1780.3756470509702,128.931076,-1880.879883,74.99086726173408,1264.030156875729,-18439.99885313059,1.9901960784518158,1264.030156875729,-18439.99885313059,1.9901960784518158,-0.1202,0.03,-0.0034,-0.1202,0.03,-0.0034,128.931076,1880.879883,0.203,7.688999999998487,7.688999999998487,7.688999999998487,7.688999999998487,40.60527808,121.017639591,0.0,-0.1202,7.688999999998487,0.0
40.595791668,121.029191667,13.1957,-0.04642575810304917,-0.05637413483941684,1.1711159280881955,-617.2018767245385,1778.7986802015212,128.749863,-1880.807373,94.60465867870748,1262.2535588364954,-18439.287970777645,1.9901960784518158,1262.2535588364954,-18439.287970777645,1.9901960784518158,-0.1087,0.03,-0.0058,-0.1087,0.03,-0.0058,128.749863,1880.807373,0.203,7.790999999997439,7.790999999997439,7.790999999997439,7.790999999997439,40.605279595,121.017640752,0.0,-0.1087,7.790999999997439,0.0
40.595791668,121.029191667,13.1957,-0.06736970912698112,-0.05183627878423159,1.1691960659110014,-621.493772402814,1774.64436637444,128.390945,-1880.664429,133.28853751493534,638.7609203950502,-9356.539447717842,1.0099502487515395,638.7609203950502,-9356.539447717842,1.0099502487515395,-0.1387,0.02,-0.0106,-0.1387,0.02,-0.0106,128.390945,1880.664429,0.203,7.99199999999837,7.99199999999837,7.99199999999837,7.99199999999837,40.605282592,121.017643059,0.0,-0.1387,7.99199999999837,0.0
40.595791668,121.029191667,13.1957,-0.08098327729253689,-0.05044001538263613,1.1679743354346057,-624.067833132992,1771.5680807536335,128.209671,-1880.592651,158.59492949560246,1269.4026831840456,-18619.729218052493,1.9306930693308535,1269.4026831840456,-18619.729218052493,1.9306930693308535,-0.1173,0.01,-0.012,-0.1173,0.01,-0.012,128.209671,1880.592651,0.195,8.092999999997119,8.092999999997119,8.092999999997119,8.092999999997119,40.605284103,121.017644226,0.0,-0.1173,8.092999999997119,0.0
40.595791668,121.029191667,13.1957,-0.09093165402890457,-0.04974188368183839,1.166927137883409,-626.1794937159135,1768.9774218670914,128.028183,-1880.520996,177.11180829705825,1255.1782646740078,-18436.48035247299,1.9117647058338048,1255.1782646740078,-18436.48035247299,1.9117647058338048,-0.0856,0.0,-0.0109,-0.0856,0.0,-0.0109,128.028183,1880.520996,0.195,8.194999999999709,8.194999999999709,8.194999999999709,8.194999999999709,40.605285614,121.017645395,0.0,-0.0856,8.194999999999709,0.0
40.595791668,121.029191667,13.1957,-0.09930923443847736,-0.04991641660703782,1.165705407407013,-628.6355828447558,1766.3770352358783,127.846779,-1880.449341,192.77975610979715,1265.8096930849913,-18618.310307161388,1.9306930693308535,1265.8096930849913,-18618.310307161388,1.9306930693308535,-0.0847,-0.01,-0.0103,-0.0847,-0.01,-0.0103,127.846779,1880.449341,0.195,8.295999999998457,8.295999999998457,8.295999999998457,8.295999999998457,40.605287124,121.017646567,0.0,-0.0847,8.295999999998457,0.0
40.595791668,121.029191667,12.7973,-0.11466813185602745,-0.052883476335428184,1.1641346110802175,-632.3844973627466,1761.4496894996505,127.482697,-1880.304565,221.77008832591775,631.1024603924934,-9308.438440541755,0.965346534648041,631.1024603924934,-9308.438440541755,0.965346534648041,-0.0855,-0.02,-0.0083,-0.0855,-0.02,-0.0083,127.482697,1880.304565,0.195,8.497999999999593,8.497999999999593,8.497999999999593,8.497999999999593,40.605290162,121.017648907,0.0,-0.0855,8.497999999999593,0.0
40.595791668,121.029191667,12.7973,-0.12374384396639797,-0.05585053606381855,1.1636110123046197,-634.1149283327629,1758.47786248384,127.298851,-1880.231689,239.01905324578323,1260.3846633819537,-18616.155336864333,2.009900990123914,1260.3846633819537,-18616.155336864333,2.009900990123914,-0.0841,-0.03,-0.0097,-0.0841,-0.03,-0.0097,127.298851,1880.231689,0.203,8.598999999998341,8.598999999998341,8.598999999998341,8.598999999998341,40.605291695,121.01765009,0.0,-0.0841,8.598999999998341,0.0
40.595791668,121.029191667,12.7973,-0.1308996938995747,-0.05969026041820607,1.163087413529021,-636.071213275274,1755.7547662535892,127.114906,-1880.158813,252.7726682422048,1246.224568640252,-18432.929539405028,2.147058823551466,1246.224568640252,-18432.929539405028,2.147058823551466,-0.0669,-0.04,-0.0094,-0.0669,-0.04,-0.0094,127.114906,1880.158813,0.219,8.700999999997293,8.700999999997293,8.700999999997293,8.700999999997293,40.605293228,121.017651274,0.0,-0.0669,8.700999999997293,0.0
40.595791668,121.029191667,12.7973,-0.13770647798235258,-0.06405358354819189,1.1629128806038218,-637.5951511054773,1753.1671639252477,126.931137,-1880.085938,265.9173273604768,1256.743930663374,-18614.7122569859,2.3960396039037803,1256.743930663374,-18614.7122569859,2.3960396039037803,-0.0677,-0.05,-0.0066,-0.0677,-0.05,-0.0066,126.931137,1880.085938,0.242,8.80199999999968,8.80199999999968,8.80199999999968,8.80199999999968,40.605294761,121.017652458,0.0,-0.0677,8.80199999999968,0.0
40.595791668,121.029191667,12.7973,-0.15114551322270894,-0.07278022980816354,1.163087413529021,-639.9249761052615,1748.0121239778207,126.566917,-1879.941528,291.8031118444204,629.686154237335,-9352.942925499081,1.4378109452929932,629.686154237335,-9352.942925499081,1.4378109452929932,-0.058,-0.04,-0.004,-0.058,-0.04,-0.004,126.566917,1879.941528,0.289,9.002999999996973,9.002999999996973,9.002999999996973,9.002999999996973,40.605297797,121.017654802,0.0,-0.058,9.002999999996973,0.0
40.595791668,121.029191667,12.7973,-0.15777776438028737,-0.07679448708775051,1.1632619464542202,-640.9419941140153,1745.3779387490742,126.383064,-1879.868652,304.51295727359155,1239.0496470273586,-18430.08482306139,3.137254901881115,1239.0496470273586,-18430.08482306139,3.137254901881115,-0.0502,-0.03,-0.0033,-0.0502,-0.03,-0.0033,126.383064,1879.868652,0.32,9.104999999999563,9.104999999999563,9.104999999999563,9.104999999999563,40.60529933,121.017655986,0.0,-0.0502,9.104999999999563,0.0
40.595791668,121.029191667,12.7973,-0.1616174887346749,-0.079412480965742,1.1632619464542202,-641.87691976841,1743.6402344604128,126.199219,-1879.795776,311.88342905500616,1237.247245110748,-18429.37035313048,3.3725490196424857,1237.247245110748,-18429.37035313048,3.3725490196424857,-0.0319,-0.02,-0.0037,-0.0319,-0.02,-0.0037,126.199219,1879.795776,0.344,9.206999999998516,9.206999999998516,9.206999999998516,9.206999999998516,40.605300863,121.017657169,0.0,-0.0319,9.206999999998516,0.0
40.595791668,121.029191667,12.7973,-0.1668534764906579,-0.08098327729253689,1.1632619464542202,-642.548444066533,1741.5158828087929,126.015274,-1879.7229,321.70185097710174,1247.6759802134795,-18611.117822012784,3.4851485148946684,1247.6759802134795,-18611.117822012784,3.4851485148946684,-0.0718,-0.01,-0.005,-0.0718,-0.01,-0.005,126.015274,1879.7229,0.352,9.307999999997264,9.307999999997264,9.307999999997264,9.307999999997264,40.605302396,121.017658353,0.0,-0.0718,9.307999999997264,0.0
40.595791668,121.029191667,12.9926,-0.17854718247901993,-0.08063421144213803,1.1629128806038218,-643.4349697762173,1736.9512728406366,125.640823,-1879.571167,342.8776817310073,625.0787213901385,-9351.100333290005,0.15422885572067843,625.0787213901385,-9351.100333290005,0.15422885572067843,-0.042,0.01,0.0026,-0.042,0.01,0.0026,125.640823,1879.571167,0.031,9.508999999998196,9.508999999998196,9.508999999998196,9.508999999998196,40.605305541,121.01766074,0.0,-0.042,9.508999999998196,0.0
40.595791668,121.029191667,12.9926,-0.1825614397586069,-0.07888888219014369,1.1629128806038218,-643.0273189073343,1735.5707579758082,125.451775,-1879.494507,350.0682239520592,1229.9193627577317,-18426.416735483395,0.22549019608074758,1229.9193627577317,-18426.416735483395,0.22549019608074758,-0.0307,0.02,0.004,-0.0307,0.02,0.004,125.451775,1879.494507,0.023,9.610999999997148,9.610999999997148,9.610999999997148,9.610999999997148,40.605307129,121.017661945,0.0,-0.0307,9.610999999997148,0.0
40.595791668,121.029191667,12.9926,-0.18517943363659836,-0.07609635538695278,1.1627383476786224,-642.5561470267552,1734.7340192705406,125.262634,-1879.417969,354.57313779290865,1240.224098980596,-18608.09870253061,0.07920792079020762,1240.224098980596,-18608.09870253061,0.07920792079020762,-0.0039,0.03,0.0039,-0.0039,0.03,0.0039,125.262634,1879.417969,0.008,9.711999999999534,9.711999999999534,9.711999999999534,9.711999999999534,40.605308717,121.017663151,0.0,-0.0039,9.711999999999534,0.0
40.595791668,121.029191667,12.9926,-0.18500490071139894,-0.07312929565856241,1.1625638147534232,-642.0383581543706,1734.962168195582,125.073586,-1879.341431,353.92179613093947,1226.211627463576,-18424.91599038534,0.0,1226.211627463576,-18424.91599038534,0.0,0.0003,0.03,0.002,0.0003,0.03,0.002,125.073586,1879.341431,0.0,9.813999999998487,9.813999999998487,9.813999999998487,9.813999999998487,40.605310304,121.017664357,0.0,0.0003,9.813999999998487,0.0
40.595791668,121.029191667,12.9926,-0.1916371518689774,-0.06789330790257943,1.1613420842770272,-642.5748837559167,1732.1709787943994,124.698875,-1879.190308,365.4958906265888,620.3924129324488,-9349.205512394492,-0.31343283581944326,620.3924129324488,-9349.205512394492,-0.31343283581944326,-0.0796,0.02,-0.0047,-0.0796,0.02,-0.0047,124.698875,1879.190308,-0.063,10.014999999999418,10.014999999999418,10.014999999999418,10.014999999999418,40.605313447,121.01766675,0.0,-0.0796,10.014999999999418,0.0
40.595791668,121.029191667,12.9926,-0.2012364627549462,-0.06632251157578452,1.16046941965103,-643.373862006777,1728.0044029107346,124.509598,-1879.114258,382.9411171663487,1220.6823333458722,-18422.688804110807,-0.8431372549106214,1220.6823333458722,-18422.688804110807,-0.8431372549106214,-0.0976,0.01,-0.008,-0.0976,0.01,-0.008,124.509598,1879.114258,-0.086,10.11699999999837,10.11699999999837,10.11699999999837,10.11699999999837,40.605315032,121.01766796,0.0,-0.0976,10.11699999999837,0.0
40.595791668,121.029191667,12.9926,-0.20699604928652748,-0.06544984694978735,1.159247689174634,-645.0790429318142,1724.923291118515,124.320221,-1879.038208,393.38630251241113,1230.8932772429746,-18604.33869329983,-1.0099009901115232,1230.8932772429746,-18604.33869329983,-1.0099009901115232,-0.0068,0.01,-0.0123,-0.0068,0.01,-0.0123,124.320221,1879.038208,-0.102,10.217999999997119,10.217999999997119,10.217999999997119,10.217999999997119,40.605316617,121.017669173,0.0,-0.0068,10.217999999997119,0.0
40.595791668,121.029191667,12.9926,-0.20577431881013145,-0.06544984694978735,1.158025958698238,-647.3829177829178,1724.4836681657778,124.130775,-1878.962646,391.1016799334955,1216.9683823220369,-18421.20241129691,-1.1470588235002828,1216.9683823220369,-18421.20241129691,-1.1470588235002828,0.0212,0.0,-0.0151,0.0212,0.0,-0.0151,124.130775,1878.962646,-0.117,10.319999999999709,10.319999999999709,10.319999999999709,10.319999999999709,40.6053182,121.017670388,0.0,0.0212,10.319999999999709,0.0
40.595791668,121.029191667,13.3988,-0.2064724505109292,-0.06754424205218056,1.1552334318950468,-653.2191588800182,1721.7448834800068,123.722725,-1878.789917,392.50244771949195,615.5359452819206,-9347.213517538805,-0.7014925373228791,615.5359452819206,-9347.213517538805,-0.7014925373228791,-0.0121,-0.01,-0.0157,-0.0121,-0.01,-0.0157,123.722725,1878.789917,-0.141,10.520999999997002,10.520999999997002,10.520999999997002,10.520999999997002,40.60532168,121.017672936,0.0,-0.0121,10.520999999997002,0.0
40.595791668,121.029191667,13.3988,-0.2038544566329377,-0.06946410422937431,1.1540117014186508,-656.2635616353267,1721.52939842047,123.516602,-1878.703003,387.8608129002119,1210.9470784006212,-18418.65689168913,-1.3039215685943386,1210.9470784006212,-18418.65689168913,-1.3039215685943386,0.0522,-0.02,-0.014,0.0522,-0.02,-0.014,123.516602,1878.703003,-0.133,10.622999999999593,10.622999999999593,10.622999999999593,10.622999999999593,40.605323435,121.017674225,0.0,0.0522,10.622999999999593,0.0
40.595791668,121.029191667,13.3988,-0.1965240737745615,-0.07208209810736581,1.1533135697178527,-658.7674994569735,1723.3931800701516,123.310356,-1878.616211,374.62735658349766,1220.8946138765139,-18600.160505180964,-1.2376237623915727,1220.8946138765139,-18600.160505180964,-1.2376237623915727,0.0801,-0.02,-0.0107,0.0801,-0.02,-0.0107,123.310356,1878.616211,-0.125,10.723999999998341,10.723999999998341,10.723999999998341,10.723999999998341,40.60532519,121.017675515,0.0,0.0801,10.723999999998341,0.0
40.595791668,121.029191667,13.3988,-0.19285888234537343,-0.07504915783575616,1.1527899709422549,-660.9158636995688,1723.8568663781268,123.104111,-1878.529541,368.15159594249707,1206.9030490320051,-18416.956284502903,-1.1470588235411943,1206.9030490320051,-18416.956284502903,-1.1470588235411943,-0.0061,-0.03,-0.0059,-0.0061,-0.03,-0.0059,123.104111,1878.529541,-0.117,10.825999999997293,10.825999999997293,10.825999999997293,10.825999999997293,40.605326944,121.017676807,0.0,-0.0061,10.825999999997293,0.0
40.595791668,121.029191667,13.3988,-0.18867009214058703,-0.08028514559173916,1.1538371684934514,-661.2125041616956,1725.0552574265814,122.6959,-1878.357422,360.9200436501516,610.4273631812512,-9345.061800951726,-0.38805970149073926,610.4273631812512,-9345.061800951726,-0.38805970149073926,0.0814,-0.02,0.0064,0.0814,-0.02,0.0064,122.6959,1878.357422,-0.078,11.026999999998225,11.026999999998225,11.026999999998225,11.026999999998225,40.605330421,121.017679361,0.0,0.0814,11.026999999998225,0.0
40.595791668,121.029191667,13.3988,-0.1795943800302165,-0.08203047484373349,1.1552334318950468,-659.5351310141796,1728.967917682847,122.489891,-1878.270142,344.3629687937423,1212.771198034829,-18596.73407943835,-0.6237623762453527,1212.771198034829,-18596.73407943835,-0.6237623762453527,0.0953,-0.02,0.016,0.0953,-0.02,0.016,122.489891,1878.270142,-0.063,11.127999999996973,11.127999999996973,11.127999999996973,11.127999999996973,40.605332177,121.017680647,0.0,0.0953,11.127999999996973,0.0
40.595791668,121.029191667,13.3988,-0.16982053621904827,-0.08290313946973066,1.1573278269974399,-656.2508646171791,1733.583659133968,122.284027,-1878.182495,326.4128818929314,1198.863009773477,-18413.553872081415,-0.4607843137137888,1198.863009773477,-18413.553872081415,-0.4607843137137888,0.0878,-0.0,0.0216,0.0878,-0.0,0.0216,122.284027,1878.182495,-0.047,11.229999999999563,11.229999999999563,11.229999999999563,11.229999999999563,40.605333936,121.017681928,0.0,0.0878,11.229999999999563,0.0
40.595791668,121.029191667,13.3988,-0.16336281798666924,-0.08237954069413235,1.1594222220998331,-652.5161774129634,1737.0967846247736,122.078293,-1878.094482,314.41913669859696,1196.8460098162154,-18412.691000189134,-0.3823529411803981,1196.8460098162154,-18412.691000189134,-0.3823529411803981,0.0229,0.01,0.0231,0.0229,0.01,0.0231,122.078293,1878.094482,-0.039,11.331999999998516,11.331999999998516,11.331999999998516,11.331999999998516,40.605335696,121.017683205,0.0,0.0229,11.331999999998516,0.0
40.595791668,121.029191667,13.8989,-0.1706932008450454,-0.0783652834145454,1.1637855452298191,-644.1562876526573,1737.5888742824286,121.661377,-1877.926636,327.5019441473313,605.2804825842602,-9342.918587021386,-0.19402985074536963,605.2804825842602,-9342.918587021386,-0.19402985074536963,-0.0258,0.03,0.0235,-0.0258,0.03,0.0235,121.661377,1877.926636,-0.039,11.532999999999447,11.532999999999447,11.532999999999447,11.532999999999447,40.60533919,121.017685871,0.0,-0.0258,11.532999999999447,0.0
40.595791668,121.029191667,13.8989,-0.17174039839624203,-0.0747000919853573,1.1653563415566135,-640.4831527038514,1738.550595976855,121.451019,-1877.841675,329.03322892833063,1202.4853366485631,-18592.491831913543,-0.544554455452292,1202.4853366485631,-18592.491831913543,-0.544554455452292,0.0,0.04,0.0211,0.0,0.04,0.0211,121.451019,1877.841675,-0.055,11.633999999998196,11.633999999998196,11.633999999998196,11.633999999998196,40.605340956,121.017687213,0.0,0.0,11.633999999998196,0.0
40.595791668,121.029191667,13.8989,-0.17453292519943295,-0.06928957130417489,1.1662290061826108,-637.4628093360056,1738.6842882952624,121.240677,-1877.756348,333.5960490748629,1188.6340882475038,-18409.37596097341,-0.8431372549106214,1188.6340882475038,-18409.37596097341,-0.8431372549106214,-0.0694,0.05,0.0146,-0.0694,0.05,0.0146,121.240677,1877.756348,-0.086,11.735999999997148,11.735999999997148,11.735999999997148,11.735999999997148,40.605342723,121.017688553,0.0,-0.0694,11.735999999997148,0.0
40.595791668,121.029191667,13.8989,-0.18308503853420519,-0.06370451769779303,1.1664035391078102,-635.408839325829,1736.3553252692323,121.030434,-1877.671143,348.74502741965836,1198.3211286845562,-18590.803395600324,-1.237623762346994,1198.3211286845562,-18590.803395600324,-1.237623762346994,-0.0874,0.06,0.0073,-0.0874,0.06,0.0073,121.030434,1877.671143,-0.125,11.836999999999534,11.836999999999534,11.836999999999534,11.836999999999534,40.605344489,121.017689893,0.0,-0.0874,11.836999999999534,0.0
40.595791668,121.029191667,13.8989,-0.19093902016817965,-0.052185344634630454,1.1637855452298191,-636.1966774438463,1733.158521355633,120.613342,-1877.503296,361.91376976020223,597.095752482646,-9294.570772392395,-1.0445544554584874,597.095752482646,-9294.570772392395,-1.0445544554584874,-0.028,0.06,-0.0141,-0.028,0.06,-0.0141,120.613342,1877.503296,-0.211,12.038999999997031,12.038999999997031,12.038999999997031,12.038999999997031,40.605347984,121.017692559,0.0,-0.028,12.038999999997031,0.0
40.595791668,121.029191667,13.8989,-0.19774580425095753,-0.047472955654245766,1.1609930184266277,-639.1952707013968,1729.4063745783926,120.402611,-1877.419067,373.8745914171719,1192.1050593777725,-18588.307593620186,-2.6336633662744036,1192.1050593777725,-18588.307593620186,-2.6336633662744036,-0.1112,0.05,-0.0238,-0.1112,0.05,-0.0238,120.402611,1877.419067,-0.266,12.139999999999418,12.139999999999418,12.139999999999418,12.139999999999418,40.605349745,121.017693911,0.0,-0.1112,12.139999999999418,0.0
40.595791668,121.029191667,13.8989,-0.21013764194011728,-0.0439822971502571,1.1573278269974399,-643.521881905117,1722.7110092912192,120.191605,-1877.335815,396.2098474234508,1178.3490686395548,-18405.25308842435,-2.9901960784620876,1178.3490686395548,-18405.25308842435,-2.9901960784620876,-0.1145,0.03,-0.0334,-0.1145,0.03,-0.0334,120.191605,1877.335815,-0.305,12.24199999999837,12.24199999999837,12.24199999999837,12.24199999999837,40.605351502,121.017695272,0.0,-0.1145,12.24199999999837,0.0
40.595791668,121.029191667,13.8989,-0.2181661564992912,-0.04223696789826278,1.152964503867454,-649.8313843600843,1716.8371727985484,119.98024,-1877.253296,410.6879621160883,1187.9231683315509,-18586.666297260006,-3.326732673308548,1187.9231683315509,-18586.666297260006,-3.326732673308548,-0.0557,0.02,-0.0423,-0.0557,0.02,-0.0423,119.98024,1877.253296,-0.336,12.342999999997119,12.342999999997119,12.342999999997119,12.342999999997119,40.605353255,121.017696643,0.0,-0.0557,12.342999999997119,0.0
40.595791668,121.029191667,14.0942,-0.21345376751890652,-0.04363323129985824,1.144586923457881,-665.4787468806661,1712.6422083940654,119.543869,-1877.080933,402.14224103030415,594.7456169126672,-9338.711109409465,-1.6716417910370307,594.7456169126672,-9338.711109409465,-1.6716417910370307,0.0977,-0.01,-0.0379,0.0977,-0.01,-0.0379,119.543869,1877.080933,-0.336,12.54399999999805,12.54399999999805,12.54399999999805,12.54399999999805,40.605356888,121.017699456,0.0,0.0977,12.54399999999805,0.0
40.595791668,121.029191667,14.0942,-0.20158552860534507,-0.04642575810304917,1.1416198637294914,-672.7306355175324,1714.6109438183296,119.323326,-1876.994629,380.64392122578636,1169.836529423781,-18401.908127640003,-3.068627451011913,1169.836529423781,-18401.908127640003,-3.068627451011913,0.1031,-0.02,-0.0237,0.1031,-0.02,-0.0237,119.323326,1876.994629,-0.313,12.645999999997002,12.645999999997002,12.645999999997002,12.645999999997002,40.605358719,121.017700884,0.0,0.1031,12.645999999997002,0.0
40.595791668,121.029191667,14.0942,-0.19093902016817965,-0.048869219055841226,1.140747199103494,-675.9882447678949,1717.3973965536075,119.102661,-1876.908447,361.32660025625967,1167.673147029171,-18401.063205415066,-2.6764705881673265,1167.673147029171,-18401.063205415066,-2.6764705881673265,0.1048,-0.02,-0.0065,0.1048,-0.02,-0.0065,119.102661,1876.908447,-0.273,12.747999999999593,12.747999999999593,12.747999999999593,12.747999999999593,40.605360549,121.017702314,0.0,0.1048,12.747999999999593,0.0
40.595791668,121.029191667,14.0942,-0.17924531417981765,-0.050789081233034994,1.1410962649538925,-676.8681758861359,1721.2926801714484,118.882095,-1876.822266,339.9938291421343,1177.050445559139,-18582.398673497577,-2.247524752503096,1177.050445559139,-18582.398673497577,-2.247524752503096,0.1493,-0.01,0.0098,0.1493,-0.01,0.0098,118.882095,1876.822266,-0.227,12.848999999998341,12.848999999998341,12.848999999998341,12.848999999998341,40.60536238,121.017703743,0.0,0.1493,12.848999999998341,0.0
40.595791668,121.029191667,14.0942,-0.14503686084072878,-0.050265482457436686,1.1447614563830804,-672.0974515023462,1734.2324909966346,118.445824,-1876.649902,276.7073696964117,589.2827064649313,-9336.566676573655,-0.6616915422854913,589.2827064649313,-9336.566676573655,-0.6616915422854913,0.1588,0.02,0.0247,0.1588,0.02,0.0247,118.445824,1876.649902,-0.133,13.049999999999272,13.049999999999272,13.049999999999272,13.049999999999272,40.605366013,121.017706555,0.0,0.1588,13.049999999999272,0.0
40.595791668,121.029191667,14.0942,-0.13281955607676849,-0.047472955654245766,1.147030384410674,-667.9432340314594,1739.2315370250117,118.225769,-1876.562256,253.74936190001074,1159.0761666785727,-18397.66917665957,-0.9215686274604467,1159.0761666785727,-18397.66917665957,-0.9215686274604467,0.0651,0.03,0.0265,0.0651,0.03,0.0265,118.225769,1876.562256,-0.094,13.151999999998225,13.151999999998225,13.151999999998225,13.151999999998225,40.60536785,121.01770797,0.0,0.0651,13.151999999998225,0.0
40.595791668,121.029191667,14.0942,-0.13281955607676849,-0.04363323129985824,1.1492993124382664,-663.2710319334221,1740.9682370812186,118.005775,-1876.474243,253.3418405002645,1168.374009915467,-18578.952901220306,-0.6930693069392808,1168.374009915467,-18578.952901220306,-0.6930693069392808,-0.0553,0.04,0.0251,-0.0553,0.04,0.0251,118.005775,1876.474243,-0.07,13.252999999996973,13.252999999996973,13.252999999996973,13.252999999996973,40.605369689,121.01770938,0.0,-0.0553,13.252999999996973,0.0
40.595791668,121.029191667,14.0942,-0.13892820845874862,-0.03804817769347639,1.1508701087650608,-659.1707712880573,1740.8191892311281,117.785995,-1876.385864,264.08312885595507,1154.7646568334203,-18395.9398426701,-0.5392156862608167,1154.7646568334203,-18395.9398426701,-0.5392156862608167,-0.0456,0.05,0.0194,-0.0456,0.05,0.0194,117.785995,1876.385864,-0.055,13.354999999999563,13.354999999999563,13.354999999999563,13.354999999999563,40.60537153,121.017710785,0.0,-0.0456,13.354999999999563,0.0
40.595791668,121.029191667,14.2973,-0.14433872913993104,-0.026703537555513242,1.1517427733910581,-654.8714106672611,1740.8704100957398,117.390854,-1876.206421,272.8457467457437,584.0340995103521,-9334.360303608284,-0.3134328358251162,584.0340995103521,-9334.360303608284,-0.3134328358251162,-0.0155,0.06,0.0023,-0.0155,0.06,0.0023,117.390854,1876.206421,-0.063,13.555999999996857,13.555999999996857,13.555999999996857,13.555999999996857,40.605374987,121.017713164,0.0,-0.0155,13.555999999996857,0.0
40.595791668,121.029191667,14.2973,-0.1457349925415265,-0.02181661564992912,1.1506955758398616,-655.5215410305144,1740.1985035133948,117.191154,-1876.115967,274.8555497327922,1148.9328823237645,-18393.29379365056,-0.8431372548805497,1148.9328823237645,-18393.29379365056,-0.8431372548805497,-0.0293,0.04,-0.0093,-0.0293,0.04,-0.0093,117.191154,1876.115967,-0.086,13.657999999999447,13.657999999999447,13.657999999999447,13.657999999999447,40.605376731,121.017714367,0.0,-0.0293,13.657999999999447,0.0
40.595791668,121.029191667,14.2973,-0.1488765851951163,-0.01815142422074103,1.1486011807374683,-658.1356036165374,1738.2436487126145,116.991394,-1876.026123,280.227691529635,1158.3306336777189,-18574.516069537083,-1.1584158415985122,1158.3306336777189,-18574.516069537083,-1.1584158415985122,-0.0289,0.03,-0.0192,-0.0289,0.03,-0.0192,116.991394,1876.026123,-0.117,13.758999999998196,13.758999999998196,13.758999999998196,13.758999999998196,40.605378473,121.017715575,0.0,-0.0289,13.758999999998196,0.0
40.595791668,121.029191667,14.2973,-0.15097098029750952,-0.016231562043547264,1.1458086539342769,-662.4602672806453,1735.9028880579572,116.791222,-1875.936646,283.84163046403324,1145.0119804039184,-18391.535745286958,-1.5294117647215923,1145.0119804039184,-18391.535745286958,-1.5294117647215923,-0.0048,0.01,-0.0274,-0.0048,0.01,-0.0274,116.791222,1875.936646,-0.156,13.860999999997148,13.860999999997148,13.860999999997148,13.860999999997148,40.605380212,121.01771679,0.0,-0.0048,13.860999999997148,0.0
40.595791668,121.029191667,14.2973,-0.15428710587629874,-0.017278759594743863,1.1395254686270981,-673.617435997322,1730.3666926462797,116.393829,-1875.762085,290.00281616322013,579.0737761167198,-9332.149676573676,-1.129353233825613,579.0737761167198,-9332.149676573676,-1.129353233825613,-0.0398,-0.02,-0.034,-0.0398,-0.02,-0.034,116.393829,1875.762085,-0.227,14.06199999999808,14.06199999999808,14.06199999999808,14.06199999999808,40.605383646,121.017719224,0.0,-0.0398,14.06199999999808,0.0
40.595791668,121.029191667,14.2973,-0.15742869852988853,-0.019896753472735354,1.1365584088987075,-679.3048644516298,1727.0034398155044,116.192917,-1875.674438,296.07342640864135,1139.1462451097404,-18388.965078620262,-2.4509803921820392,1139.1462451097404,-18388.965078620262,-2.4509803921820392,-0.0056,-0.03,-0.0333,-0.0056,-0.03,-0.0333,116.192917,1875.674438,-0.25,14.163999999997031,14.163999999997031,14.163999999997031,14.163999999997031,40.605385377,121.017720459,0.0,-0.0056,14.163999999997031,0.0
40.595791668,121.029191667,14.2973,-0.15498523757709648,-0.024434609527920613,1.133765882095516,-685.6910686808029,1725.0635375060035,115.991753,-1875.587524,292.0038893167621,1148.4331979926658,-18570.173504511702,-2.702970296965835,1148.4331979926658,-18570.173504511702,-2.702970296965835,0.0519,-0.04,-0.0293,0.0519,-0.04,-0.0293,115.991753,1875.587524,-0.273,14.264999999999418,14.264999999999418,14.264999999999418,14.264999999999418,40.605387105,121.017721701,0.0,0.0519,14.264999999999418,0.0
40.595791668,121.029191667,14.2973,-0.1499237827463129,-0.0291469985083053,1.1316714869931228,-691.060241758682,1724.2987309119512,115.790443,-1875.500977,283.0919611415249,1135.200421580288,-18387.26448058103,-2.911764705912262,1135.200421580288,-18387.26448058103,-2.911764705912262,0.027,-0.05,-0.0274,0.027,-0.05,-0.0274,115.790443,1875.500977,-0.297,14.36699999999837,14.36699999999837,14.36699999999837,14.36699999999837,40.605388831,121.017722948,0.0,0.027,14.36699999999837,0.0
40.595791668,121.029191667,14.1957,-0.15917402778188283,-0.039968039870670144,1.1281808284891344,-699.6181100120555,1717.5752555910365,115.402832,-1875.366455,301.30880852944046,574.1434427834095,-9330.181368115973,-1.5920398009876482,574.1434427834095,-9330.181368115973,-1.5920398009876482,-0.0925,-0.05,-0.0224,-0.0925,-0.05,-0.0224,115.402832,1875.366455,-0.32,14.567999999999302,14.567999999999302,14.567999999999302,14.567999999999302,40.605391928,121.017725583,0.0,-0.0925,14.567999999999302,0.0
40.595791668,121.029191667,14.1957,-0.16755160819145562,-0.04537856055185257,1.1269590980127384,-702.8761417572474,1713.267249710794,115.207047,-1875.298706,317.33021164174215,1140.663831697302,-18567.31392102214,-3.168316831722426,1140.663831697302,-18567.31392102214,-3.168316831722426,-0.0731,-0.05,-0.0221,-0.0731,-0.05,-0.0221,115.207047,1875.298706,-0.32,14.66899999999805,14.66899999999805,14.66899999999805,14.66899999999805,40.605393489,121.017726916,0.0,-0.0731,14.66899999999805,0.0
40.595791668,121.029191667,14.1957,-0.17575465567582899,-0.050789081233034994,1.1259119004615419,-705.9333101845411,1708.9461761455625,115.011223,-1875.231201,332.9877920122826,1127.561009815504,-18384.619617835906,-3.13725490199301,1127.561009815504,-18384.619617835906,-3.13725490199301,-0.0978,-0.05,-0.0166,-0.0978,-0.05,-0.0166,115.011223,1875.231201,-0.32,14.770999999997002,14.770999999997002,14.770999999997002,14.770999999997002,40.60539505,121.017728251,0.0,-0.0978,14.770999999997002,0.0
40.595791668,121.029191667,14.1957,-0.18535396656179778,-0.056025068989017976,1.1255628346111433,-707.755665441541,1704.4600406384973,114.8153,-1875.16394,351.16995303901865,1125.6401960498463,-18383.96019561158,-2.9901960783554378,1125.6401960498463,-18383.96019561158,-2.9901960783554378,-0.0928,-0.05,-0.0096,-0.0928,-0.05,-0.0096,114.8153,1875.16394,-0.305,14.872999999999593,14.872999999999593,14.872999999999593,14.872999999999593,40.605396611,121.017729587,0.0,-0.0928,14.872999999999593,0.0
40.595791668,121.029191667,14.1957,-0.19966566642815128,-0.06597344572538566,1.1280062955639352,-706.4113430717746,1699.01534221337,114.427589,-1875.029541,378.36412168589544,569.2914875698551,-9328.505179230095,-1.3582089552421703,569.2914875698551,-9328.505179230095,-1.3582089552421703,-0.0702,-0.05,0.018,-0.0702,-0.05,0.018,114.427589,1875.029541,-0.273,15.073999999996886,15.073999999996886,15.073999999996886,15.073999999996886,40.605399706,121.017732223,0.0,-0.0702,15.073999999996886,0.0
40.595791668,121.029191667,14.1957,-0.21135937241651329,-0.07120943348136864,1.1320205528435223,-701.0093309201595,1696.1504196942492,114.232178,-1874.960815,400.2334100371688,1131.0116633396121,-18563.968464907888,-2.475247524693988,1131.0116633396121,-18563.968464907888,-2.475247524693988,-0.1363,-0.05,0.0368,-0.1363,-0.05,0.0368,114.232178,1874.960815,-0.25,15.174999999999272,15.174999999999272,15.174999999999272,15.174999999999272,40.605401273,121.017733546,0.0,-0.1363,15.174999999999272,0.0
40.595791668,121.029191667,14.1957,-0.2249729405820691,-0.07487462491055674,1.1372565405995056,-692.9691202838972,1693.23934006866,114.037064,-1874.891113,425.3886748350616,1118.0104313840332,-18381.28542175744,-2.2254901961012914,1118.0104313840332,-18381.28542175744,-2.2254901961012914,-0.1211,-0.04,0.0484,-0.1211,-0.04,0.0484,114.037064,1874.891113,-0.227,15.276999999998225,15.276999999998225,15.276999999998225,15.276999999998225,40.605402846,121.017734858,0.0,-0.1211,15.276999999998225,0.0
