lat_gps,lon_gps,alt_gps,roll,pitch,yaw,vn,ve,vf,vl,vu,ax,ay,az,af,al,au,wx,wy,wz,wf,wl,wu,pos_accuracy,vel_accuracy,navstat,numsats,posmode,velmode,orimode,lat,lon,depth,height,time,time_gps
40.700726668,121.023426667,0.0,-0.02356194490192345,0.02111848394913139,2.976659039276329,0.0,0.0,0.0,-0.0,0.0,0.0,0.0,0.0,0.0,0.0,0.0,0.0008,-0.0,-0.0057,0.0008,-0.0,-0.0057,0.0,0.0,0.0,0.0,0.0,0.0,0.0,40.700726728,121.023426197,0.0,0.0008,0.0,0.0
40.700726668,121.023426667,0.0,-0.02356194490192345,0.02111848394913139,2.9761354405007303,0.0,0.0,0.0,-0.0,0.0,0.0,-0.0,0.0,0.0,-0.0,0.0,0.0018,-0.0,-0.0059,0.0018,-0.0,-0.0059,0.0,0.0,0.0,0.10199999999999676,0.10199999999999676,0.10199999999999676,0.10199999999999676,40.700726788,121.023425723,0.0,0.0018,0.10199999999999676,0.0
40.700726668,121.023426667,0.0,-0.023387411976724018,0.02111848394913139,2.9756118417251325,0.0,0.0,0.0,-0.0,0.0,0.0,-0.0,0.0,0.0,-0.0,0.0,0.0025,0.0,-0.0062,0.0025,0.0,-0.0062,0.0,0.0,0.0,0.20199999999999818,0.20199999999999818,0.20199999999999818,0.20199999999999818,40.700726847,121.023425256,0.0,0.0025,0.20199999999999818,0.0
40.700726668,121.023426667,0.0,-0.02303834612632515,0.02111848394913139,2.9749137100243344,0.0,0.0,0.0,-0.0,0.0,0.0,-0.0,0.0,0.0,-0.0,0.0,0.0037,0.0,-0.0064,0.0037,0.0,-0.0064,0.0,0.0,0.0,0.3019999999999996,0.3019999999999996,0.3019999999999996,0.3019999999999996,40.700726907,121.023424789,0.0,0.0037,0.3019999999999996,0.0
40.700726668,121.023426667,0.0,-0.022689280275926284,0.02129301687433082,2.974215578323537,0.0,0.0,0.0,-0.0,0.0,0.0,-0.0,0.0,0.0,-0.0,0.0,0.0046,0.0,-0.0066,0.0046,0.0,-0.0066,0.0,0.0,0.0,0.402000000000001,0.402000000000001,0.402000000000001,0.402000000000001,40.700726967,121.02342432,0.0,0.0046,0.402000000000001,0.0
40.700726668,121.023426667,0.0,-0.022689280275926284,0.02111848394913139,2.387610416728243,0.0,0.0,0.0,-0.0,0.0,0.0,-0.0,0.0,0.0,-0.0,0.0,0.0057,0.0,-0.0068,0.0057,0.0,-0.0068,0.0,0.0,0.0,0.5039999999999978,0.5039999999999978,0.5039999999999978,0.5039999999999978,40.700727218,121.02342397,0.0,0.0057,0.5039999999999978,0.0
40.700743335,121.023415,0.0,-0.02199114857512855,0.021467549799530253,2.386912285027445,0.0,0.0,0.0,-0.0,0.0,0.0,-0.0,0.0,0.0,-0.0,0.0,0.0063,0.0,-0.0073,0.0063,0.0,-0.0073,0.0,0.0,0.0,0.6039999999999992,0.6039999999999992,0.6039999999999992,0.6039999999999992,40.700743583,121.023414653,0.0,0.0063,0.6039999999999992,0.0
40.700743335,121.023415,0.0,-0.02129301687433082,0.02181661564992912,2.386214153326647,0.0,0.0,0.0,-0.0,0.0,0.0,-0.0,0.0,0.0,-0.0,0.0,0.007,0.0,-0.0077,0.007,0.0,-0.0077,0.0,0.0,0.0,0.7040000000000006,0.7040000000000006,0.7040000000000006,0.7040000000000006,40.700743829,121.023414311,0.0,0.007,0.7040000000000006,0.0
40.700743335,121.023415,0.0,-0.020420352248333655,0.02234021442552742,2.3853414887006505,0.0,0.0,0.0,-0.0,0.0,0.0,-0.0,0.0,0.0,-0.0,0.0,0.007,0.0,-0.0077,0.007,0.0,-0.0077,0.0,0.0,0.0,0.804000000000002,0.804000000000002,0.804000000000002,0.804000000000002,40.700744076,121.023413966,0.0,0.007,0.804000000000002,0.0
40.700743335,121.023415,0.0,-0.01972222054753592,0.022863813201125717,2.3846433569998524,0.0,0.0,0.0,-0.0,0.0,0.0,-0.0,0.0,0.0,-0.0,0.0,0.0072,0.0,-0.0073,0.0072,0.0,-0.0073,0.0,0.0,0.0,0.9059999999999988,0.9059999999999988,0.9059999999999988,0.9059999999999988,40.700744327,121.023413617,0.0,0.0072,0.9059999999999988,0.0
40.700743335,121.023415,0.0,-0.01884955592153876,0.023212879051524585,2.3839452252990547,0.0,0.0,0.0,-0.0,0.0,0.0,-0.0,0.0,0.0,-0.0,0.0,0.0084,0.01,-0.0065,0.0084,0.01,-0.0065,0.0,0.0,0.0,1.0060000000000002,1.0060000000000002,1.0060000000000002,1.0060000000000002,40.700744576,121.023413271,0.0,0.0084,1.0060000000000002,0.0
40.700743335,121.023415,0.0,-0.017976891295541596,0.023911010752322315,2.383247093598257,0.0,0.0,0.0,-0.0,0.0,0.0,-0.0,0.0,0.0,-0.0,0.0,0.0084,0.01,-0.0061,0.0084,0.01,-0.0061,0.0,0.0,0.0,1.1060000000000016,1.1060000000000016,1.1060000000000016,1.1060000000000016,40.700744822,121.02341293,0.0,0.0084,1.1060000000000016,0.0
40.700743335,121.023415,0.0,-0.017278759594743863,0.024434609527920613,2.382548961897459,0.0,0.0,0.0,-0.0,0.0,0.0,-0.0,0.0,0.0,-0.0,0.0,0.0083,0.01,-0.0063,0.0083,0.01,-0.0063,0.0,0.0,0.0,1.206000000000003,1.206000000000003,1.206000000000003,1.206000000000003,40.70074507,121.023412586,0.0,0.0083,1.206000000000003,0.0
40.700743335,121.023415,0.0,-0.016406094968746697,0.02495820830351891,2.3818508301966617,0.0,0.0,0.0,-0.0,0.0,0.0,-0.0,0.0,0.0,-0.0,0.0,0.0065,0.01,-0.0064,0.0065,0.01,-0.0064,0.0,0.0,0.0,1.3070000000000022,1.3070000000000022,1.3070000000000022,1.3070000000000022,40.700745322,121.023412237,0.0,0.0065,1.3070000000000022,0.0
40.700743335,121.023415,0.0,-0.0158824961931484,0.02548180707911721,2.3813272314210634,0.0,0.0,0.0,-0.0,0.0,0.0,-0.0,0.0,0.0,-0.0,0.0,0.006,0.01,-0.0063,0.006,0.01,-0.0063,0.0,0.0,0.0,1.4069999999999965,1.4069999999999965,1.4069999999999965,1.4069999999999965,40.70074557,121.023411894,0.0,0.006,1.4069999999999965,0.0
40.700773335,121.023413333,0.0,-0.0153588974175501,0.02600540585471551,2.3043582114081134,0.0,0.0,0.0,-0.0,0.0,0.0,-0.0,0.0,0.0,-0.0,0.0,0.0048,0.01,-0.0059,0.0048,0.01,-0.0059,0.0,0.0,0.0,1.506999999999998,1.506999999999998,1.506999999999998,1.506999999999998,40.700773604,121.023413015,0.0,0.0048,1.506999999999998,0.0
40.700773335,121.023413333,0.0,-0.014835298641951801,0.02652900463031381,2.303834612632515,0.0,0.0,0.0,-0.0,0.0,0.0,-0.0,0.0,0.0,-0.0,0.0,0.0041,0.01,-0.0052,0.0041,0.01,-0.0052,0.0,0.0,0.0,1.6069999999999993,1.6069999999999993,1.6069999999999993,1.6069999999999993,40.70077387,121.0234127,0.0,0.0041,1.6069999999999993,0.0
40.700773335,121.023413333,0.0,-0.014486232791552934,0.027052603405912107,2.303311013856917,0.0,0.0,0.0,-0.0,0.0,0.0,-0.0,0.0,0.0,-0.0,0.0,0.0033,0.01,-0.0045,0.0033,0.01,-0.0045,0.0,0.0,0.0,1.7090000000000032,1.7090000000000032,1.7090000000000032,1.7090000000000032,40.700774142,121.023412378,0.0,0.0033,1.7090000000000032,0.0
40.700773335,121.023413333,0.0,-0.014137166941154071,0.02757620218151041,2.3029619480065175,0.0,0.0,0.0,-0.0,0.0,0.0,-0.0,0.0,0.0,-0.0,0.0,0.0027,0.0,-0.004,0.0027,0.0,-0.004,0.0,0.0,0.0,1.8089999999999975,1.8089999999999975,1.8089999999999975,1.8089999999999975,40.70077441,121.023412062,0.0,0.0027,1.8089999999999975,0.0
40.700773335,121.023413333,0.0,-0.014137166941154071,0.028099800957108706,2.3024383492309197,0.0,0.0,0.0,-0.0,0.0,0.0,-0.0,0.0,0.0,-0.0,0.0,0.0017,0.0,-0.0038,0.0017,0.0,-0.0038,0.0,0.0,0.0,1.908999999999999,1.908999999999999,1.908999999999999,1.908999999999999,40.700774678,121.023411746,0.0,0.0017,1.908999999999999,0.0
40.700773335,121.023413333,0.0,-0.013962634015954637,0.028623399732707003,2.302089283380521,0.0,0.0,0.0,-0.0,0.0,0.0,-0.0,0.0,0.0,-0.0,0.0,0.0005,0.0,-0.0038,0.0005,0.0,-0.0038,0.0,0.0,0.0,2.0090000000000003,2.0090000000000003,2.0090000000000003,2.0090000000000003,40.700774947,121.023411428,0.0,0.0005,2.0090000000000003,0.0
40.700773335,121.023413333,0.0,-0.013962634015954637,0.02897246558310587,2.3017402175301216,0.0,0.0,0.0,-0.0,0.0,0.0,-0.0,0.0,0.0,-0.0,0.0,-0.0008,0.0,-0.0037,-0.0008,0.0,-0.0037,0.0,0.0,0.0,2.110999999999997,2.110999999999997,2.110999999999997,2.110999999999997,40.70077522,121.023411107,0.0,-0.0008,2.110999999999997,0.0
40.700773335,121.023413333,0.0,-0.013962634015954637,0.02949606435870417,2.301391151679723,0.0,0.0,0.0,-0.0,0.0,0.0,-0.0,0.0,0.0,-0.0,0.0,-0.0014,0.0,-0.0031,-0.0014,0.0,-0.0031,0.0,0.0,0.0,2.2109999999999985,2.2109999999999985,2.2109999999999985,2.2109999999999985,40.700775488,121.023410791,0.0,-0.0014,2.2109999999999985,0.0
40.700773335,121.023413333,0.0,-0.014137166941154071,0.029845130209103034,2.3010420858293243,0.0,0.0,0.0,-0.0,0.0,0.0,-0.0,0.0,0.0,-0.0,0.0,-0.0015,0.0,-0.0028,-0.0015,0.0,-0.0028,0.0,0.0,0.0,2.311,2.311,2.311,2.311,40.700775757,121.023410476,0.0,-0.0015,2.311,0.0
40.700773335,121.023413333,0.0,-0.014311699866353502,0.030019663134302467,2.300693019978925,0.0,0.0,0.0,-0.0,0.0,0.0,-0.0,0.0,0.0,-0.0,0.0,-0.0015,0.0,-0.0033,-0.0015,0.0,-0.0033,0.0,0.0,0.0,2.4110000000000014,2.4110000000000014,2.4110000000000014,2.4110000000000014,40.700776025,121.02341016,0.0,-0.0015,2.4110000000000014,0.0
40.700796668,121.023395,0.0,-0.014311699866353502,0.031241393610698498,2.665117767795341,0.0,0.0,0.0,-0.0,0.0,0.0,-0.0,0.0,0.0,-0.0,0.0,-0.0017,0.0,-0.0034,-0.0017,0.0,-0.0034,0.0,0.0,0.0,2.512999999999998,2.512999999999998,2.512999999999998,2.512999999999998,40.700796837,121.023394571,0.0,-0.0017,2.512999999999998,0.0
40.700796668,121.023395,0.0,-0.014660765716752368,0.031415926535897934,2.6647687019449426,0.0,0.0,0.0,-0.0,0.0,0.0,-0.0,0.0,0.0,-0.0,0.0,-0.0019,0.0,-0.0033,-0.0019,0.0,-0.0033,0.0,0.0,0.0,2.6129999999999995,2.6129999999999995,2.6129999999999995,2.6129999999999995,40.700797001,121.023394152,0.0,-0.0019,2.6129999999999995,0.0
40.700796668,121.023395,0.0,-0.014835298641951801,0.0317649923862968,2.6644196360945434,0.0,0.0,0.0,-0.0,0.0,0.0,-0.0,0.0,0.0,-0.0,0.0,-0.0023,0.0,-0.0034,-0.0023,0.0,-0.0034,0.0,0.0,0.0,2.713000000000001,2.713000000000001,2.713000000000001,2.713000000000001,40.700797167,121.023393732,0.0,-0.0023,2.713000000000001,0.0
40.700796668,121.023395,0.0,-0.015009831567151233,0.032114058236695664,2.6642451031693444,0.0,0.0,0.0,-0.0,0.0,0.0,-0.0,0.0,0.0,-0.0,0.0,-0.002,0.0,-0.003,-0.002,0.0,-0.003,0.0,0.0,0.0,2.8130000000000024,2.8130000000000024,2.8130000000000024,2.8130000000000024,40.700797332,121.023393312,0.0,-0.002,2.8130000000000024,0.0
40.700796668,121.023395,0.0,-0.015184364492350668,0.03246312408709453,2.6637215043937457,0.0,0.0,0.0,-0.0,0.0,0.0,-0.0,0.0,0.0,-0.0,0.0,-0.0019,0.0,-0.0031,-0.0019,0.0,-0.0031,0.0,0.0,0.0,2.9140000000000015,2.9140000000000015,2.9140000000000015,2.9140000000000015,40.7007975,121.023392884,0.0,-0.0019,2.9140000000000015,0.0
40.700796668,121.023395,0.0,-0.0153588974175501,0.032812189937493394,2.663372438543347,0.0,0.0,0.0,-0.0,0.0,0.0,-0.0,0.0,0.0,-0.0,0.0,-0.0016,0.0,-0.0039,-0.0016,0.0,-0.0039,0.0,0.0,0.0,3.014000000000003,3.014000000000003,3.014000000000003,3.014000000000003,40.700797667,121.023392462,0.0,-0.0016,3.014000000000003,0.0
40.700796668,121.023395,0.0,-0.015707963267948967,0.03316125578789226,2.6630233726929475,0.0,0.0,0.0,-0.0,0.0,0.0,-0.0,0.0,0.0,-0.0,0.0,-0.0013,0.0,-0.0041,-0.0013,0.0,-0.0041,0.0,0.0,0.0,3.113999999999997,3.113999999999997,3.113999999999997,3.113999999999997,40.700797832,121.023392044,0.0,-0.0013,3.113999999999997,0.0
40.700796668,121.023395,0.0,-0.015707963267948967,0.033335788713091695,2.662674306842549,0.0,0.0,0.0,-0.0,0.0,0.0,-0.0,0.0,0.0,-0.0,0.0,-0.0009,0.0,-0.0038,-0.0009,0.0,-0.0038,0.0,0.0,0.0,3.2139999999999986,3.2139999999999986,3.2139999999999986,3.2139999999999986,40.700797998,121.023391624,0.0,-0.0009,3.2139999999999986,0.0
40.700796668,121.023395,0.0,-0.0158824961931484,0.033510321638291124,2.6623252409921503,0.0,0.0,0.0,-0.0,0.0,0.0,-0.0,0.0,0.0,-0.0,0.0,-0.0007,0.0,-0.0033,-0.0007,0.0,-0.0033,0.0,0.0,0.0,3.3160000000000025,3.3160000000000025,3.3160000000000025,3.3160000000000025,40.700798167,121.023391198,0.0,-0.0007,3.3160000000000025,0.0
40.700796668,121.023395,0.0,-0.0158824961931484,0.03368485456349056,2.6619761751417514,0.0,0.0,0.0,-0.0,0.0,0.0,-0.0,0.0,0.0,-0.0,0.0,-0.0006,0.0,-0.0032,-0.0006,0.0,-0.0032,0.0,0.0,0.0,3.415999999999997,3.415999999999997,3.415999999999997,3.415999999999997,40.700798333,121.023390778,0.0,-0.0006,3.415999999999997,0.0
40.700813335,121.023378333,0.0,-0.016231562043547264,0.03385938748868999,2.4972170937534863,0.0,0.0,0.0,-0.0,0.0,0.0,-0.0,0.0,0.0,-0.0,0.0,-0.0004,0.0,-0.0031,-0.0004,0.0,-0.0031,0.0,0.0,0.0,3.5159999999999982,3.5159999999999982,3.5159999999999982,3.5159999999999982,40.700813552,121.023377953,0.0,-0.0004,3.5159999999999982,0.0
40.700813335,121.023378333,0.0,-0.016406094968746697,0.03385938748868999,2.496868027903088,0.0,0.0,0.0,-0.0,0.0,0.0,-0.0,0.0,0.0,-0.0,0.0,-0.0003,-0.0,-0.003,-0.0003,-0.0,-0.003,0.0,0.0,0.0,3.6159999999999997,3.6159999999999997,3.6159999999999997,3.6159999999999997,40.700813768,121.023377576,0.0,-0.0003,3.6159999999999997,0.0
40.700813335,121.023378333,0.0,-0.016406094968746697,0.03368485456349056,2.4966934949778885,0.0,0.0,0.0,-0.0,0.0,0.0,-0.0,0.0,0.0,-0.0,0.0,-0.0007,-0.0,-0.0024,-0.0007,-0.0,-0.0024,0.0,0.0,0.0,3.7169999999999987,3.7169999999999987,3.7169999999999987,3.7169999999999987,40.700813988,121.023377192,0.0,-0.0007,3.7169999999999987,0.0
40.700813335,121.023378333,0.0,-0.016406094968746697,0.033510321638291124,2.4965189620526886,0.0,0.0,0.0,-0.0,0.0,0.0,-0.0,0.0,0.0,-0.0,0.0,-0.0002,-0.0,-0.0016,-0.0002,-0.0,-0.0016,0.0,0.0,0.0,3.817,3.817,3.817,3.817,40.700814204,121.023376814,0.0,-0.0002,3.817,0.0
40.700813335,121.023378333,0.0,-0.01658062789394613,0.033335788713091695,2.4963444291274897,0.0,0.0,0.0,-0.0,0.0,0.0,-0.0,0.0,0.0,-0.0,0.0,-0.0006,-0.0,-0.0009,-0.0006,-0.0,-0.0009,0.0,0.0,0.0,3.9170000000000016,3.9170000000000016,3.9170000000000016,3.9170000000000016,40.700814421,121.023376436,0.0,-0.0006,3.9170000000000016,0.0
40.700813335,121.023378333,0.0,-0.01658062789394613,0.03316125578789226,2.4961698962022902,0.0,0.0,0.0,-0.0,0.0,0.0,-0.0,0.0,0.0,-0.0,0.0,-0.0007,-0.0,-0.0004,-0.0007,-0.0,-0.0004,0.0,0.0,0.0,4.017000000000003,4.017000000000003,4.017000000000003,4.017000000000003,40.700814639,121.023376056,0.0,-0.0007,4.017000000000003,0.0
40.700813335,121.023378333,0.0,-0.016755160819145562,0.032637657012293965,2.4961698962022902,0.0,0.0,0.0,-0.0,0.0,0.0,-0.0,0.0,0.0,-0.0,0.0,-0.0013,-0.0,-0.0003,-0.0013,-0.0,-0.0003,0.0,0.0,0.0,4.119,4.119,4.119,4.119,40.700814859,121.023375672,0.0,-0.0013,4.119,0.0
40.700813335,121.023378333,0.0,-0.016929693744344994,0.0322885911618951,2.4961698962022902,0.0,0.0,0.0,-0.0,0.0,0.0,-0.0,0.0,0.0,-0.0,0.0,-0.0014,-0.0,-0.0003,-0.0014,-0.0,-0.0003,0.0,0.0,0.0,4.219000000000001,4.219000000000001,4.219000000000001,4.219000000000001,40.700815075,121.023375294,0.0,-0.0014,4.219000000000001,0.0
40.700813335,121.023378333,0.0,-0.01710422666954443,0.0317649923862968,2.4961698962022902,0.0,0.0,0.0,-0.0,0.0,0.0,-0.0,0.0,0.0,-0.0,0.0,-0.0015,-0.01,-0.0001,-0.0015,-0.01,-0.0001,0.0,0.0,0.0,4.319000000000003,4.319000000000003,4.319000000000003,4.319000000000003,40.700815292,121.023374915,0.0,-0.0015,4.319000000000003,0.0
40.700813335,121.023378333,0.0,-0.017278759594743863,0.031241393610698498,2.4961698962022902,0.0,0.0,0.0,-0.0,0.0,0.0,-0.0,0.0,0.0,-0.0,0.0,-0.0016,-0.01,0.0005,-0.0016,-0.01,0.0005,0.0,0.0,0.0,4.418999999999997,4.418999999999997,4.418999999999997,4.418999999999997,40.700815509,121.023374538,0.0,-0.0016,4.418999999999997,0.0
40.700828335,121.02337,0.0,-0.017627825445142728,0.031241393610698498,2.6148522853379044,0.0,0.0,0.0,-0.0,0.0,0.0,-0.0,0.0,0.0,-0.0,0.0,-0.0025,-0.01,0.0009,-0.0025,-0.01,0.0009,0.0,0.0,0.0,4.521000000000001,4.521000000000001,4.521000000000001,4.521000000000001,40.70082852,121.023369582,0.0,-0.0025,4.521000000000001,0.0
40.700828335,121.02337,0.0,-0.01780235837034216,0.0307177948351002,2.6148522853379044,0.0,0.0,0.0,-0.0,0.0,0.0,-0.0,0.0,0.0,-0.0,0.0,-0.0029,-0.01,0.001,-0.0029,-0.01,0.001,0.0,0.0,0.0,4.621000000000002,4.621000000000002,4.621000000000002,4.621000000000002,40.7008287,121.023369175,0.0,-0.0029,4.621000000000002,0.0
40.700828335,121.02337,0.0,-0.01815142422074103,0.030019663134302467,2.6148522853379044,0.0,0.0,0.0,-0.0,0.0,0.0,-0.0,0.0,0.0,-0.0,0.0,-0.0035,-0.01,0.0006,-0.0035,-0.01,0.0006,0.0,0.0,0.0,4.7209999999999965,4.7209999999999965,4.7209999999999965,4.7209999999999965,40.700828881,121.023368766,0.0,-0.0035,4.7209999999999965,0.0
40.700828335,121.02337,0.0,-0.018675022996339326,0.02949606435870417,2.615026818263104,0.0,0.0,0.0,-0.0,0.0,0.0,-0.0,0.0,0.0,-0.0,0.0,-0.004,-0.01,0.0003,-0.004,-0.01,0.0003,0.0,0.0,0.0,4.820999999999998,4.820999999999998,4.820999999999998,4.820999999999998,40.700829062,121.023368357,0.0,-0.004,4.820999999999998,0.0
40.700828335,121.02337,0.0,-0.019024088846738195,0.028797932657906436,2.615026818263104,0.0,0.0,0.0,-0.0,0.0,0.0,-0.0,0.0,0.0,-0.0,0.0,-0.0046,-0.01,0.0001,-0.0046,-0.01,0.0001,0.0,0.0,0.0,4.921999999999997,4.921999999999997,4.921999999999997,4.921999999999997,40.700829246,121.023367941,0.0,-0.0046,4.921999999999997,0.0
40.700828335,121.02337,0.0,-0.01937315469713706,0.028274333882308142,2.615026818263104,0.0,0.0,0.0,-0.0,0.0,0.0,-0.0,0.0,0.0,-0.0,0.0,-0.0049,-0.01,0.0001,-0.0049,-0.01,0.0001,0.0,0.0,0.0,5.0219999999999985,5.0219999999999985,5.0219999999999985,5.0219999999999985,40.700829428,121.02336753,0.0,-0.0049,5.0219999999999985,0.0
40.700828335,121.02337,0.0,-0.019896753472735354,0.02757620218151041,2.615026818263104,0.0,0.0,0.0,-0.0,0.0,0.0,-0.0,0.0,0.0,-0.0,0.0,-0.0045,-0.01,0.0002,-0.0045,-0.01,0.0002,0.0,0.0,0.0,5.122,5.122,5.122,5.122,40.700829608,121.023367123,0.0,-0.0045,5.122,0.0
40.700828335,121.02337,0.0,-0.020420352248333655,0.027052603405912107,2.615026818263104,0.0,0.0,0.0,-0.0,0.0,0.0,-0.0,0.0,0.0,-0.0,0.0,-0.0049,-0.01,-0.0002,-0.0049,-0.01,-0.0002,0.0,0.0,0.0,5.222000000000001,5.222000000000001,5.222000000000001,5.222000000000001,40.700829789,121.023366714,0.0,-0.0049,5.222000000000001,0.0
40.700828335,121.02337,0.0,-0.020943951023931952,0.02652900463031381,2.615026818263104,0.0,0.0,0.0,-0.0,0.0,0.0,-0.0,0.0,0.0,-0.0,0.0,-0.0051,-0.0,-0.0007,-0.0051,-0.0,-0.0007,0.0,0.0,0.0,5.323999999999998,5.323999999999998,5.323999999999998,5.323999999999998,40.700829972,121.023366299,0.0,-0.0051,5.323999999999998,0.0
40.700828335,121.02337,0.0,-0.021467549799530253,0.02600540585471551,2.615026818263104,0.0,0.0,0.0,-0.0,0.0,0.0,-0.0,0.0,0.0,-0.0,0.0,-0.0062,-0.0,-0.0011,-0.0062,-0.0,-0.0011,0.0,0.0,0.0,5.4239999999999995,5.4239999999999995,5.4239999999999995,5.4239999999999995,40.700830154,121.023365889,0.0,-0.0062,5.4239999999999995,0.0
40.700866668,121.023363333,0.0,-0.022165681500327987,0.025656340004316644,2.5963517952667643,0.0,0.0,0.0,-0.0,0.0,0.0,-0.0,0.0,0.0,-0.0,0.0,-0.0063,-0.0,-0.0013,-0.0063,-0.0,-0.0013,0.0,0.0,0.0,5.524000000000001,5.524000000000001,5.524000000000001,5.524000000000001,40.700866856,121.023362927,0.0,-0.0063,5.524000000000001,0.0
40.700866668,121.023363333,0.0,-0.022689280275926284,0.02530727415391778,2.5963517952667643,0.0,0.0,0.0,-0.0,0.0,0.0,-0.0,0.0,0.0,-0.0,0.0,-0.0064,-0.0,-0.0011,-0.0064,-0.0,-0.0011,0.0,0.0,0.0,5.624000000000002,5.624000000000002,5.624000000000002,5.624000000000002,40.700867042,121.023362524,0.0,-0.0064,5.624000000000002,0.0
40.700866668,121.023363333,0.0,-0.02356194490192345,0.02495820830351891,2.5961772623415653,0.0,0.0,0.0,-0.0,0.0,0.0,-0.0,0.0,0.0,-0.0,0.0,-0.0066,-0.0,-0.0011,-0.0066,-0.0,-0.0011,0.0,0.0,0.0,5.725999999999999,5.725999999999999,5.725999999999999,5.725999999999999,40.700867232,121.023362113,0.0,-0.0066,5.725999999999999,0.0
40.700866668,121.023363333,0.0,-0.024085543677521744,0.024783675378319478,2.596002729416366,0.0,0.0,0.0,-0.0,0.0,0.0,-0.0,0.0,0.0,-0.0,0.0,-0.0073,-0.0,-0.0012,-0.0073,-0.0,-0.0012,0.0,0.0,0.0,5.8260000000000005,5.8260000000000005,5.8260000000000005,5.8260000000000005,40.700867418,121.023361708,0.0,-0.0073,5.8260000000000005,0.0
40.700866668,121.023363333,0.0,-0.02495820830351891,0.024609142453120045,2.595828196491166,0.0,0.0,0.0,-0.0,0.0,0.0,-0.0,0.0,0.0,-0.0,0.0,-0.0075,-0.0,-0.001,-0.0075,-0.0,-0.001,0.0,0.0,0.0,5.926000000000002,5.926000000000002,5.926000000000002,5.926000000000002,40.700867605,121.023361304,0.0,-0.0075,5.926000000000002,0.0
40.700866668,121.023363333,0.0,-0.025656340004316644,0.024434609527920613,2.595828196491166,0.0,0.0,0.0,-0.0,0.0,0.0,-0.0,0.0,0.0,-0.0,0.0,-0.0073,-0.0,-0.0007,-0.0073,-0.0,-0.0007,0.0,0.0,0.0,6.025999999999996,6.025999999999996,6.025999999999996,6.025999999999996,40.700867793,121.023360897,0.0,-0.0073,6.025999999999996,0.0
40.700866668,121.023363333,0.0,-0.026354471705114377,0.024434609527920613,2.595828196491166,0.0,0.0,0.0,-0.0,0.0,0.0,-0.0,0.0,0.0,-0.0,0.0,-0.0073,-0.0,-0.0005,-0.0073,-0.0,-0.0005,0.0,0.0,0.0,6.128,6.128,6.128,6.128,40.700867983,121.023360487,0.0,-0.0073,6.128,0.0
40.700866668,121.023363333,0.0,-0.027052603405912107,0.024434609527920613,2.595653663565967,0.0,0.0,0.0,-0.0,0.0,0.0,-0.0,0.0,0.0,-0.0,0.0,-0.007,0.0,-0.0001,-0.007,0.0,-0.0001,0.0,0.0,0.0,6.2280000000000015,6.2280000000000015,6.2280000000000015,6.2280000000000015,40.70086817,121.023360082,0.0,-0.007,6.2280000000000015,0.0
40.700866668,121.023363333,0.0,-0.02775073510670984,0.024434609527920613,2.595653663565967,0.0,0.0,0.0,-0.0,0.0,0.0,-0.0,0.0,0.0,-0.0,0.0,-0.0065,0.0,0.0003,-0.0065,0.0,0.0003,0.0,0.0,0.0,6.328000000000003,6.328000000000003,6.328000000000003,6.328000000000003,40.700868357,121.023359678,0.0,-0.0065,6.328000000000003,0.0
40.700866668,121.023363333,0.0,-0.02844886680750757,0.024609142453120045,2.595828196491166,0.0,0.0,0.0,-0.0,0.0,0.0,-0.0,0.0,0.0,-0.0,0.0,-0.0059,0.0,0.0004,-0.0059,0.0,0.0004,0.0,0.0,0.0,6.427999999999997,6.427999999999997,6.427999999999997,6.427999999999997,40.700868544,121.023359273,0.0,-0.0059,6.427999999999997,0.0
40.700900001,121.02336,0.0,-0.028797932657906436,0.024783675378319478,2.6612780434409533,0.0,0.0,0.0,-0.0,0.0,0.0,-0.0,0.0,0.0,-0.0,0.0,-0.0056,0.0,0.0005,-0.0056,0.0,0.0005,0.0,0.0,0.0,6.528999999999996,6.528999999999996,6.528999999999996,6.528999999999996,40.700900171,121.023359572,0.0,-0.0056,6.528999999999996,0.0
40.700900001,121.02336,0.0,-0.029321531433504737,0.02495820830351891,2.6612780434409533,0.0,0.0,0.0,-0.0,0.0,0.0,-0.0,0.0,0.0,-0.0,0.0,-0.0049,0.0,0.0007,-0.0049,0.0,0.0007,0.0,0.0,0.0,6.628999999999998,6.628999999999998,6.628999999999998,6.628999999999998,40.700900337,121.023359154,0.0,-0.0049,6.628999999999998,0.0
40.700900001,121.02336,0.0,-0.029845130209103034,0.02530727415391778,2.661452576366153,0.0,0.0,0.0,-0.0,0.0,0.0,-0.0,0.0,0.0,-0.0,0.0,-0.0042,0.0,0.0008,-0.0042,0.0,0.0008,0.0,0.0,0.0,6.728999999999999,6.728999999999999,6.728999999999999,6.728999999999999,40.700900503,121.023358735,0.0,-0.0042,6.728999999999999,0.0
40.700900001,121.02336,0.0,-0.0301941960595019,0.025830872929516076,2.661452576366153,0.0,0.0,0.0,-0.0,0.0,0.0,-0.0,0.0,0.0,-0.0,0.0,-0.0028,0.0,0.0013,-0.0028,0.0,0.0013,0.0,0.0,0.0,6.829000000000001,6.829000000000001,6.829000000000001,6.829000000000001,40.70090067,121.023358315,0.0,-0.0028,6.829000000000001,0.0
40.700900001,121.02336,0.0,-0.030543261909900768,0.026179938779914945,2.6616271092913526,0.0,0.0,0.0,-0.0,0.0,0.0,-0.0,0.0,0.0,-0.0,0.0,-0.0017,0.0,0.0014,-0.0017,0.0,0.0014,0.0,0.0,0.0,6.930999999999997,6.930999999999997,6.930999999999997,6.930999999999997,40.700900838,121.023357888,0.0,-0.0017,6.930999999999997,0.0
40.700900001,121.02336,0.0,-0.030543261909900768,0.026703537555513242,2.6616271092913526,0.0,0.0,0.0,-0.0,0.0,0.0,-0.0,0.0,0.0,-0.0,0.0,-0.001,0.01,0.001,-0.001,0.01,0.001,0.0,0.0,0.0,7.030999999999999,7.030999999999999,7.030999999999999,7.030999999999999,40.700901006,121.023357466,0.0,-0.001,7.030999999999999,0.0
40.700900001,121.02336,0.0,-0.0307177948351002,0.027401669256310976,2.6616271092913526,0.0,0.0,0.0,-0.0,0.0,0.0,-0.0,0.0,0.0,-0.0,0.0,-0.0004,0.01,0.0005,-0.0004,0.01,0.0005,0.0,0.0,0.0,7.131,7.131,7.131,7.131,40.700901171,121.023357049,0.0,-0.0004,7.131,0.0
40.700900001,121.02336,0.0,-0.030543261909900768,0.027925268031909273,2.6616271092913526,0.0,0.0,0.0,-0.0,0.0,0.0,-0.0,0.0,0.0,-0.0,0.0,0.0007,0.01,0.0001,0.0007,0.01,0.0001,0.0,0.0,0.0,7.231000000000002,7.231000000000002,7.231000000000002,7.231000000000002,40.700901337,121.023356629,0.0,0.0007,7.231000000000002,0.0
40.700900001,121.02336,0.0,-0.030543261909900768,0.028623399732707003,2.6616271092913526,0.0,0.0,0.0,-0.0,0.0,0.0,-0.0,0.0,0.0,-0.0,0.0,0.0016,0.01,-0.0002,0.0016,0.01,-0.0002,0.0,0.0,0.0,7.332999999999998,7.332999999999998,7.332999999999998,7.332999999999998,40.700901507,121.023356201,0.0,0.0016,7.332999999999998,0.0
40.700900001,121.02336,0.0,-0.030368728984701335,0.02949606435870417,2.6616271092913526,0.0,0.0,0.0,-0.0,0.0,0.0,-0.0,0.0,0.0,-0.0,0.0,0.0026,0.01,-0.0005,0.0026,0.01,-0.0005,0.0,0.0,0.0,7.433,7.433,7.433,7.433,40.700901673,121.023355782,0.0,0.0026,7.433,0.0
40.700938335,121.023348333,0.0,-0.029845130209103034,0.029845130209103034,2.7021187479376207,0.0,0.0,0.0,-0.0,0.0,0.0,-0.0,0.0,0.0,-0.0,0.0,0.0032,0.01,-0.0009,0.0032,0.01,-0.0009,0.0,0.0,0.0,7.533000000000001,7.533000000000001,7.533000000000001,7.533000000000001,40.700938489,121.023347903,0.0,0.0032,7.533000000000001,0.0
40.700938335,121.023348333,0.0,-0.02949606435870417,0.0307177948351002,2.7021187479376207,0.0,0.0,0.0,-0.0,0.0,0.0,-0.0,0.0,0.0,-0.0,0.0,0.0041,0.01,-0.0014,0.0041,0.01,-0.0014,0.0,0.0,0.0,7.633000000000003,7.633000000000003,7.633000000000003,7.633000000000003,40.700938641,121.023347477,0.0,0.0041,7.633000000000003,0.0
40.700938335,121.023348333,0.0,-0.02897246558310587,0.031415926535897934,2.7017696820872223,0.0,0.0,0.0,-0.0,0.0,0.0,-0.0,0.0,0.0,-0.0,0.0,0.0046,0.01,-0.002,0.0046,0.01,-0.002,0.0,0.0,0.0,7.734000000000002,7.734000000000002,7.734000000000002,7.734000000000002,40.700938797,121.023347042,0.0,0.0046,7.734000000000002,0.0
40.700938335,121.023348333,0.0,-0.02844886680750757,0.032114058236695664,2.701595149162023,0.0,0.0,0.0,-0.0,0.0,0.0,-0.0,0.0,0.0,-0.0,0.0,0.0049,0.01,-0.0022,0.0049,0.01,-0.0022,0.0,0.0,0.0,7.834000000000003,7.834000000000003,7.834000000000003,7.834000000000003,40.70093895,121.023346613,0.0,0.0049,7.834000000000003,0.0
40.700938335,121.023348333,0.0,-0.027925268031909273,0.032812189937493394,2.7012460833116236,0.0,0.0,0.0,-0.0,0.0,0.0,-0.0,0.0,0.0,-0.0,0.0,0.0049,0.01,-0.0027,0.0049,0.01,-0.0027,0.0,0.0,0.0,7.9339999999999975,7.9339999999999975,7.9339999999999975,7.9339999999999975,40.700939105,121.023346183,0.0,0.0049,7.9339999999999975,0.0
40.700938335,121.023348333,0.0,-0.02757620218151041,0.033335788713091695,2.701071550386424,0.0,0.0,0.0,-0.0,0.0,0.0,-0.0,0.0,0.0,-0.0,0.0,0.0053,0.01,-0.0029,0.0053,0.01,-0.0029,0.0,0.0,0.0,8.033999999999999,8.033999999999999,8.033999999999999,8.033999999999999,40.700939258,121.023345757,0.0,0.0053,8.033999999999999,0.0
40.700938335,121.023348333,0.0,-0.026878070480712675,0.03385938748868999,2.700722484536026,0.0,0.0,0.0,-0.0,0.0,0.0,-0.0,0.0,0.0,-0.0,0.0,0.0055,0.0,-0.0029,0.0055,0.0,-0.0029,0.0,0.0,0.0,8.136000000000003,8.136000000000003,8.136000000000003,8.136000000000003,40.700939414,121.023345323,0.0,0.0055,8.136000000000003,0.0
40.700938335,121.023348333,0.0,-0.02652900463031381,0.03420845333908886,2.7003734186856265,0.0,0.0,0.0,-0.0,0.0,0.0,-0.0,0.0,0.0,-0.0,0.0,0.005,0.0,-0.003,0.005,0.0,-0.003,0.0,0.0,0.0,8.235999999999997,8.235999999999997,8.235999999999997,8.235999999999997,40.700939567,121.023344895,0.0,0.005,8.235999999999997,0.0
40.700938335,121.023348333,0.0,-0.02600540585471551,0.034557519189487726,2.7000243528352277,0.0,0.0,0.0,-0.0,0.0,0.0,-0.0,0.0,0.0,-0.0,0.0,0.0048,0.0,-0.0033,0.0048,0.0,-0.0033,0.0,0.0,0.0,8.335999999999999,8.335999999999999,8.335999999999999,8.335999999999999,40.700939721,121.023344467,0.0,0.0048,8.335999999999999,0.0
40.700938335,121.023348333,0.0,-0.025656340004316644,0.034732052114687155,2.6996752869848293,0.0,0.0,0.0,-0.0,0.0,0.0,-0.0,0.0,0.0,-0.0,0.0,0.0043,0.0,-0.0031,0.0043,0.0,-0.0031,0.0,0.0,0.0,8.436,8.436,8.436,8.436,40.700939875,121.023344039,0.0,0.0043,8.436,0.0
40.700971668,121.023333333,0.0,-0.024783675378319478,0.03508111796508602,2.9441959151892343,0.0,0.0,0.0,-0.0,0.0,0.0,-0.0,0.0,0.0,-0.0,0.0,0.0043,0.0,-0.0032,0.0043,0.0,-0.0032,0.0,0.0,0.0,8.536999999999999,8.536999999999999,8.536999999999999,8.536999999999999,40.70097174,121.02333286,0.0,0.0043,8.536999999999999,0.0
40.700971668,121.023333333,0.0,-0.024434609527920613,0.03508111796508602,2.9440213822640353,0.0,0.0,0.0,-0.0,0.0,0.0,-0.0,0.0,0.0,-0.0,0.0,0.0034,0.0,-0.0033,0.0034,0.0,-0.0033,0.0,0.0,0.0,8.637,8.637,8.637,8.637,40.700971811,121.023332398,0.0,0.0034,8.637,0.0
40.700971668,121.023333333,0.0,-0.024085543677521744,0.03508111796508602,2.943672316413636,0.0,0.0,0.0,-0.0,0.0,0.0,-0.0,0.0,0.0,-0.0,0.0,0.0029,-0.0,-0.0027,0.0029,-0.0,-0.0027,0.0,0.0,0.0,8.737000000000002,8.737000000000002,8.737000000000002,8.737000000000002,40.700971881,121.023331934,0.0,0.0029,8.737000000000002,0.0
40.700971668,121.023333333,0.0,-0.023911010752322315,0.03508111796508602,2.943323250563237,0.0,0.0,0.0,-0.0,0.0,0.0,-0.0,0.0,0.0,-0.0,0.0,0.0022,-0.0,-0.0019,0.0022,-0.0,-0.0019,0.0,0.0,0.0,8.837000000000003,8.837000000000003,8.837000000000003,8.837000000000003,40.700971952,121.02333147,0.0,0.0022,8.837000000000003,0.0
40.700971668,121.023333333,0.0,-0.02356194490192345,0.034732052114687155,2.9431487176380378,0.0,0.0,0.0,-0.0,0.0,0.0,-0.0,0.0,0.0,-0.0,0.0,0.0013,-0.0,-0.0005,0.0013,-0.0,-0.0005,0.0,0.0,0.0,8.939,8.939,8.939,8.939,40.700972025,121.023330996,0.0,0.0013,8.939,0.0
40.700971668,121.023333333,0.0,-0.023387411976724018,0.034557519189487726,2.9431487176380378,0.0,0.0,0.0,-0.0,0.0,0.0,-0.0,0.0,0.0,-0.0,0.0,0.0011,-0.0,-0.0003,0.0011,-0.0,-0.0003,0.0,0.0,0.0,9.039000000000001,9.039000000000001,9.039000000000001,9.039000000000001,40.700972096,121.023330534,0.0,0.0011,9.039000000000001,0.0
40.700971668,121.023333333,0.0,-0.023212879051524585,0.03420845333908886,2.9431487176380378,0.0,0.0,0.0,-0.0,0.0,0.0,-0.0,0.0,0.0,-0.0,0.0,0.0008,-0.0,0.0005,0.0008,-0.0,0.0005,0.0,0.0,0.0,9.139000000000003,9.139000000000003,9.139000000000003,9.139000000000003,40.700972167,121.02333007,0.0,0.0008,9.139000000000003,0.0
40.700971668,121.023333333,0.0,-0.02303834612632515,0.03368485456349056,2.9431487176380378,0.0,0.0,0.0,-0.0,0.0,0.0,-0.0,0.0,0.0,-0.0,0.0,0.0018,-0.01,0.0002,0.0018,-0.01,0.0002,0.0,0.0,0.0,9.238999999999997,9.238999999999997,9.238999999999997,9.238999999999997,40.700972238,121.023329606,0.0,0.0018,9.238999999999997,0.0
40.700971668,121.023333333,0.0,-0.02303834612632515,0.033335788713091695,2.9431487176380378,0.0,0.0,0.0,-0.0,0.0,0.0,-0.0,0.0,0.0,-0.0,0.0,0.0018,-0.01,0.0009,0.0018,-0.01,0.0009,0.0,0.0,0.0,9.339999999999996,9.339999999999996,9.339999999999996,9.339999999999996,40.70097231,121.023329135,0.0,0.0018,9.339999999999996,0.0
40.700971668,121.023333333,0.0,-0.022863813201125717,0.032637657012293965,2.943323250563237,0.0,0.0,0.0,-0.0,0.0,0.0,-0.0,0.0,0.0,-0.0,0.0,0.0015,-0.01,0.0016,0.0015,-0.01,0.0016,0.0,0.0,0.0,9.439999999999998,9.439999999999998,9.439999999999998,9.439999999999998,40.700972381,121.023328671,0.0,0.0015,9.439999999999998,0.0
40.701001668,121.02332,0.0,-0.022514747350726852,0.03246312408709453,3.104068074671915,0.0,0.0,0.0,-0.0,0.0,0.0,-0.0,0.0,0.0,-0.0,0.0,0.0016,-0.01,0.0021,0.0016,-0.01,0.0021,0.0,0.0,0.0,9.54,9.54,9.54,9.54,40.701001682,121.023319524,0.0,0.0016,9.54,0.0
40.701001668,121.02332,0.0,-0.022165681500327987,0.031939525311496235,3.104417140522314,0.0,0.0,0.0,-0.0,0.0,0.0,-0.0,0.0,0.0,-0.0,0.0,0.0021,-0.01,0.0028,0.0021,-0.01,0.0028,0.0,0.0,0.0,9.64,9.64,9.64,9.64,40.701001695,121.023319054,0.0,0.0021,9.64,0.0
40.701001668,121.02332,0.0,-0.02199114857512855,0.031415926535897934,3.1045916734475134,0.0,0.0,0.0,-0.0,0.0,0.0,-0.0,0.0,0.0,-0.0,0.0,0.0025,-0.01,0.0032,0.0025,-0.01,0.0032,0.0,0.0,0.0,9.741999999999997,9.741999999999997,9.741999999999997,9.741999999999997,40.701001709,121.023318574,0.0,0.0025,9.741999999999997,0.0
40.701001668,121.02332,0.0,-0.021642082724729686,0.0307177948351002,3.1049407392979123,0.0,0.0,0.0,-0.0,0.0,0.0,-0.0,0.0,0.0,-0.0,0.0,0.0032,-0.01,0.0039,0.0032,-0.01,0.0039,0.0,0.0,0.0,9.841999999999999,9.841999999999999,9.841999999999999,9.841999999999999,40.701001722,121.023318101,0.0,0.0032,9.841999999999999,0.0
40.701001668,121.02332,0.0,-0.02111848394913139,0.030019663134302467,3.1054643380735105,0.0,0.0,0.0,-0.0,0.0,0.0,-0.0,0.0,0.0,-0.0,0.0,0.0035,-0.01,0.0042,0.0035,-0.01,0.0042,0.0,0.0,0.0,9.942,9.942,9.942,9.942,40.701001735,121.023317626,0.0,0.0035,9.942,0.0
40.701001668,121.02332,0.0,-0.02076941809873252,0.029670597283903602,3.1058134039239094,0.0,0.0,0.0,-0.0,0.0,0.0,-0.0,0.0,0.0,-0.0,0.0,0.0043,-0.01,0.0041,0.0043,-0.01,0.0041,0.0,0.0,0.0,10.042000000000002,10.042000000000002,10.042000000000002,10.042000000000002,40.701001748,121.023317155,0.0,0.0043,10.042000000000002,0.0
40.701001668,121.02332,0.0,-0.020245819323134222,0.02897246558310587,3.106337002699508,0.0,0.0,0.0,-0.0,0.0,0.0,-0.0,0.0,0.0,-0.0,0.0,0.0048,-0.01,0.004,0.0048,-0.01,0.004,0.0,0.0,0.0,10.143,10.143,10.143,10.143,40.701001761,121.023316675,0.0,0.0048,10.143,0.0
40.701001668,121.02332,0.0,-0.019896753472735354,0.028623399732707003,3.1066860685499065,0.0,0.0,0.0,-0.0,0.0,0.0,-0.0,0.0,0.0,-0.0,0.0,0.0051,-0.01,0.0038,0.0051,-0.01,0.0038,0.0,0.0,0.0,10.243000000000002,10.243000000000002,10.243000000000002,10.243000000000002,40.701001773,121.023316202,0.0,0.0051,10.243000000000002,0.0
40.701001668,121.02332,0.0,-0.019198621771937627,0.028099800957108706,3.1070351344003053,0.0,0.0,0.0,-0.0,0.0,0.0,-0.0,0.0,0.0,-0.0,0.0,0.0051,-0.0,0.0037,0.0051,-0.0,0.0037,0.0,0.0,0.0,10.342999999999996,10.342999999999996,10.342999999999996,10.342999999999996,40.701001786,121.023315729,0.0,0.0051,10.342999999999996,0.0
40.701001668,121.02332,0.0,-0.018675022996339326,0.02757620218151041,3.1073842002507046,0.0,0.0,0.0,-0.0,0.0,0.0,-0.0,0.0,0.0,-0.0,0.0,0.0063,-0.0,0.0033,0.0063,-0.0,0.0033,0.0,0.0,0.0,10.442999999999998,10.442999999999998,10.442999999999998,10.442999999999998,40.701001798,121.023315255,0.0,0.0063,10.442999999999998,0.0
40.701038335,121.023318333,0.0,-0.017976891295541596,0.027401669256310976,3.072477615210818,0.0,0.0,0.0,-0.0,0.0,0.0,-0.0,0.0,0.0,-0.0,0.0,0.0064,-0.0,0.004,0.0064,-0.0,0.004,0.0,0.0,0.0,10.546,10.546,10.546,10.546,40.70103836,121.023317848,0.0,0.0064,10.546,0.0
40.701038335,121.023318333,0.0,-0.017278759594743863,0.027052603405912107,3.072826681061217,0.0,0.0,0.0,-0.0,0.0,0.0,-0.0,0.0,0.0,-0.0,0.0,0.0067,-0.0,0.0035,0.0067,-0.0,0.0035,0.0,0.0,0.0,10.646,10.646,10.646,10.646,40.701038385,121.023317379,0.0,0.0067,10.646,0.0
40.701038335,121.023318333,0.0,-0.016755160819145562,0.026703537555513242,3.073001213986416,0.0,0.0,0.0,-0.0,0.0,0.0,-0.0,0.0,0.0,-0.0,0.0,0.006,-0.0,0.0021,0.006,-0.0,0.0021,0.0,0.0,0.0,10.746000000000002,10.746000000000002,10.746000000000002,10.746000000000002,40.70103841,121.023316907,0.0,0.006,10.746000000000002,0.0
40.701038335,121.023318333,0.0,-0.016057029118347832,0.02652900463031381,3.073175746911615,0.0,0.0,0.0,-0.0,0.0,0.0,-0.0,0.0,0.0,-0.0,0.0,0.0052,-0.0,0.0017,0.0052,-0.0,0.0017,0.0,0.0,0.0,10.845999999999997,10.845999999999997,10.845999999999997,10.845999999999997,40.701038434,121.023316435,0.0,0.0052,10.845999999999997,0.0
40.701038335,121.023318333,0.0,-0.015707963267948967,0.02652900463031381,3.073350279836815,0.0,0.0,0.0,-0.0,0.0,0.0,-0.0,0.0,0.0,-0.0,0.0,0.0054,-0.0,0.0013,0.0054,-0.0,0.0013,0.0,0.0,0.0,10.947000000000003,10.947000000000003,10.947000000000003,10.947000000000003,40.701038459,121.023315953,0.0,0.0054,10.947000000000003,0.0
40.701038335,121.023318333,0.0,-0.015009831567151233,0.026354471705114377,3.073524812762014,0.0,0.0,0.0,-0.0,0.0,0.0,-0.0,0.0,0.0,-0.0,0.0,0.0052,-0.0,0.0008,0.0052,-0.0,0.0008,0.0,0.0,0.0,11.046999999999997,11.046999999999997,11.046999999999997,11.046999999999997,40.701038484,121.023315483,0.0,0.0052,11.046999999999997,0.0
40.701038335,121.023318333,0.0,-0.014486232791552934,0.026354471705114377,3.073524812762014,0.0,0.0,0.0,-0.0,0.0,0.0,-0.0,0.0,0.0,-0.0,0.0,0.0041,-0.0,0.0009,0.0041,-0.0,0.0009,0.0,0.0,0.0,11.146999999999998,11.146999999999998,11.146999999999998,11.146999999999998,40.701038508,121.023315011,0.0,0.0041,11.146999999999998,0.0
40.701038335,121.023318333,0.0,-0.014137166941154071,0.026354471705114377,3.073699345687214,0.0,0.0,0.0,-0.0,0.0,0.0,-0.0,0.0,0.0,-0.0,0.0,0.0033,0.0,0.0004,0.0033,0.0,0.0004,0.0,0.0,0.0,11.247,11.247,11.247,11.247,40.701038533,121.023314538,0.0,0.0033,11.247,0.0
40.701038335,121.023318333,0.0,-0.013962634015954637,0.02652900463031381,3.073699345687214,0.0,0.0,0.0,-0.0,0.0,0.0,-0.0,0.0,0.0,-0.0,0.0,0.0028,0.0,-0.0002,0.0028,0.0,-0.0002,0.0,0.0,0.0,11.348999999999997,11.348999999999997,11.348999999999997,11.348999999999997,40.701038557,121.023314059,0.0,0.0028,11.348999999999997,0.0
40.701038335,121.023318333,0.0,-0.013613568165555772,0.02652900463031381,3.073699345687214,0.0,0.0,0.0,-0.0,0.0,0.0,-0.0,0.0,0.0,-0.0,0.0,0.0031,0.0,-0.0005,0.0031,0.0,-0.0005,0.0,0.0,0.0,11.448999999999998,11.448999999999998,11.448999999999998,11.448999999999998,40.701038582,121.023313587,0.0,0.0031,11.448999999999998,0.0
40.701070001,121.023311667,0.0,-0.013439035240356337,0.026354471705114377,2.9984756549262586,0.0,0.0,0.0,-0.0,0.0,0.0,-0.0,0.0,0.0,-0.0,0.0,0.0023,0.0,-0.0003,0.0023,0.0,-0.0003,0.0,0.0,0.0,11.549,11.549,11.549,11.549,40.701070053,121.023311195,0.0,0.0023,11.549,0.0
40.701070001,121.023311667,0.0,-0.013439035240356337,0.02652900463031381,2.998301122001059,0.0,0.0,0.0,-0.0,0.0,0.0,-0.0,0.0,0.0,-0.0,0.0,0.0015,0.0,-0.0004,0.0015,0.0,-0.0004,0.0,0.0,0.0,11.649000000000001,11.649000000000001,11.649000000000001,11.649000000000001,40.701070104,121.02331073,0.0,0.0015,11.649000000000001,0.0
40.701070001,121.023311667,0.0,-0.013264502315156905,0.026703537555513242,2.998301122001059,0.0,0.0,0.0,-0.0,0.0,0.0,-0.0,0.0,0.0,-0.0,0.0,0.0002,0.0,-0.0006,0.0002,0.0,-0.0006,0.0,0.0,0.0,11.75,11.75,11.75,11.75,40.701070156,121.023310254,0.0,0.0002,11.75,0.0
40.701070001,121.023311667,0.0,-0.013264502315156905,0.026878070480712675,2.9981265890758593,0.0,0.0,0.0,-0.0,0.0,0.0,-0.0,0.0,0.0,-0.0,0.0,0.0,0.0,-0.001,0.0,0.0,-0.001,0.0,0.0,0.0,11.850000000000001,11.850000000000001,11.850000000000001,11.850000000000001,40.701070208,121.023309786,0.0,0.0,11.850000000000001,0.0
40.701070001,121.023311667,0.0,-0.013264502315156905,0.026878070480712675,2.9981265890758593,0.0,0.0,0.0,-0.0,0.0,0.0,-0.0,0.0,0.0,-0.0,0.0,-0.0005,0.0,-0.0011,-0.0005,0.0,-0.0011,0.0,0.0,0.0,11.950000000000003,11.950000000000003,11.950000000000003,11.950000000000003,40.70107026,121.023309315,0.0,-0.0005,11.950000000000003,0.0
40.701070001,121.023311667,0.0,-0.013439035240356337,0.027052603405912107,2.9981265890758593,0.0,0.0,0.0,-0.0,0.0,0.0,-0.0,0.0,0.0,-0.0,0.0,-0.0011,0.0,-0.0003,-0.0011,0.0,-0.0003,0.0,0.0,0.0,12.049999999999997,12.049999999999997,12.049999999999997,12.049999999999997,40.701070311,121.023308849,0.0,-0.0011,12.049999999999997,0.0
40.701070001,121.023311667,0.0,-0.013613568165555772,0.027227136331111543,2.9981265890758593,0.0,0.0,0.0,-0.0,0.0,0.0,-0.0,0.0,0.0,-0.0,0.0,-0.0011,0.0,0.0002,-0.0011,0.0,0.0002,0.0,0.0,0.0,12.152000000000001,12.152000000000001,12.152000000000001,12.152000000000001,40.701070363,121.023308373,0.0,-0.0011,12.152000000000001,0.0
40.701070001,121.023311667,0.0,-0.013788101090755204,0.027401669256310976,2.9981265890758593,0.0,0.0,0.0,-0.0,0.0,0.0,-0.0,0.0,0.0,-0.0,0.0,-0.0012,0.0,0.0014,-0.0012,0.0,0.0014,0.0,0.0,0.0,12.252000000000002,12.252000000000002,12.252000000000002,12.252000000000002,40.701070415,121.023307905,0.0,-0.0012,12.252000000000002,0.0
40.701070001,121.023311667,0.0,-0.013962634015954637,0.027401669256310976,2.998301122001059,0.0,0.0,0.0,-0.0,0.0,0.0,-0.0,0.0,0.0,-0.0,0.0,-0.0023,-0.0,0.002,-0.0023,-0.0,0.002,0.0,0.0,0.0,12.351999999999997,12.351999999999997,12.351999999999997,12.351999999999997,40.701070466,121.023307436,0.0,-0.0023,12.351999999999997,0.0
40.701070001,121.023311667,0.0,-0.014137166941154071,0.027401669256310976,2.9986501878514575,0.0,0.0,0.0,-0.0,0.0,0.0,-0.0,0.0,0.0,-0.0,0.0,-0.0033,-0.0,0.0024,-0.0033,-0.0,0.0024,0.0,0.0,0.0,12.451999999999998,12.451999999999998,12.451999999999998,12.451999999999998,40.701070517,121.023306968,0.0,-0.0033,12.451999999999998,0.0
40.701090001,121.0233,0.0,-0.014660765716752368,0.027401669256310976,2.9258699580432936,0.0,0.0,0.0,-0.0,0.0,0.0,-0.0,0.0,0.0,-0.0,0.0,-0.0031,-0.0,0.0035,-0.0031,-0.0,0.0035,0.0,0.0,0.0,12.552999999999997,12.552999999999997,12.552999999999997,12.552999999999997,40.70109008,121.023299528,0.0,-0.0031,12.552999999999997,0.0
40.701090001,121.0233,0.0,-0.015009831567151233,0.027401669256310976,2.926393556818893,0.0,0.0,0.0,-0.0,0.0,0.0,-0.0,0.0,0.0,-0.0,0.0,-0.003,-0.0,0.0047,-0.003,-0.0,0.0047,0.0,0.0,0.0,12.652999999999999,12.652999999999999,12.652999999999999,12.652999999999999,40.701090157,121.023299068,0.0,-0.003,12.652999999999999,0.0
40.701090001,121.0233,0.0,-0.0153588974175501,0.027227136331111543,2.9269171555944906,0.0,0.0,0.0,-0.0,0.0,0.0,-0.0,0.0,0.0,-0.0,0.0,-0.0035,-0.0,0.0055,-0.0035,-0.0,0.0055,0.0,0.0,0.0,12.753,12.753,12.753,12.753,40.701090233,121.023298606,0.0,-0.0035,12.753,0.0
40.701090001,121.0233,0.0,-0.015707963267948967,0.027052603405912107,2.9274407543700893,0.0,0.0,0.0,-0.0,0.0,0.0,-0.0,0.0,0.0,-0.0,0.0,-0.0039,-0.0,0.0059,-0.0039,-0.0,0.0059,0.0,0.0,0.0,12.853000000000002,12.853000000000002,12.853000000000002,12.853000000000002,40.70109031,121.023298144,0.0,-0.0039,12.853000000000002,0.0
40.701090001,121.0233,0.0,-0.016057029118347832,0.026878070480712675,2.9281388860708866,0.0,0.0,0.0,-0.0,0.0,0.0,-0.0,0.0,0.0,-0.0,0.0,-0.0044,-0.0,0.006,-0.0044,-0.0,0.006,0.0,0.0,0.0,12.954999999999998,12.954999999999998,12.954999999999998,12.954999999999998,40.701090388,121.023297671,0.0,-0.0044,12.954999999999998,0.0
40.701090001,121.0233,0.0,-0.016406094968746697,0.026703537555513242,2.9288370177716843,0.0,0.0,0.0,-0.0,0.0,0.0,-0.0,0.0,0.0,-0.0,0.0,-0.0044,-0.0,0.0065,-0.0044,-0.0,0.0065,0.0,0.0,0.0,13.055,13.055,13.055,13.055,40.701090464,121.023297211,0.0,-0.0044,13.055,0.0
40.701090001,121.0233,0.0,-0.016755160819145562,0.02652900463031381,2.929535149472482,0.0,0.0,0.0,-0.0,0.0,0.0,-0.0,0.0,0.0,-0.0,0.0,-0.0029,-0.0,0.0076,-0.0029,-0.0,0.0076,0.0,0.0,0.0,13.155000000000001,13.155000000000001,13.155000000000001,13.155000000000001,40.701090539,121.023296748,0.0,-0.0029,13.155000000000001,0.0
40.701090001,121.0233,0.0,-0.016929693744344994,0.026354471705114377,2.9302332811732796,0.0,0.0,0.0,-0.0,0.0,0.0,-0.0,0.0,0.0,-0.0,0.0,-0.0021,-0.0,0.0089,-0.0021,-0.0,0.0089,0.0,0.0,0.0,13.255000000000003,13.255000000000003,13.255000000000003,13.255000000000003,40.701090615,121.023296285,0.0,-0.0021,13.255000000000003,0.0
40.701090001,121.0233,0.0,-0.017278759594743863,0.02600540585471551,2.931105945799277,0.0,0.0,0.0,-0.0,0.0,0.0,-0.0,0.0,0.0,-0.0,0.0,-0.002,-0.0,0.0093,-0.002,-0.0,0.0093,0.0,0.0,0.0,13.356000000000002,13.356000000000002,13.356000000000002,13.356000000000002,40.701090691,121.023295816,0.0,-0.002,13.356000000000002,0.0
40.701090001,121.0233,0.0,-0.01780235837034216,0.026354471705114377,2.8724628829322674,0.0,0.0,0.0,-0.0,0.0,0.0,-0.0,0.0,0.0,-0.0,0.0,-0.0027,-0.0,0.0089,-0.0027,-0.0,0.0089,0.0,0.0,0.0,13.456000000000003,13.456000000000003,13.456000000000003,13.456000000000003,40.701090787,121.023295359,0.0,-0.0027,13.456000000000003,0.0
40.701111668,121.023296667,0.0,-0.017976891295541596,0.02600540585471551,2.8733355475582645,0.0,0.0,0.0,-0.0,0.0,0.0,-0.0,0.0,0.0,-0.0,0.0,-0.0027,-0.0,0.0089,-0.0027,-0.0,0.0089,0.0,0.0,0.0,13.555999999999997,13.555999999999997,13.555999999999997,13.555999999999997,40.701111764,121.023296207,0.0,-0.0027,13.555999999999997,0.0
40.701111668,121.023296667,0.0,-0.017976891295541596,0.025656340004316644,2.8743827451094615,0.0,0.0,0.0,-0.0,0.0,0.0,-0.0,0.0,0.0,-0.0,0.0,-0.0021,-0.0,0.0092,-0.0021,-0.0,0.0092,0.0,0.0,0.0,13.655999999999999,13.655999999999999,13.655999999999999,13.655999999999999,40.701111859,121.023295754,0.0,-0.0021,13.655999999999999,0.0
40.701111668,121.023296667,0.0,-0.01815142422074103,0.02530727415391778,2.8752554097354586,0.0,0.0,0.0,-0.0,0.0,0.0,-0.0,0.0,0.0,-0.0,0.0,-0.0011,-0.0,0.0095,-0.0011,-0.0,0.0095,0.0,0.0,0.0,13.758000000000003,13.758000000000003,13.758000000000003,13.758000000000003,40.701111955,121.02329529,0.0,-0.0011,13.758000000000003,0.0
40.701111668,121.023296667,0.0,-0.01815142422074103,0.02495820830351891,2.876302607286655,0.0,0.0,0.0,-0.0,0.0,0.0,-0.0,0.0,0.0,-0.0,0.0,0.0001,-0.0,0.0097,0.0001,-0.0,0.0097,0.0,0.0,0.0,13.857999999999997,13.857999999999997,13.857999999999997,13.857999999999997,40.701112049,121.023294833,0.0,0.0001,13.857999999999997,0.0
40.701111668,121.023296667,0.0,-0.01815142422074103,0.024783675378319478,2.877175271912652,0.0,0.0,0.0,-0.0,0.0,0.0,-0.0,0.0,0.0,-0.0,0.0,0.0006,-0.0,0.01,0.0006,-0.0,0.01,0.0,0.0,0.0,13.957999999999998,13.957999999999998,13.957999999999998,13.957999999999998,40.701112144,121.023294374,0.0,0.0006,13.957999999999998,0.0
40.701111668,121.023296667,0.0,-0.01815142422074103,0.024434609527920613,2.8782224694638487,0.0,0.0,0.0,-0.0,0.0,0.0,-0.0,0.0,0.0,-0.0,0.0,0.0004,-0.0,0.01,0.0004,-0.0,0.01,0.0,0.0,0.0,14.058,14.058,14.058,14.058,40.701112237,121.023293919,0.0,0.0004,14.058,0.0
40.701111668,121.023296667,0.0,-0.01815142422074103,0.02426007660272118,2.8792696670150453,0.0,0.0,0.0,-0.0,0.0,0.0,-0.0,0.0,0.0,-0.0,0.0,0.0002,-0.0,0.0097,0.0002,-0.0,0.0097,0.0,0.0,0.0,14.159999999999997,14.159999999999997,14.159999999999997,14.159999999999997,40.701112332,121.023293455,0.0,0.0002,14.159999999999997,0.0
40.701111668,121.023296667,0.0,-0.01815142422074103,0.024085543677521744,2.8801423316410424,0.0,0.0,0.0,-0.0,0.0,0.0,-0.0,0.0,0.0,-0.0,0.0,-0.0003,-0.0,0.009,-0.0003,-0.0,0.009,0.0,0.0,0.0,14.259999999999998,14.259999999999998,14.259999999999998,14.259999999999998,40.701112425,121.023292998,0.0,-0.0003,14.259999999999998,0.0
40.701111668,121.023296667,0.0,-0.01815142422074103,0.024085543677521744,2.8810149962670395,0.0,0.0,0.0,-0.0,0.0,0.0,-0.0,0.0,0.0,-0.0,0.0,0.0003,-0.0,0.0086,0.0003,-0.0,0.0086,0.0,0.0,0.0,14.36,14.36,14.36,14.36,40.701112518,121.023292541,0.0,0.0003,14.36,0.0
40.701111668,121.023296667,0.0,-0.01832595714594046,0.023911010752322315,2.743133985359488,0.0,0.0,0.0,-0.0,0.0,0.0,-0.0,0.0,0.0,-0.0,0.0,0.0021,0.0,0.0082,0.0021,0.0,0.0082,0.0,0.0,0.0,14.46,14.46,14.46,14.46,40.701112658,121.023292104,0.0,0.0021,14.46,0.0
40.700956668,121.023135,0.0,-0.01815142422074103,0.023911010752322315,2.7440066499854847,0.0,0.0,0.0,-0.0,0.0,0.0,-0.0,0.0,0.0,-0.0,0.0,0.0018,0.0,0.0077,0.0018,0.0,0.0077,0.0,0.0,0.0,14.561,14.561,14.561,14.561,40.70095681,121.023134555,0.0,0.0018,14.561,0.0
40.700956668,121.023135,0.0,-0.01815142422074103,0.02426007660272118,2.7447047816862824,0.0,0.0,0.0,-0.0,0.0,0.0,-0.0,0.0,0.0,-0.0,0.0,0.001,0.0,0.0072,0.001,0.0,0.0072,0.0,0.0,0.0,14.661000000000001,14.661000000000001,14.661000000000001,14.661000000000001,40.700956949,121.02313412,0.0,0.001,14.661000000000001,0.0
40.700956668,121.023135,0.0,-0.017976891295541596,0.024609142453120045,2.7454029133870805,0.0,0.0,0.0,-0.0,0.0,0.0,-0.0,0.0,0.0,-0.0,0.0,0.0,0.0,0.0066,0.0,0.0,0.0066,0.0,0.0,0.0,14.761000000000003,14.761000000000003,14.761000000000003,14.761000000000003,40.700957088,121.023133684,0.0,0.0,14.761000000000003,0.0
40.700956668,121.023135,0.0,-0.017976891295541596,0.024783675378319478,2.7461010450878782,0.0,0.0,0.0,-0.0,0.0,0.0,-0.0,0.0,0.0,-0.0,0.0,0.0003,0.0,0.0063,0.0003,0.0,0.0063,0.0,0.0,0.0,14.860999999999997,14.860999999999997,14.860999999999997,14.860999999999997,40.700957227,121.023133247,0.0,0.0003,14.860999999999997,0.0
40.700956668,121.023135,0.0,-0.01780235837034216,0.02530727415391778,2.7466246438634765,0.0,0.0,0.0,-0.0,0.0,0.0,-0.0,0.0,0.0,-0.0,0.0,0.0008,0.0,0.0058,0.0008,0.0,0.0058,0.0,0.0,0.0,14.963000000000001,14.963000000000001,14.963000000000001,14.963000000000001,40.700957368,121.023132802,0.0,0.0008,14.963000000000001,0.0
40.700956668,121.023135,0.0,-0.01780235837034216,0.025830872929516076,2.7471482426390748,0.0,0.0,0.0,-0.0,0.0,0.0,-0.0,0.0,0.0,-0.0,0.0,0.0014,0.01,0.0057,0.0014,0.01,0.0057,0.0,0.0,0.0,15.063000000000002,15.063000000000002,15.063000000000002,15.063000000000002,40.700957506,121.023132367,0.0,0.0014,15.063000000000002,0.0
40.700956668,121.023135,0.0,-0.01780235837034216,0.026354471705114377,2.747671841414673,0.0,0.0,0.0,-0.0,0.0,0.0,-0.0,0.0,0.0,-0.0,0.0,0.0008,0.01,0.0055,0.0008,0.01,0.0055,0.0,0.0,0.0,15.162999999999997,15.162999999999997,15.162999999999997,15.162999999999997,40.700957644,121.02313193,0.0,0.0008,15.162999999999997,0.0
40.700956668,121.023135,0.0,-0.01780235837034216,0.026878070480712675,2.748195440190271,0.0,0.0,0.0,-0.0,0.0,0.0,-0.0,0.0,0.0,-0.0,0.0,-0.0001,0.01,0.005,-0.0001,0.01,0.005,0.0,0.0,0.0,15.262999999999998,15.262999999999998,15.262999999999998,15.262999999999998,40.700957782,121.023131492,0.0,-0.0001,15.262999999999998,0.0
40.700956668,121.023135,0.0,-0.01780235837034216,0.02757620218151041,2.7487190389658696,0.0,0.0,0.0,-0.0,0.0,0.0,-0.0,0.0,0.0,-0.0,0.0,-0.0013,0.01,0.0046,-0.0013,0.01,0.0046,0.0,0.0,0.0,15.363999999999997,15.363999999999997,15.363999999999997,15.363999999999997,40.700957922,121.023131048,0.0,-0.0013,15.363999999999997,0.0
40.700956668,121.023135,0.0,-0.01815142422074103,0.02775073510670984,2.564761335805667,0.0,0.0,0.0,-0.0,0.0,0.0,-0.0,0.0,0.0,-0.0,0.0,-0.002,0.01,0.0045,-0.002,0.01,0.0045,0.0,0.0,0.0,15.463999999999999,15.463999999999999,15.463999999999999,15.463999999999999,40.700958119,121.023130652,0.0,-0.002,15.463999999999999,0.0
40.701048335,121.023191667,0.0,-0.01832595714594046,0.02844886680750757,2.5652849345812654,0.0,0.0,0.0,-0.0,0.0,0.0,-0.0,0.0,0.0,-0.0,0.0,-0.0031,0.01,0.0045,-0.0031,0.01,0.0045,0.0,0.0,0.0,15.564,15.564,15.564,15.564,40.701048532,121.023191267,0.0,-0.0031,15.564,0.0
40.701048335,121.023191667,0.0,-0.018675022996339326,0.02897246558310587,2.5658085333568637,0.0,0.0,0.0,-0.0,0.0,0.0,-0.0,0.0,0.0,-0.0,0.0,-0.0035,0.01,0.0047,-0.0035,0.01,0.0047,0.0,0.0,0.0,15.664000000000001,15.664000000000001,15.664000000000001,15.664000000000001,40.701048727,121.023190873,0.0,-0.0035,15.664000000000001,0.0
40.701048335,121.023191667,0.0,-0.019024088846738195,0.029670597283903602,2.566157599207263,0.0,0.0,0.0,-0.0,0.0,0.0,-0.0,0.0,0.0,-0.0,0.0,-0.0042,0.01,0.0048,-0.0042,0.01,0.0048,0.0,0.0,0.0,15.765999999999998,15.765999999999998,15.765999999999998,15.765999999999998,40.701048926,121.023190469,0.0,-0.0042,15.765999999999998,0.0
40.701048335,121.023191667,0.0,-0.01972222054753592,0.0301941960595019,2.566681197982861,0.0,0.0,0.0,-0.0,0.0,0.0,-0.0,0.0,0.0,-0.0,0.0,-0.0052,0.01,0.0046,-0.0052,0.01,0.0046,0.0,0.0,0.0,15.866,15.866,15.866,15.866,40.701049122,121.023190072,0.0,-0.0052,15.866,0.0
40.701048335,121.023191667,0.0,-0.020245819323134222,0.0307177948351002,2.5672047967584595,0.0,0.0,0.0,-0.0,0.0,0.0,-0.0,0.0,0.0,-0.0,0.0,-0.0072,0.01,0.0044,-0.0072,0.01,0.0044,0.0,0.0,0.0,15.966000000000001,15.966000000000001,15.966000000000001,15.966000000000001,40.701049319,121.023189673,0.0,-0.0072,15.966000000000001,0.0
40.701048335,121.023191667,0.0,-0.020943951023931952,0.031415926535897934,2.5675538626088583,0.0,0.0,0.0,-0.0,0.0,0.0,-0.0,0.0,0.0,-0.0,0.0,-0.0091,0.01,0.004,-0.0091,0.01,0.004,0.0,0.0,0.0,16.066000000000003,16.066000000000003,16.066000000000003,16.066000000000003,40.701049514,121.023189277,0.0,-0.0091,16.066000000000003,0.0
40.701048335,121.023191667,0.0,-0.02181661564992912,0.031939525311496235,2.568077461384456,0.0,0.0,0.0,-0.0,0.0,0.0,-0.0,0.0,0.0,-0.0,0.0,-0.0098,0.01,0.0043,-0.0098,0.01,0.0043,0.0,0.0,0.0,16.167,16.167,16.167,16.167,40.701049712,121.023188874,0.0,-0.0098,16.167,0.0
40.701048335,121.023191667,0.0,-0.022863813201125717,0.032637657012293965,2.5684265272348554,0.0,0.0,0.0,-0.0,0.0,0.0,-0.0,0.0,0.0,-0.0,0.0,-0.0104,0.01,0.0048,-0.0104,0.01,0.0048,0.0,0.0,0.0,16.267000000000003,16.267000000000003,16.267000000000003,16.267000000000003,40.701049907,121.023188476,0.0,-0.0104,16.267000000000003,0.0
40.701048335,121.023191667,0.0,-0.023911010752322315,0.03316125578789226,2.5689501260104537,0.0,0.0,0.0,-0.0,0.0,0.0,-0.0,0.0,0.0,-0.0,0.0,-0.0113,0.01,0.0049,-0.0113,0.01,0.0049,0.0,0.0,0.0,16.366999999999997,16.366999999999997,16.366999999999997,16.366999999999997,40.701050102,121.023188079,0.0,-0.0113,16.366999999999997,0.0
40.701048335,121.023191667,0.0,-0.024783675378319478,0.03368485456349056,2.6122342914599135,0.0,0.0,0.0,-0.0,0.0,0.0,-0.0,0.0,0.0,-0.0,0.0,-0.0116,0.01,0.0046,-0.0116,0.01,0.0046,0.0,0.0,0.0,16.467999999999996,16.467999999999996,16.467999999999996,16.467999999999996,40.701050286,121.023187667,0.0,-0.0116,16.467999999999996,0.0
40.701106668,121.023185,0.0,-0.02600540585471551,0.03438298626428829,2.612583357310312,0.0,0.0,0.0,-0.0,0.0,0.0,-0.0,0.0,0.0,-0.0,0.0,-0.0119,0.01,0.0043,-0.0119,0.01,0.0043,0.0,0.0,0.0,16.57,16.57,16.57,16.57,40.701106854,121.023184582,0.0,-0.0119,16.57,0.0
40.701106668,121.023185,0.0,-0.027227136331111543,0.034732052114687155,2.61310695608591,0.0,0.0,0.0,-0.0,0.0,0.0,-0.0,0.0,0.0,-0.0,0.0,-0.0121,0.01,0.0043,-0.0121,0.01,0.0043,0.0,0.0,0.0,16.67,16.67,16.67,16.67,40.701107035,121.023184176,0.0,-0.0121,16.67,0.0
40.701106668,121.023185,0.0,-0.02844886680750757,0.035430183815484885,2.6134560219363094,0.0,0.0,0.0,-0.0,0.0,0.0,-0.0,0.0,0.0,-0.0,0.0,-0.0118,0.01,0.0048,-0.0118,0.01,0.0048,0.0,0.0,0.0,16.770000000000003,16.770000000000003,16.770000000000003,16.770000000000003,40.701107216,121.023183767,0.0,-0.0118,16.770000000000003,0.0
40.701106668,121.023185,0.0,-0.029670597283903602,0.03595378259108319,2.6139796207119077,0.0,0.0,0.0,-0.0,0.0,0.0,-0.0,0.0,0.0,-0.0,0.0,-0.0121,0.0,0.0053,-0.0121,0.0,0.0053,0.0,0.0,0.0,16.869999999999997,16.869999999999997,16.869999999999997,16.869999999999997,40.701107398,121.023183358,0.0,-0.0121,16.869999999999997,0.0
40.701106668,121.023185,0.0,-0.0307177948351002,0.03647738136668149,2.614503219487506,0.0,0.0,0.0,-0.0,0.0,0.0,-0.0,0.0,0.0,-0.0,0.0,-0.0113,0.0,0.0057,-0.0113,0.0,0.0057,0.0,0.0,0.0,16.970999999999997,16.970999999999997,16.970999999999997,16.970999999999997,40.701107582,121.023182941,0.0,-0.0113,16.970999999999997,0.0
40.701106668,121.023185,0.0,-0.0317649923862968,0.03682644721708035,2.615026818263104,0.0,0.0,0.0,-0.0,0.0,0.0,-0.0,0.0,0.0,-0.0,0.0,-0.0109,0.0,0.0058,-0.0109,0.0,0.0058,0.0,0.0,0.0,17.070999999999998,17.070999999999998,17.070999999999998,17.070999999999998,40.701107763,121.023182533,0.0,-0.0109,17.070999999999998,0.0
40.701106668,121.023185,0.0,-0.032812189937493394,0.03717551306747922,2.6155504170387025,0.0,0.0,0.0,-0.0,0.0,0.0,-0.0,0.0,0.0,-0.0,0.0,-0.0101,0.0,0.0058,-0.0101,0.0,0.0058,0.0,0.0,0.0,17.171,17.171,17.171,17.171,40.701107943,121.023182124,0.0,-0.0101,17.171,0.0
40.701106668,121.023185,0.0,-0.03368485456349056,0.03752457891787808,2.6162485487395,0.0,0.0,0.0,-0.0,0.0,0.0,-0.0,0.0,0.0,-0.0,0.0,-0.0092,0.0,0.0061,-0.0092,0.0,0.0061,0.0,0.0,0.0,17.271,17.271,17.271,17.271,40.701108124,121.023181715,0.0,-0.0092,17.271,0.0
40.701106668,121.023185,0.0,-0.034557519189487726,0.03769911184307752,2.616946680440298,0.0,0.0,0.0,-0.0,0.0,0.0,-0.0,0.0,0.0,-0.0,0.0,-0.0077,0.0,0.007,-0.0077,0.0,0.007,0.0,0.0,0.0,17.372999999999998,17.372999999999998,17.372999999999998,17.372999999999998,40.701108307,121.023181299,0.0,-0.0077,17.372999999999998,0.0
40.701106668,121.023185,0.0,-0.034732052114687155,0.03822271061867582,2.8583257159911133,0.0,0.0,0.0,-0.0,0.0,0.0,-0.0,0.0,0.0,-0.0,0.0,-0.0056,0.0,0.0076,-0.0056,0.0,0.0076,0.0,0.0,0.0,17.473,17.473,17.473,17.473,40.701108408,121.023180844,0.0,-0.0056,17.473,0.0
40.700295001,121.022491667,0.0,-0.035255650890285456,0.03822271061867582,2.8590238476919114,0.0,0.0,0.0,-0.0,0.0,0.0,-0.0,0.0,0.0,-0.0,0.0,-0.0039,0.0,0.0079,-0.0039,0.0,0.0079,0.0,0.0,0.0,17.573,17.573,17.573,17.573,40.700295102,121.02249121,0.0,-0.0039,17.573,0.0
40.700295001,121.022491667,0.0,-0.03560471674068432,0.03822271061867582,2.8598965123179085,0.0,0.0,0.0,-0.0,0.0,0.0,-0.0,0.0,0.0,-0.0,0.0,-0.0028,-0.0,0.0077,-0.0028,-0.0,0.0077,0.0,0.0,0.0,17.673000000000002,17.673000000000002,17.673000000000002,17.673000000000002,40.700295202,121.022490758,0.0,-0.0028,17.673000000000002,0.0
40.700295001,121.022491667,0.0,-0.03577924966588375,0.03822271061867582,2.8605946440187062,0.0,0.0,0.0,-0.0,0.0,0.0,-0.0,0.0,0.0,-0.0,0.0,-0.0014,-0.0,0.0078,-0.0014,-0.0,0.0078,0.0,0.0,0.0,17.774,17.774,17.774,17.774,40.700295303,121.022490295,0.0,-0.0014,17.774,0.0
40.700295001,121.022491667,0.0,-0.03560471674068432,0.03804817769347639,2.8616418415699023,0.0,0.0,0.0,-0.0,0.0,0.0,-0.0,0.0,0.0,-0.0,0.0,0.0011,-0.0,0.0087,0.0011,-0.0,0.0087,0.0,0.0,0.0,17.874000000000002,17.874000000000002,17.874000000000002,17.874000000000002,40.700295403,121.022489841,0.0,0.0011,17.874000000000002,0.0
40.700295001,121.022491667,0.0,-0.035430183815484885,0.03787364476827695,2.8625145061959,0.0,0.0,0.0,-0.0,0.0,0.0,-0.0,0.0,0.0,-0.0,0.0,0.0033,-0.0,0.009,0.0033,-0.0,0.009,0.0,0.0,0.0,17.973999999999997,17.973999999999997,17.973999999999997,17.973999999999997,40.700295503,121.022489383,0.0,0.0033,17.973999999999997,0.0
40.700295001,121.022491667,0.0,-0.03508111796508602,0.03752457891787808,2.863387170821897,0.0,0.0,0.0,-0.0,0.0,0.0,-0.0,0.0,0.0,-0.0,0.0,0.005,-0.0,0.0093,0.005,-0.0,0.0093,0.0,0.0,0.0,18.073999999999998,18.073999999999998,18.073999999999998,18.073999999999998,40.700295601,121.022488931,0.0,0.005,18.073999999999998,0.0
40.700295001,121.022491667,0.0,-0.03438298626428829,0.03717551306747922,2.8642598354478945,0.0,0.0,0.0,-0.0,0.0,0.0,-0.0,0.0,0.0,-0.0,0.0,0.0062,-0.0,0.0093,0.0062,-0.0,0.0093,0.0,0.0,0.0,18.176000000000002,18.176000000000002,18.176000000000002,18.176000000000002,40.700295701,121.022488468,0.0,0.0062,18.176000000000002,0.0
40.700295001,121.022491667,0.0,-0.03368485456349056,0.03665191429188092,2.865307032999091,0.0,0.0,0.0,-0.0,0.0,0.0,-0.0,0.0,0.0,-0.0,0.0,0.0078,-0.01,0.0094,0.0078,-0.01,0.0094,0.0,0.0,0.0,18.275999999999996,18.275999999999996,18.275999999999996,18.275999999999996,40.7002958,121.022488013,0.0,0.0078,18.275999999999996,0.0
40.700295001,121.022491667,0.0,-0.032812189937493394,0.03612831551628262,2.8663542305502876,0.0,0.0,0.0,-0.0,0.0,0.0,-0.0,0.0,0.0,-0.0,0.0,0.0094,-0.01,0.0102,0.0094,-0.01,0.0102,0.0,0.0,0.0,18.375999999999998,18.375999999999998,18.375999999999998,18.375999999999998,40.700295898,121.022487558,0.0,0.0094,18.375999999999998,0.0
40.700295001,121.022491667,0.0,-0.031415926535897934,0.03560471674068432,3.0490902032340936,0.0,0.0,0.0,-0.0,0.0,0.0,-0.0,0.0,0.0,-0.0,0.0,0.0105,-0.01,0.0109,0.0105,-0.01,0.0109,0.0,0.0,0.0,18.476,18.476,18.476,18.476,40.700295931,121.022487086,0.0,0.0105,18.476,0.0
40.700188335,121.022711667,0.0,-0.030368728984701335,0.03490658503988659,3.05013740078529,0.0,0.0,0.0,-0.0,0.0,0.0,-0.0,0.0,0.0,-0.0,0.0,0.0112,-0.01,0.0112,0.0112,-0.01,0.0112,0.0,0.0,0.0,18.576999999999998,18.576999999999998,18.576999999999998,18.576999999999998,40.700188368,121.022711186,0.0,0.0112,18.576999999999998,0.0
40.700188335,121.022711667,0.0,-0.0291469985083053,0.03420845333908886,3.0511845983364867,0.0,0.0,0.0,-0.0,0.0,0.0,-0.0,0.0,0.0,-0.0,0.0,0.0113,-0.01,0.0112,0.0113,-0.01,0.0112,0.0,0.0,0.0,18.677,18.677,18.677,18.677,40.700188401,121.022710717,0.0,0.0113,18.677,0.0
40.700188335,121.022711667,0.0,-0.02775073510670984,0.033335788713091695,3.0524063288128827,0.0,0.0,0.0,-0.0,0.0,0.0,-0.0,0.0,0.0,-0.0,0.0,0.0111,-0.01,0.0112,0.0111,-0.01,0.0112,0.0,0.0,0.0,18.777,18.777,18.777,18.777,40.700188433,121.022710245,0.0,0.0111,18.777,0.0
40.700188335,121.022711667,0.0,-0.02652900463031381,0.03246312408709453,3.053453526364079,0.0,0.0,0.0,-0.0,0.0,0.0,-0.0,0.0,0.0,-0.0,0.0,0.0121,-0.01,0.0112,0.0121,-0.01,0.0112,0.0,0.0,0.0,18.877000000000002,18.877000000000002,18.877000000000002,18.877000000000002,40.700188464,121.022709774,0.0,0.0121,18.877000000000002,0.0
40.700188335,121.022711667,0.0,-0.025132741228718343,0.031415926535897934,3.054849789765675,0.0,0.0,0.0,-0.0,0.0,0.0,-0.0,0.0,0.0,-0.0,0.0,0.0133,-0.01,0.0115,0.0133,-0.01,0.0115,0.0,0.0,0.0,18.979,18.979,18.979,18.979,40.700188496,121.022709293,0.0,0.0133,18.979,0.0
40.700188335,121.022711667,0.0,-0.023911010752322315,0.030543261909900768,3.056071520242071,0.0,0.0,0.0,-0.0,0.0,0.0,-0.0,0.0,0.0,-0.0,0.0,0.0142,-0.01,0.0126,0.0142,-0.01,0.0126,0.0,0.0,0.0,19.079,19.079,19.079,19.079,40.700188527,121.022708824,0.0,0.0142,19.079,0.0
