lat_gps,lon_gps,alt_gps,roll,pitch,yaw,vn,ve,vf,vl,vu,ax,ay,az,af,al,au,wx,wy,wz,wf,wl,wu,pos_accuracy,vel_accuracy,navstat,numsats,posmode,velmode,orimode,lat,lon,depth,height,time,time_gps
40.619245001,121.005241667,14.3989,-0.1843067690106012,-0.04241150082346221,2.568251994309656,15.037025863130195,12.92081408184411,-2.540322,-20.0,3.6613567864463348,0.0,0.0,0.0,0.0,0.0,0.0,-0.0375,0.05,0.0015,-0.0375,0.05,0.0015,-2.540322,20.0,0.109,0.0,0.0,0.0,0.0,40.619250045,121.005234177,0.0,-0.0375,0.0,0.0
40.619245001,121.005241667,14.3989,-0.18884462506578648,-0.0317649923862968,2.568251994309656,1630.7694033123244,902.2678607690119,137.969727,-1893.116455,359.7630481357115,679.6538275817246,-9325.696822598597,0.8866995073833148,679.6538275817246,-9325.696822598597,0.8866995073833148,0.0132,0.05,0.0192,0.0132,0.05,0.0192,137.969727,1893.116455,0.18,0.20300000000133878,0.20300000000133878,0.20300000000133878,0.20300000000133878,40.619252582,121.005230418,0.0,0.0132,0.20300000000133878,0.0
40.619245001,121.005241667,14.3989,-0.18622663118779495,-0.02652900463031381,2.569473724786052,1633.5800616957197,898.9377007401563,138.008163,-1892.907471,354.22052955956224,1353.021205896251,-18557.916382543568,2.0686274510016407,1353.021205896251,-18557.916382543568,2.0686274510016407,0.0422,0.05,0.0264,0.0422,0.05,0.0264,138.008163,1892.907471,0.211,0.30500000000029104,0.30500000000029104,0.30500000000029104,0.30500000000029104,40.619253848,121.005228535,0.0,0.0422,0.30500000000029104,0.0
40.619245001,121.005241667,14.3989,-0.17400932642383465,-0.017278759594743863,2.572440784514442,1641.4675288368833,892.9189283988668,138.145065,-1892.542603,330.2753112117599,687.2888805938303,-9415.634840752393,1.3980099502422787,687.2888805938303,-9415.634840752393,1.3980099502422787,0.0758,0.04,0.0064,0.0758,0.04,0.0064,138.145065,1892.542603,0.281,0.5060000000012224,0.5060000000012224,0.5060000000012224,0.5060000000012224,40.619255674,121.0052246,0.0,0.0758,0.5060000000012224,0.0
40.619245001,121.005241667,13.8989,-0.1647590813882647,-0.012915436464758038,2.5710445211128468,1643.4794217403005,895.2452048124078,138.213882,-1892.358276,312.46511548612966,1368.4542772446791,-18736.2205546876,3.326732673308548,1368.4542772446791,-18736.2205546876,3.326732673308548,0.114,0.05,-0.0209,0.114,0.05,-0.0209,138.213882,1892.358276,0.336,0.6069999999999709,0.6069999999999709,0.6069999999999709,0.6069999999999709,40.619256598,121.005222615,0.0,0.114,0.6069999999999709,0.0
40.619263335,121.005221667,13.8989,-0.15184364492350666,-0.008377580409572781,2.566681197982861,1642.8051525976741,902.9759815724897,137.883484,-1891.533325,287.63853833633823,1351.7988627589837,-18544.44436293559,3.7549019608228837,1351.7988627589837,-18544.44436293559,3.7549019608228837,0.1415,0.06,-0.0517,0.1415,0.06,-0.0517,137.883484,1891.533325,0.383,0.7089999999989232,0.7089999999989232,0.7089999999989232,0.7089999999989232,40.619264265,121.005219687,0.0,0.1415,0.7089999999989232,0.0
40.619263335,121.005221667,13.8989,-0.136659280431156,-0.003665191429188092,2.5593508151244846,1640.2742554819358,915.889124657408,137.950195,-1891.348267,258.6043181501591,1352.4528921225178,-18542.63006815657,4.294117646949776,1352.4528921225178,-18542.63006815657,4.294117646949776,0.1697,0.06,-0.0846,0.1697,0.06,-0.0846,137.950195,1891.348267,0.438,0.8110000000015134,0.8110000000015134,0.8110000000015134,0.8110000000015134,40.619265206,121.005217716,0.0,0.1697,0.8110000000015134,0.0
40.619263335,121.005221667,13.8989,-0.08883725892651137,0.005585053606381855,2.5345671397461653,1626.2841823018064,960.207984619844,138.073181,-1890.978394,167.5235998733331,686.9312487654691,-9407.852706594347,2.641791044811694,686.9312487654691,-9407.852706594347,2.641791044811694,0.3204,0.06,-0.1523,0.3204,0.06,-0.1523,138.073181,1890.978394,0.531,1.0119999999988067,1.0119999999988067,1.0119999999988067,1.0119999999988067,40.619267144,121.005213874,0.0,0.3204,1.0119999999988067,0.0
40.619263335,121.005221667,13.8989,-0.05009094953223726,0.009948376736367677,2.5157175838246264,1611.9167217153222,993.5201838019432,138.131653,-1890.790527,93.87028960289604,1367.6401286805556,-18720.698286686365,5.7227722770925,1367.6401286805556,-18720.698286686365,5.7227722770925,0.3858,0.04,-0.1868,0.3858,0.04,-0.1868,138.131653,1890.790527,0.578,1.1130000000011933,1.1130000000011933,1.1130000000011933,1.1130000000011933,40.61926815,121.005211959,0.0,0.3858,1.1130000000011933,0.0
40.619263335,121.005221667,13.8989,-0.008552113334772215,0.012217304763960306,2.495471764501492,1592.7633172487963,1027.7876708206986,138.186432,-1890.601562,15.087943607536676,1354.7689411903866,-18535.309431562942,5.970588235355447,1354.7689411903866,-18535.309431562942,5.970588235355447,0.4473,0.01,-0.2129,0.4473,0.01,-0.2129,138.186432,1890.601562,0.609,1.2150000000001455,1.2150000000001455,1.2150000000001455,1.2150000000001455,40.619269186,121.005210071,0.0,0.4473,1.2150000000001455,0.0
40.619263335,121.005221667,13.8989,0.03735004599267865,0.012740903539558606,2.4733060830011646,1567.8365017687397,1062.784295046446,138.237,-1890.411255,-71.7135120661759,1368.6831683337907,-18716.943119043797,6.267326732750925,1368.6831683337907,-18716.943119043797,6.267326732750925,0.4798,-0.01,-0.2323,0.4798,-0.01,-0.2323,138.237,1890.411255,0.633,1.315999999998894,1.315999999998894,1.315999999998894,1.315999999998894,40.619270253,121.005208214,0.0,0.4798,1.315999999998894,0.0
40.619263335,121.005221667,13.7973,0.13369222070276565,0.009075712110370514,2.4239132651697246,1500.7246545535425,1129.4751387307901,138.348495,-1890.11377,-252.5513862515678,684.893539600112,-9356.99886133356,3.1732673267148424,684.893539600112,-9356.99886133356,3.1732673267148424,0.4645,-0.06,-0.2559,0.4645,-0.06,-0.2559,138.348495,1890.11377,0.641,1.518000000000029,1.518000000000029,1.518000000000029,1.518000000000029,40.619271742,121.005205006,0.0,0.4645,1.518000000000029,0.0
40.619263335,121.005221667,13.7973,0.17767451785302274,0.0066322511575784525,2.3970351946890123,1460.3415673780778,1160.488114263475,138.400787,-1889.962036,-334.3374033718458,1370.3048217991575,-18712.495406172453,6.108910891164803,1370.3048217991575,-18712.495406172453,6.108910891164803,0.4215,-0.07,-0.2696,0.4215,-0.07,-0.2696,138.400787,1889.962036,0.617,1.6189999999987776,1.6189999999987776,1.6189999999987776,1.6189999999987776,40.619272526,121.005203413,0.0,0.4215,1.6189999999987776,0.0
40.619293335,121.005206667,13.7973,0.2209586833024821,0.004363323129985824,2.3652702023027157,1409.1107502101777,1194.5490795231638,136.807495,-1888.146729,-413.85272268531287,1315.456682654391,-18155.257009092078,5.480769230611252,1315.456682654391,-18155.257009092078,5.480769230611252,0.3618,-0.08,-0.2894,0.3618,-0.08,-0.2894,136.807495,1888.146729,0.57,1.7230000000017753,1.7230000000017753,1.7230000000017753,1.7230000000017753,40.619294189,121.005205047,0.0,0.3618,1.7230000000017753,0.0
40.619293335,121.005206667,13.7973,0.25342180738957665,0.0027925268031909274,2.3342033416172163,1361.6467023610733,1226.8680869844584,136.849258,-1887.994995,-473.2504893272824,1354.9431485316402,-18693.019752706867,4.950495049566291,1354.9431485316402,-18693.019752706867,4.950495049566291,0.2931,-0.1,-0.3095,0.2931,-0.1,-0.3095,136.849258,1887.994995,0.5,1.8240000000005239,1.8240000000005239,1.8240000000005239,1.8240000000005239,40.619295032,121.005203552,0.0,0.2931,1.8240000000005239,0.0
40.619293335,121.005206667,13.7973,0.3028146252210162,-0.0006981317007977319,2.2650883032382407,1258.4506676809617,1296.9195660283037,136.912384,-1887.683472,-562.4905079419859,681.1561393003265,-9391.460059657977,1.751243781086413,681.1561393003265,-9391.460059657977,1.751243781086413,0.1935,-0.13,-0.3418,0.1935,-0.13,-0.3418,136.912384,1887.683472,0.352,2.025000000001455,2.025000000001455,2.025000000001455,2.025000000001455,40.619296889,121.005200693,0.0,0.1935,2.025000000001455,0.0
40.619293335,121.005206667,13.7973,0.3206169835913584,-0.0041887902047863905,2.2275637243203628,1204.197894229043,1333.6299994341516,136.938278,-1887.525024,-594.004501559046,1342.5321372686924,-18505.14729430773,2.833333333362437,1342.5321372686924,-18505.14729430773,2.833333333362437,0.1702,-0.16,-0.3494,0.1702,-0.16,-0.3494,136.938278,1887.525024,0.289,2.1270000000004075,2.1270000000004075,2.1270000000004075,2.1270000000004075,40.619297867,121.005199297,0.0,0.1702,2.1270000000004075,0.0
40.619293335,121.005206667,13.7973,0.3361504139341079,-0.009250245035569947,2.1889919478512883,1148.9728731028044,1369.3331801645427,136.958008,-1887.365723,-621.0433975504347,1342.7255686412434,-18503.58551979791,2.2941176470823885,1342.7255686412434,-18503.58551979791,2.2941176470823885,0.1339,-0.19,-0.3491,0.1339,-0.19,-0.3491,136.958008,1887.365723,0.234,2.2289999999993597,2.2289999999993597,2.2289999999993597,2.2289999999993597,40.619298885,121.005197951,0.0,0.1339,2.2289999999993597,0.0
40.619293335,121.005206667,13.7973,0.3480186528476693,-0.016231562043547264,2.149547506756216,1093.8083195426013,1404.589763615343,136.971573,-1887.205566,-641.1061202381876,1356.1541880867676,-18685.203623320867,2.0099009900515186,1356.1541880867676,-18685.203623320867,2.0099009900515186,0.0857,-0.2,-0.343,0.0857,-0.2,-0.343,136.971573,1887.205566,0.203,2.3300000000017462,2.3300000000017462,2.3300000000017462,2.3300000000017462,40.619299943,121.00519666,0.0,0.0857,2.3300000000017462,0.0
40.619293335,121.005206667,13.9926,0.35779249665883756,-0.0301941960595019,2.072054887967668,986.7292784911701,1474.6728625674148,136.834198,-1886.844116,-656.2085183366992,680.7671542380228,-9387.28415933039,0.7761194029955258,680.7671542380228,-9387.28415933039,0.7761194029955258,-0.0064,-0.18,-0.3319,-0.0064,-0.18,-0.3319,136.834198,1886.844116,0.156,2.5309999999990396,2.5309999999990396,2.5309999999990396,2.5309999999990396,40.619303262,121.005195306,0.0,-0.0064,2.5309999999990396,0.0
40.619293335,121.005206667,13.9926,0.35622170033204265,-0.03438298626428829,2.035752039526186,935.2404397026012,1509.1225398420179,136.758301,-1886.664185,-652.7473272475224,1340.7676568286968,-18496.70769560872,1.1470588235002828,1340.7676568286968,-18496.70769560872,1.1470588235002828,-0.0491,-0.15,-0.3198,-0.0491,-0.15,-0.3198,136.758301,1886.664185,0.117,2.63300000000163,2.63300000000163,2.63300000000163,2.63300000000163,40.619304956,121.005194704,0.0,-0.0491,2.63300000000163,0.0
40.619313335,121.005191667,13.9926,0.3501130479500625,-0.03560471674068432,1.9984019935335073,879.4127985301404,1545.702600211722,136.303787,-1885.594238,-641.467813479717,1349.5424455612763,-18669.249881419444,0.38613861386617065,1349.5424455612763,-18669.249881419444,0.38613861386617065,-0.0874,-0.11,-0.3096,-0.0874,-0.11,-0.3096,136.303787,1885.594238,0.039,2.7340000000003783,2.7340000000003783,2.7340000000003783,2.7340000000003783,40.619315044,121.005191147,0.0,-0.0874,2.7340000000003783,0.0
40.619313335,121.005191667,13.9926,0.34121186876489146,-0.03368485456349056,1.966462468222011,830.0121306385194,1578.7773153745538,136.215607,-1885.419922,-626.0231851469132,1335.447127464698,-18484.50903940556,-0.5392156862800486,1335.447127464698,-18484.50903940556,-0.5392156862800486,-0.1012,-0.07,-0.3065,-0.1012,-0.07,-0.3065,136.215607,1885.419922,-0.055,2.8359999999993306,2.8359999999993306,2.8359999999993306,2.8359999999993306,40.619316765,121.0051907,0.0,-0.1012,2.8359999999993306,0.0
40.619313335,121.005191667,13.9926,0.337023078560105,-0.023387411976724018,1.9045032797762125,724.951536867519,1631.4980030159286,136.019943,-1885.086182,-620.2507076767585,676.7161343252227,-9378.538218862017,-1.2835820895462915,676.7161343252227,-9378.538218862017,-1.2835820895462915,0.0963,-0.04,-0.3175,0.0963,-0.04,-0.3175,136.019943,1885.086182,-0.258,3.037000000000262,3.037000000000262,3.037000000000262,3.037000000000262,40.619320209,121.005190092,0.0,0.0963,3.037000000000262,0.0
40.619313335,121.005191667,13.9926,0.3529055747532534,-0.01658062789394613,1.8727382873899157,666.0147080850933,1644.9958746367708,135.915985,-1884.920776,-649.4710129777128,1332.5096568764327,-18479.61545117021,-3.519607843173408,1332.5096568764327,-18479.61545117021,-3.519607843173408,0.2186,-0.05,-0.3261,0.2186,-0.05,-0.3261,135.915985,1884.920776,-0.359,3.138999999999214,3.138999999999214,3.138999999999214,3.138999999999214,40.619321955,121.005189858,0.0,0.2186,3.138999999999214,0.0
40.619313335,121.005191667,13.9926,0.38275070496235647,-0.009948376736367677,1.8404496962280206,603.3661364127174,1646.9976695667938,135.806717,-1884.758911,-702.9280124537387,1344.6209603642676,-18660.979316390745,-4.336633663263867,1344.6209603642676,-18660.979316390745,-4.336633663263867,0.3768,-0.06,-0.3267,0.3768,-0.06,-0.3267,135.806717,1884.758911,-0.438,3.2400000000016007,3.2400000000016007,3.2400000000016007,3.2400000000016007,40.619323705,121.005189698,0.0,0.3768,3.2400000000016007,0.0
40.619313335,121.005191667,13.9926,0.4274311338134113,-0.0033161255787892262,1.807986572140926,537.3520592665792,1634.3345648190773,135.692215,-1884.600708,-781.2398853804832,1330.3158333469983,-18476.477529601554,-4.980392156913903,1330.3158333469983,-18476.477529601554,-4.980392156913903,0.5163,-0.08,-0.3181,0.5163,-0.08,-0.3181,135.692215,1884.600708,-0.508,3.342000000000553,3.342000000000553,3.342000000000553,3.342000000000553,40.619325458,121.005189613,0.0,0.5163,3.342000000000553,0.0
40.619313335,121.005191667,15.0942,0.5532693728822025,0.010122909661567111,1.7441075215179336,399.99253370363607,1557.1253922392189,135.51683,-1884.206055,-991.9496687645571,674.2130845739905,-9374.159477568506,-3.1094527363040005,674.2130845739905,-9374.159477568506,-3.1094527363040005,0.6678,-0.09,-0.2762,0.6678,-0.09,-0.2762,135.51683,1884.206055,-0.625,3.5430000000014843,3.5430000000014843,3.5430000000014843,3.5430000000014843,40.619329222,121.005188373,0.0,0.6678,3.5430000000014843,0.0
40.619313335,121.005191667,15.0942,0.6197664173831864,0.017278759594743863,1.716880385186822,338.42905318433884,1499.937507082022,135.422958,-1884.009399,-1097.0344045558154,1327.6760588371671,-18470.680382542672,-6.509803921635496,1327.6760588371671,-18470.680382542672,-6.509803921635496,0.6544,-0.09,-0.2536,0.6544,-0.09,-0.2536,135.422958,1884.009399,-0.664,3.6450000000004366,3.6450000000004366,3.6450000000004366,3.6450000000004366,40.619331134,121.005187816,0.0,0.6544,3.6450000000004366,0.0
40.619335001,121.005173333,15.0942,0.6829473363053812,0.02495820830351891,1.691922176883303,281.95066437716287,1436.47112151473,136.023285,-1882.722534,-1191.722076750307,1346.7651980364892,-18640.817168547805,-6.960396039690204,1346.7651980364892,-18640.817168547805,-6.960396039690204,0.6304,-0.09,-0.2382,0.6304,-0.09,-0.2382,136.023285,1882.722534,-0.703,3.745999999999185,3.745999999999185,3.745999999999185,3.745999999999185,40.619336923,121.005172838,0.0,0.6304,3.745999999999185,0.0
40.619335001,121.005173333,15.0942,0.7463027881527753,0.033510321638291124,1.6687092978317786,227.62726333586676,1365.9691182290126,135.919983,-1882.530396,-1282.4623332458987,1332.548852907337,-18456.180352472493,-6.970588235117103,1332.548852907337,-18456.180352472493,-6.970588235117103,0.6546,-0.09,-0.2239,0.6546,-0.09,-0.2239,135.919983,1882.530396,-0.711,3.8480000000017753,3.8480000000017753,3.8480000000017753,3.8480000000017753,40.619338854,121.005172402,0.0,0.6546,3.8480000000017753,0.0
40.619335001,121.005173333,15.0942,0.8794714100799427,0.05061454830783556,1.625425132382319,127.54224899558449,1194.2740526451348,135.699371,-1882.15918,-1455.465710139467,675.1212487653102,-9363.976020026594,-3.4228855721853955,675.1212487653102,-9363.976020026594,-3.4228855721853955,0.6534,-0.11,-0.1973,0.6534,-0.11,-0.1973,135.699371,1882.15918,-0.688,4.048999999999069,4.048999999999069,4.048999999999069,4.048999999999069,40.619342703,121.005171756,0.0,0.6534,4.048999999999069,0.0
40.619335001,121.005173333,15.0942,0.9374163412461544,0.05899212871740834,1.6050047801339853,83.94333879082525,1111.1510754526296,135.584167,-1881.973999,-1522.664248456385,1342.4174950177853,-18633.405930252782,-6.346534653315385,1342.4174950177853,-18633.405930252782,-6.346534653315385,0.4999,-0.11,-0.1841,0.4999,-0.11,-0.1841,135.584167,1881.973999,-0.641,4.150000000001455,4.150000000001455,4.150000000001455,4.150000000001455,40.61934465,121.005171482,0.0,0.4999,4.150000000001455,0.0
40.619335001,121.005173333,15.0942,0.9742427884632348,0.06736970912698112,1.5858061583620477,46.19335928157029,1056.121025732979,135.465302,-1881.791138,-1562.6783517603005,1328.0911960920735,-18448.932725679704,-5.7450980392746995,1328.0911960920735,-18448.932725679704,-5.7450980392746995,0.2386,-0.11,-0.1753,0.2386,-0.11,-0.1753,135.465302,1881.791138,-0.586,4.2520000000004075,4.2520000000004075,4.2520000000004075,4.2520000000004075,40.619346602,121.005171257,0.0,0.2386,4.2520000000004075,0.0
40.619335001,121.005173333,15.0942,0.9847147639752007,0.07679448708775051,1.5660839378145122,9.755939855682081,1040.3613070348945,135.343018,-1881.610718,-1573.6359328243627,1326.8923333469631,-18447.16390215027,-4.9019607843640784,1326.8923333469631,-18447.16390215027,-4.9019607843640784,-0.0261,-0.09,-0.1689,-0.0261,-0.09,-0.1689,135.343018,1881.610718,-0.5,4.35399999999936,4.35399999999936,4.35399999999936,4.35399999999936,40.619348556,121.005171083,0.0,-0.0261,4.35399999999936,0.0
40.619335001,121.005173333,15.4927,0.943699526553334,0.09494591130849153,1.5341444125030153,-50.47542976162344,1102.592075069497,135.01033,-1881.345459,-1529.5200488633513,671.6931840764898,-9359.927656673048,-1.6318407960123396,671.6931840764898,-9359.927656673048,-1.6318407960123396,-0.3343,-0.06,-0.1634,-0.3343,-0.06,-0.1634,135.01033,1881.345459,-0.328,4.555000000000291,4.555000000000291,4.555000000000291,4.555000000000291,40.619352273,121.005172254,0.0,-0.3343,4.555000000000291,0.0
40.619335001,121.005173333,15.4927,0.9039060196078632,0.10471975511965978,1.5196581797114626,-79.8668465952767,1160.8552568634266,134.840515,-1881.214111,-1484.3129447116123,1335.0546039769386,-18625.8822873595,-2.4752475247831454,1335.0546039769386,-18625.8822873595,-2.4752475247831454,-0.4252,-0.05,-0.1632,-0.4252,-0.05,-0.1632,134.840515,1881.214111,-0.25,4.65599999999904,4.65599999999904,4.65599999999904,4.65599999999904,40.619354142,121.005172881,0.0,-0.4252,4.65599999999904,0.0
40.619355001,121.005156667,15.4927,0.8569566627292158,0.11449359893082801,1.505870078620707,-107.37586179140524,1226.4998380677039,135.682907,-1880.161255,-1427.4399461902399,1304.6433365008565,-18078.47360524814,-1.730769230719343,1304.6433365008565,-18078.47360524814,-1.730769230719343,-0.4821,-0.04,-0.1609,-0.4821,-0.04,-0.1609,135.682907,1880.161255,-0.18,4.760000000002037,4.760000000002037,4.760000000002037,4.760000000002037,40.619356936,121.005157353,0.0,-0.4821,4.760000000002037,0.0
40.619355001,121.005156667,15.4927,0.8070402461221781,0.12409290981679684,1.4926055763055504,-135.06542834354522,1293.613390705743,135.512939,-1880.036987,-1364.2670458039436,1341.7122673433573,-18614.22759429005,-1.3168316831846334,1341.7122673433573,-18614.22759429005,-1.3168316831846334,-0.4771,-0.03,-0.1597,-0.4771,-0.03,-0.1597,135.512939,1880.036987,-0.133,4.861000000000786,4.861000000000786,4.861000000000786,4.861000000000786,40.619358756,121.005158032,0.0,-0.4771,4.861000000000786,0.0
40.619355001,121.005156667,15.4927,0.7065092812073045,0.14119713648634125,1.4653784399744387,-188.16078615490002,1417.8551531570254,135.16301,-1879.795288,-1227.265926098701,669.1238118774284,-9305.917267274443,-0.3861386138592164,669.1238118774284,-9305.917267274443,-0.3861386138592164,-0.488,-0.04,-0.1549,-0.488,-0.04,-0.1549,135.16301,1879.795288,-0.078,5.063000000001921,5.063000000001921,5.063000000001921,5.063000000001921,40.619362403,121.005159535,0.0,-0.488,5.063000000001921,0.0
40.619355001,121.005156667,15.4927,0.6506587451434861,0.14835298641951802,1.4491468779308914,-216.02574666640504,1480.3078865545297,134.984314,-1879.676147,-1146.047392777672,1336.4783564522036,-18610.654921022677,-0.7722772277323413,1336.4783564522036,-18610.654921022677,-0.7722772277323413,-0.4872,-0.05,-0.1541,-0.4872,-0.05,-0.1541,134.984314,1879.676147,-0.078,5.164000000000669,5.164000000000669,5.164000000000669,5.164000000000669,40.619364234,121.005160333,0.0,-0.4872,5.164000000000669,0.0
40.619355001,121.005156667,15.4927,0.6012659273120465,0.15289084247470328,1.4332643817377435,-240.92127005407832,1531.308335428029,134.803879,-1879.559814,-1071.4331102618266,1321.6066568763206,-18427.05700018928,-0.7647058823607962,1321.6066568763206,-18427.05700018928,-0.7647058823607962,-0.4551,-0.06,-0.1498,-0.4551,-0.06,-0.1498,134.803879,1879.559814,-0.078,5.265999999999622,5.265999999999622,5.265999999999622,5.265999999999622,40.619366056,121.005161169,0.0,-0.4551,5.265999999999622,0.0
40.619355001,121.005156667,15.4927,0.554665636283798,0.15463617172669758,1.4166837538437975,-264.4606496485374,1575.7076881044545,134.621429,-1879.446533,-998.8233344209125,1332.8854356120698,-18608.38151441179,-0.8514851484947318,1332.8854356120698,-18608.38151441179,-0.8514851484947318,-0.4089,-0.08,-0.142,-0.4089,-0.08,-0.142,134.621429,1879.446533,-0.086,5.367000000002008,5.367000000002008,5.367000000002008,5.367000000002008,40.619367866,121.005162045,0.0,-0.4089,5.367000000002008,0.0
40.619355001,121.005156667,18.4928,0.4754276882432553,0.15009831567151233,1.3842206297567028,-305.7546687286893,1642.458594692021,134.361496,-1879.119873,-870.6252740788169,668.4651542378572,-9348.85508967813,-0.5422885572212328,668.4651542378572,-9348.85508967813,-0.5422885572212328,-0.3383,-0.11,-0.111,-0.3383,-0.11,-0.111,134.361496,1879.119873,-0.109,5.5679999999993015,5.5679999999993015,5.5679999999993015,5.5679999999993015,40.619371615,121.005162089,0.0,-0.3383,5.5679999999993015,0.0
40.619355001,121.005156667,18.4928,0.44052110320336874,0.14416419621473162,1.36973439696515,-322.0541811693266,1668.8197690082427,134.228012,-1878.957031,-812.2920547028864,1315.9609019273662,-18421.1473622773,-1.2254901960473106,1315.9609019273662,-18421.1473622773,-1.2254901960473106,-0.3217,-0.12,-0.0925,-0.3217,-0.12,-0.0925,134.228012,1878.957031,-0.125,5.670000000001892,5.670000000001892,5.670000000001892,5.670000000001892,40.619373508,121.005162148,0.0,-0.3217,5.670000000001892,0.0
40.619376668,121.005141667,18.4928,0.4068362486398782,0.13648474750595657,1.356818960500392,-333.989647350295,1691.8160551220703,135.239349,-1877.453247,-754.5394271764771,1325.8759706018548,-18406.40438254201,-1.3823529411906699,1325.8759706018548,-18406.40438254201,-1.3823529411906699,-0.3104,-0.12,-0.0758,-0.3104,-0.12,-0.0758,135.239349,1877.453247,-0.141,5.772000000000844,5.772000000000844,5.772000000000844,5.772000000000844,40.61937856,121.005141757,0.0,-0.3104,5.772000000000844,0.0
40.619376668,121.005141667,18.4928,0.3719296635999916,0.12688543661998775,1.3446016557364318,-345.77351854167534,1715.0223122760146,135.101791,-1877.293579,-693.9905203191023,1337.6414950660792,-18587.06513884417,-1.5445544554646826,1337.6414950660792,-18587.06513884417,-1.5445544554646826,-0.2939,-0.12,-0.0639,-0.2939,-0.12,-0.0639,135.101791,1877.293579,-0.156,5.8729999999995925,5.8729999999995925,5.8729999999995925,5.8729999999995925,40.61938045,121.005141878,0.0,-0.2939,5.8729999999995925,0.0
40.619376668,121.005141667,18.4928,0.31485739705977706,0.10716321607245183,1.3245303693384964,-365.37982103685664,1748.3201018971263,134.822861,-1876.983032,-592.5512285588784,670.7605024844542,-9338.224039757728,-1.0497512437762306,670.7605024844542,-9338.224039757728,-1.0497512437762306,-0.2578,-0.13,-0.0604,-0.2578,-0.13,-0.0604,134.822861,1876.983032,-0.211,6.074000000000524,6.074000000000524,6.074000000000524,6.074000000000524,40.619384191,121.005142216,0.0,-0.2578,6.074000000000524,0.0
40.619376668,121.005141667,18.4928,0.28989918875625814,0.09634217471008698,1.3147565255273281,-375.71940355589504,1760.6920104341004,134.680618,-1876.827637,-547.1923581456467,1320.3982156998377,-18400.2709511694,-2.2941176470823885,1320.3982156998377,-18400.2709511694,-2.2941176470823885,-0.2146,-0.14,-0.0595,-0.2146,-0.14,-0.0595,134.680618,1876.827637,-0.234,6.175999999999476,6.175999999999476,6.175999999999476,6.175999999999476,40.619386078,121.005142411,0.0,-0.2146,6.175999999999476,0.0
40.619376668,121.005141667,18.4928,0.2696533694331239,0.08429940287132612,1.3051572146413593,-386.13560017981354,1769.4799433647418,134.536819,-1876.673584,-509.74895351509025,1332.0477128398124,-18580.92657381838,-2.6336633662744036,1332.0477128398124,-18580.92657381838,-2.6336633662744036,-0.1731,-0.14,-0.0597,-0.1731,-0.14,-0.0597,134.536819,1876.673584,-0.266,6.277000000001863,6.277000000001863,6.277000000001863,6.277000000001863,40.619387963,121.00514263,0.0,-0.1731,6.277000000001863,0.0
40.619376668,121.005141667,18.4928,0.2525491427635795,0.07190756518216639,1.2953833708301918,-397.54697617023675,1775.736361232132,134.391541,-1876.520874,-477.6070905535716,1317.5641274645143,-18397.263470777212,-2.7549019608126124,1317.5641274645143,-18397.263470777212,-2.7549019608126124,-0.1421,-0.15,-0.0612,-0.1421,-0.15,-0.0612,134.391541,1876.520874,-0.281,6.379000000000815,6.379000000000815,6.379000000000815,6.379000000000815,40.619389847,121.005142873,0.0,-0.1421,6.379000000000815,0.0
40.619376668,121.005141667,14.2973,0.2335250539168413,0.046251225177849735,1.276359281983453,-420.6720151266908,1779.8453509826927,134.176407,-1876.328857,-440.22603090901026,667.5443134297428,-9334.969437767691,-1.477611940291661,667.5443134297428,-9334.969437767691,-1.477611940291661,-0.0614,-0.14,-0.0619,-0.0614,-0.14,-0.0619,134.176407,1876.328857,-0.297,6.580000000001746,6.580000000001746,6.580000000001746,6.580000000001746,40.619392397,121.00514348,0.0,-0.0614,6.580000000001746,0.0
40.619376668,121.005141667,14.2973,0.22776546738526002,0.03385938748868999,1.2672835698730829,-432.0852805801258,1779.9258967228818,134.066879,-1876.23291,-428.24065816093474,1314.381166680168,-18394.440294306594,-2.911764705912262,1314.381166680168,-18394.440294306594,-2.911764705912262,-0.0467,-0.14,-0.0604,-0.0467,-0.14,-0.0604,134.066879,1876.23291,-0.297,6.6820000000006985,6.6820000000006985,6.6820000000006985,6.6820000000006985,40.619393682,121.005143802,0.0,-0.0467,6.6820000000006985,0.0
40.619398335,121.005121667,14.2973,0.22218041377887815,0.021467549799530253,1.257684258987114,-443.12561981834466,1778.4113698663666,135.111404,-1874.578369,-416.16333467184774,1337.7366732839023,-18560.181871517103,-2.861386138649316,1337.7366732839023,-18560.181871517103,-2.861386138649316,-0.0452,-0.12,-0.0593,-0.0452,-0.12,-0.0593,135.111404,1874.578369,-0.289,6.782999999999447,6.782999999999447,6.782999999999447,6.782999999999447,40.619399617,121.005122005,0.0,-0.0452,6.782999999999447,0.0
40.619398335,121.005121667,14.2973,0.21851522234969006,0.011344640137963142,1.2493066785775409,-454.4982830793905,1777.2982438544168,135.000153,-1874.484375,-408.1164628571805,1323.5309117310956,-18377.297793650963,-2.607843137188677,1323.5309117310956,-18377.297793650963,-2.607843137188677,-0.0335,-0.11,-0.0577,-0.0335,-0.11,-0.0577,135.000153,1874.484375,-0.266,6.885000000002037,6.885000000002037,6.885000000002037,6.885000000002037,40.619400898,121.005122357,0.0,-0.0335,6.885000000002037,0.0
40.619398335,121.005121667,14.2973,0.2071705822117269,-0.004537856055185257,1.2344713799355895,-476.43841564031044,1776.4725141632562,134.777298,-1874.301514,-385.1272204408587,670.5338209045518,-9324.883154354424,-1.089552238820642,670.5338209045518,-9324.883154354424,-1.089552238820642,-0.0605,-0.08,-0.0508,-0.0605,-0.08,-0.0508,134.777298,1874.301514,-0.219,7.085999999999331,7.085999999999331,7.085999999999331,7.085999999999331,40.619403426,121.005123103,0.0,-0.0605,7.085999999999331,0.0
40.619398335,121.005121667,14.2973,0.20298179200694055,-0.010122909661567111,1.2285372604788083,-485.6367688360089,1775.6990262545255,134.664108,-1874.209717,-376.62503572904615,1320.2363529076497,-18374.605068160836,-1.8431372548551552,1320.2363529076497,-18374.605068160836,-1.8431372548551552,-0.0219,-0.06,-0.0427,-0.0219,-0.06,-0.0427,134.664108,1874.209717,-0.188,7.188000000001921,7.188000000001921,7.188000000001921,7.188000000001921,40.6194047,121.00512349,0.0,-0.0219,7.188000000001921,0.0
40.619398335,121.005121667,14.2973,0.2012364627549462,-0.013962634015954637,1.223824871498424,-492.98478796719417,1774.3679705159805,134.550598,-1874.11853,-372.83837823842396,1332.1841386303681,-18555.629010130906,-1.5445544554646826,1332.1841386303681,-18555.629010130906,-1.5445544554646826,-0.0191,-0.04,-0.0347,-0.0191,-0.04,-0.0347,134.550598,1874.11853,-0.156,7.289000000000669,7.289000000000669,7.289000000000669,7.289000000000669,40.619405974,121.005123885,0.0,-0.0191,7.289000000000669,0.0
40.619398335,121.005121667,14.2973,0.19879300180215415,-0.016057029118347832,1.2203342129944355,-498.9017542419951,1773.6173592120551,134.436768,-1874.027832,-368.0109754366318,1318.0075294253031,-18372.821882541666,-1.2254901960910196,1318.0075294253031,-18372.821882541666,-1.2254901960910196,-0.0257,-0.02,-0.0243,-0.0257,-0.02,-0.0243,134.436768,1874.027832,-0.125,7.390999999999622,7.390999999999622,7.390999999999622,7.390999999999622,40.619407246,121.005124286,0.0,-0.0257,7.390999999999622,0.0
40.619421668,121.005105,13.9926,0.19565140914856435,-0.0158824961931484,1.2164944886400475,-505.4168975271378,1770.5021386665749,134.46582,-1871.564331,-361.5384545465076,668.984179101378,-9311.265328315067,0.6218905472608001,668.984179101378,-9311.265328315067,0.6218905472608001,-0.0059,0.01,-0.0148,-0.0059,0.01,-0.0148,134.46582,1871.564331,0.125,7.592000000000553,7.592000000000553,7.592000000000553,7.592000000000553,40.619424523,121.005106065,0.0,-0.0059,7.592000000000553,0.0
40.619421668,121.005105,13.9926,0.19355701404617115,-0.013439035240356337,1.2156218240140502,-508.19848037820685,1770.3150390191092,134.3311,-1871.466064,-357.9791435138527,1330.0108911055886,-18529.366970526622,1.6237623762577436,1330.0108911055886,-18529.366970526622,1.6237623762577436,-0.04,0.03,-0.0129,-0.04,0.03,-0.0129,134.3311,1871.466064,0.164,7.6929999999993015,7.6929999999993015,7.6929999999993015,7.6929999999993015,40.619425965,121.005106605,0.0,-0.04,7.6929999999993015,0.0
40.619421668,121.005105,13.9926,0.18867009214058703,-0.010122909661567111,1.2149236923132531,-511.334846613444,1771.0070936202544,134.193741,-1871.365845,-349.41189585743024,1315.6249117312962,-18346.72397012233,1.9117647058338048,1315.6249117312962,-18346.72397012233,1.9117647058338048,-0.0544,0.04,-0.0133,-0.0544,0.04,-0.0133,134.193741,1871.365845,0.195,7.795000000001892,7.795000000001892,7.795000000001892,7.795000000001892,40.619427433,121.005107156,0.0,-0.0544,7.795000000001892,0.0
40.619421668,121.005105,13.9926,0.1832595714594046,-0.005759586531581287,1.2144000935376542,-514.4917517994398,1771.8106835848125,134.061539,-1871.269531,-340.0108002432763,1314.328813738991,-18345.77971587472,2.2254901961012914,1314.328813738991,-18345.77971587472,2.2254901961012914,-0.078,0.04,-0.0132,-0.078,0.04,-0.0132,134.061539,1871.269531,0.227,7.897000000000844,7.897000000000844,7.897000000000844,7.897000000000844,40.619428847,121.005107687,0.0,-0.078,7.897000000000844,0.0
40.619421668,121.005105,13.9926,0.15917402778188283,0.004537856055185257,1.2135274289116569,-522.0048525790459,1777.1273726218599,133.794327,-1871.075195,-296.90506424229966,665.6434179073636,-9308.831815877265,1.3582089552175876,665.6434179073636,-9308.831815877265,1.3582089552175876,-0.15,0.05,-0.0134,-0.15,0.05,-0.0134,133.794327,1871.075195,0.273,8.098000000001775,8.098000000001775,8.098000000001775,8.098000000001775,40.6194317,121.005108764,0.0,-0.15,8.098000000001775,0.0
40.619421668,121.005105,13.9926,0.14433872913993104,0.009948376736367677,1.213003830136059,-525.7471688551814,1780.1770737826257,133.659409,-1870.977173,-270.1481138964191,1323.3604851649125,-18524.526465576066,2.861386138649316,1323.3604851649125,-18524.526465576066,2.861386138649316,-0.1463,0.05,-0.0125,-0.1463,0.05,-0.0125,133.659409,1870.977173,0.289,8.199000000000524,8.199000000000524,8.199000000000524,8.199000000000524,40.61943314,121.005109308,0.0,-0.1463,8.199000000000524,0.0
40.619421668,121.005105,13.9926,0.12985249634837812,0.014835298641951801,1.2126547642856604,-528.6229660946678,1782.998697786715,133.524475,-1870.87915,-243.9079247623986,1309.0634804056035,-18341.9524511688,2.9901960784620876,1309.0634804056035,-18341.9524511688,2.9901960784620876,-0.1366,0.04,-0.0093,-0.1366,0.04,-0.0093,133.524475,1870.87915,0.305,8.300999999999476,8.300999999999476,8.300999999999476,8.300999999999476,40.61943458,121.005109853,0.0,-0.1366,8.300999999999476,0.0
40.619421668,121.005105,13.9926,0.11641346110802178,0.019198621771937627,1.212305698435261,-530.9689991084105,1785.359625454286,133.389435,-1870.78125,-219.4954644286025,1320.6874752163183,-18522.5866332257,3.168316831608305,1320.6874752163183,-18522.5866332257,3.168316831608305,-0.1229,0.04,-0.0073,-0.1229,0.04,-0.0073,133.389435,1870.78125,0.32,8.402000000001863,8.402000000001863,8.402000000001863,8.402000000001863,40.61943602,121.005110399,0.0,-0.1229,8.402000000001863,0.0
40.619421668,121.005105,13.3988,0.08779006137531478,0.02548180707911721,1.2109094350336658,-535.6461918232948,1789.4029599093517,133.05423,-1870.581787,-167.03278779586168,658.6843069388547,-9260.305876352366,1.549504950514249,658.6843069388547,-9260.305876352366,1.549504950514249,-0.1786,0.02,-0.0133,-0.1786,0.02,-0.0133,133.05423,1870.581787,0.313,8.60399999999936,8.60399999999936,8.60399999999936,8.60399999999936,40.619439286,121.005112071,0.0,-0.1786,8.60399999999936,0.0
40.619421668,121.005105,13.3988,0.06789330790257943,0.027401669256310976,1.2093386387068712,-538.9495738629143,1791.3526153519385,132.884903,-1870.481323,-130.18461685967617,1315.6921088798028,-18519.617058968342,3.0198019801266653,1315.6921088798028,-18519.617058968342,3.0198019801266653,-0.201,0.01,-0.0187,-0.201,0.01,-0.0187,132.884903,1870.481323,0.305,8.705000000001746,8.705000000001746,8.705000000001746,8.705000000001746,40.619440934,121.005112919,0.0,-0.201,8.705000000001746,0.0
40.619421668,121.005105,13.3988,0.04834562028024293,0.028623399732707003,1.2072442436044781,-542.7484949900969,1792.3599989448733,132.715271,-1870.381104,-93.85420040778051,1301.1301078565025,-18337.069647247183,2.911764705912262,1301.1301078565025,-18337.069647247183,2.911764705912262,-0.1916,0.01,-0.0256,-0.1916,0.01,-0.0256,132.715271,1870.381104,0.297,8.807000000000698,8.807000000000698,8.807000000000698,8.807000000000698,40.61944258,121.005113772,0.0,-0.1916,8.807000000000698,0.0
40.619421668,121.005105,13.3988,0.030368728984701335,0.029321531433504737,1.204626249726486,-547.1753881971555,1792.3380758320607,132.545395,-1870.281494,-60.3700585513905,1312.3306435806173,-18517.638554684894,2.7821782178562557,1312.3306435806173,-18517.638554684894,2.7821782178562557,-0.1639,0.0,-0.0304,-0.1639,0.0,-0.0304,132.545395,1870.281494,0.281,8.907999999999447,8.907999999999447,8.907999999999447,8.907999999999447,40.619444225,121.00511463,0.0,-0.1639,8.907999999999447,0.0
40.619421668,121.005105,13.3988,0.004886921905584123,0.02897246558310587,1.1978194656437082,-558.6052548172495,1789.5531969106905,132.207581,-1870.086426,-12.715046229120185,657.7491592009325,-9303.91256712107,1.2437810945216001,657.7491592009325,-9303.91256712107,1.2437810945216001,-0.0933,-0.01,-0.0366,-0.0933,-0.01,-0.0366,132.207581,1870.086426,0.25,9.109000000000378,9.109000000000378,9.109000000000378,9.109000000000378,40.619447474,121.005116359,0.0,-0.0933,9.109000000000378,0.0
40.619421668,121.005105,13.3988,-0.0033161255787892262,0.028274333882308142,1.1939797412893214,-565.1881199473904,1787.4133386240346,132.036789,-1869.988647,2.6927804471753163,1294.4783235427085,-18333.22202960008,2.2254901961012914,1294.4783235427085,-18333.22202960008,2.2254901961012914,-0.0848,-0.01,-0.0386,-0.0848,-0.01,-0.0386,132.036789,1869.988647,0.227,9.21099999999933,9.21099999999933,9.21099999999933,9.21099999999933,40.619449112,121.00511724,0.0,-0.0848,9.21099999999933,0.0
40.619421668,121.005105,13.3988,-0.01117010721276371,0.026878070480712675,1.1901400169349332,-571.767245191007,1785.1209403754842,131.865479,-1869.891479,17.553954236585213,1292.7988136926601,-18332.269401495243,2.147058823474888,1292.7988136926601,-18332.269401495243,2.147058823474888,-0.0605,-0.01,-0.0401,-0.0605,-0.01,-0.0401,131.865479,1869.891479,0.219,9.31300000000192,9.31300000000192,9.31300000000192,9.31300000000192,40.619450747,121.00511813,0.0,-0.0605,9.31300000000192,0.0
40.619421668,121.005105,13.3988,-0.0158824961931484,0.02495820830351891,1.1857766938049474,-579.4567203578273,1782.4136799592598,131.693741,-1869.794922,26.60292635779273,1303.8984257587304,-18512.821010130378,2.009900990123914,1303.8984257587304,-18512.821010130378,2.009900990123914,-0.0255,-0.02,-0.0398,-0.0255,-0.02,-0.0398,131.693741,1869.794922,0.203,9.41400000000067,9.41400000000067,9.41400000000067,9.41400000000067,40.61945238,121.005119028,0.0,-0.0255,9.41400000000067,0.0
40.619421668,121.005105,12.9926,-0.02530727415391778,0.02007128639793479,1.1780972450961724,-593.0485574521821,1777.3874046049125,131.344452,-1869.645142,44.85286919560969,653.454985071599,-9301.717124335011,0.9353233830802433,653.454985071599,-9301.717124335011,0.9353233830802433,-0.0743,-0.03,-0.0352,-0.0743,-0.03,-0.0352,131.344452,1869.645142,0.188,9.6150000000016,9.6150000000016,9.6150000000016,9.6150000000016,40.619455372,121.005121195,0.0,-0.0743,9.6150000000016,0.0
40.619421668,121.005105,12.9926,-0.031241393610698498,0.016929693744344994,1.1747811195173832,-598.9093300718971,1775.0010482724865,131.167816,-1869.570068,56.35746129965111,1285.958980405366,-18329.118313913765,1.8431372549208933,1285.958980405366,-18329.118313913765,1.8431372549208933,-0.0258,-0.03,-0.0304,-0.0258,-0.03,-0.0304,131.167816,1869.570068,0.188,9.717000000000553,9.717000000000553,9.717000000000553,9.717000000000553,40.61945688,121.005122296,0.0,-0.0258,9.717000000000553,0.0
40.619421668,121.005105,12.9926,-0.032637657012293965,0.013439035240356337,1.172163125639392,-603.8053006277863,1773.1493995435271,130.991043,-1869.495483,59.434149786532195,1296.94101981805,-18509.856267556082,1.9306930693308535,1296.94101981805,-18509.856267556082,1.9306930693308535,-0.0129,-0.03,-0.0237,-0.0129,-0.03,-0.0237,130.991043,1869.495483,0.195,9.817999999999302,9.817999999999302,9.817999999999302,9.817999999999302,40.619458386,121.005123401,0.0,-0.0129,9.817999999999302,0.0
40.619421668,121.005105,12.9926,-0.034033920413889425,0.009773843811168246,1.1705923293125966,-606.8677047584558,1771.9056037021187,130.814056,-1869.421265,62.53275126368495,1282.490745065471,-18327.65946031889,1.9901960783808326,1282.490745065471,-18327.65946031889,1.9901960783808326,-0.016,-0.04,-0.0155,-0.016,-0.04,-0.0155,130.814056,1869.421265,0.203,9.920000000001892,9.920000000001892,9.920000000001892,9.920000000001892,40.61945989,121.00512451,0.0,-0.016,9.920000000001892,0.0
40.619421668,121.005105,12.9926,-0.045727626402251434,0.004014257279586958,1.1691960659110014,-609.5177224948585,1769.8728080003061,130.463516,-1869.274536,85.12608660033933,649.072218914213,-9299.873313558068,1.0099502487698189,649.072218914213,-9299.873313558068,1.0099502487698189,-0.0997,-0.02,-0.003,-0.0997,-0.02,-0.003,130.463516,1869.274536,0.203,10.120999999999185,10.120999999999185,10.120999999999185,10.120999999999185,40.619462868,121.005126712,0.0,-0.0997,10.120999999999185,0.0
40.619421668,121.005105,12.9926,-0.05794493116621174,0.0022689280275926286,1.168847000060603,-609.895381493545,1768.3942656955305,130.286407,-1869.200562,108.14189226241395,1277.3177156538377,-18325.495705416986,1.8431372548551552,1277.3177156538377,-18325.495705416986,1.8431372548551552,-0.1344,-0.01,-0.0042,-0.1344,-0.01,-0.0042,130.286407,1869.200562,0.188,10.223000000001775,10.223000000001775,10.223000000001775,10.223000000001775,40.619464371,121.005127825,0.0,-0.1344,10.223000000001775,0.0
40.619421668,121.005105,12.9926,-0.07330382858376185,0.0017453292519943296,1.1683234012850041,-610.2234077657077,1766.2011461804416,130.109283,-1869.126709,136.8357162792125,1288.210722788239,-18506.205039833265,1.7029702970508038,1288.210722788239,-18506.205039833265,1.7029702970508038,-0.1413,0.0,-0.0062,-0.1413,0.0,-0.0062,130.109283,1869.126709,0.172,10.324000000000524,10.324000000000524,10.324000000000524,10.324000000000524,40.619465873,121.005128938,0.0,-0.1413,10.324000000000524,0.0
40.619421668,121.005105,12.9926,-0.08831366015091306,0.0020943951023931952,1.167625269584206,-610.6039452443696,1763.5957602866927,129.932159,-1869.052856,164.72335207545137,1273.8446960915164,-18324.04760803136,1.450980392171767,1273.8446960915164,-18324.04760803136,1.450980392171767,-0.1662,0.01,-0.0104,-0.1662,0.01,-0.0104,129.932159,1869.052856,0.148,10.425999999999476,10.425999999999476,10.425999999999476,10.425999999999476,40.619467375,121.005130053,0.0,-0.1662,10.425999999999476,0.0
40.619421668,121.005105,12.9926,-0.1181587903600161,0.003141592653589793,1.1646582098558165,-613.5006627634594,1756.3538423051193,129.586884,-1868.895874,220.00608212478068,644.7108656686545,-9297.989422842491,0.5074626865648129,644.7108656686545,-9297.989422842491,0.5074626865648129,-0.1559,0.0,-0.0163,-0.1559,0.0,-0.0163,129.586884,1868.895874,0.102,10.627000000000407,10.627000000000407,10.627000000000407,10.627000000000407,40.619470397,121.005132129,0.0,-0.1559,10.627000000000407,0.0
40.619421668,121.005105,12.9926,-0.1356120828799594,0.002617993877991494,1.1629128806038218,-615.0856553181395,1751.3395488623773,129.412384,-1868.816895,252.39568036395565,1268.7488627581306,-18321.734264894083,0.7647058823607962,1268.7488627581306,-18321.734264894083,0.7647058823607962,-0.1869,-0.01,-0.02,-0.1869,-0.01,-0.02,129.412384,1868.816895,0.078,10.72899999999936,10.72899999999936,10.72899999999936,10.72899999999936,40.619471921,121.005133181,0.0,-0.1869,10.72899999999936,0.0
40.619421668,121.005105,12.9926,-0.14974924982111348,0.0015707963267948964,1.1609930184266277,-617.286495201111,1746.477217003446,129.234482,-1868.736694,278.66306011038625,1279.5493267024392,-18502.343504513305,0.6930693069143167,1279.5493267024392,-18502.343504513305,0.6930693069143167,-0.0902,-0.01,-0.021,-0.0902,-0.01,-0.021,129.234482,1868.736694,0.07,10.830000000001746,10.830000000001746,10.830000000001746,10.830000000001746,40.619473472,121.005134257,0.0,-0.0902,10.830000000001746,0.0
40.619421668,121.005105,12.9926,-0.1556833692778942,-0.0005235987755982988,1.159247689174634,-620.3258738823348,1743.4767784998292,129.06311,-1868.659912,289.88220194191814,1265.3246078561344,-18320.19521587446,0.686274509810971,1265.3246078561344,-18320.19521587446,0.686274509810971,-0.0345,-0.02,-0.0203,-0.0345,-0.02,-0.0203,129.06311,1868.659912,0.07,10.932000000000698,10.932000000000698,10.932000000000698,10.932000000000698,40.619474964,121.005135295,0.0,-0.0345,10.932000000000698,0.0
40.619421668,121.005105,12.9926,-0.17016960206944712,-0.007330382858376184,1.1571532940722407,-624.4538504950682,1736.9968432222356,128.71666,-1868.505371,317.4581296663751,640.3813930318587,-9296.046621847474,0.46766169154012166,640.3813930318587,-9296.046621847474,0.46766169154012166,-0.1062,-0.04,-0.0087,-0.1062,-0.04,-0.0087,128.71666,1868.505371,0.094,11.13300000000163,11.13300000000163,11.13300000000163,11.13300000000163,40.619477974,121.005137401,0.0,-0.1062,11.13300000000163,0.0
40.619421668,121.005105,12.9926,-0.17662732030182612,-0.011519173063162575,1.1575023599226393,-624.4822123489607,1734.5711680393708,128.541702,-1868.427368,329.89186986002466,1272.6901188276506,-18499.28087151635,1.3168316831846334,1272.6901188276506,-18499.28087151635,1.3168316831846334,-0.0258,-0.04,-0.0016,-0.0258,-0.04,-0.0016,128.541702,1868.427368,0.133,11.234000000000378,11.234000000000378,11.234000000000378,11.234000000000378,40.619479493,121.005138464,0.0,-0.0258,11.234000000000378,0.0
40.619421668,121.005105,12.9926,-0.1780235837034216,-0.016057029118347832,1.1583750245486366,-624.3209975784857,1733.9295356591042,128.366928,-1868.349121,333.043830570746,1258.4992941305743,-18317.148245286193,1.6862745098212428,1258.4992941305743,-18317.148245286193,1.6862745098212428,-0.0044,-0.05,0.0043,-0.0044,-0.05,0.0043,128.366928,1868.349121,0.172,11.33599999999933,11.33599999999933,11.33599999999933,11.33599999999933,40.619481014,121.005139524,0.0,-0.0044,11.33599999999933,0.0
40.619421668,121.005105,12.9926,-0.1806415775814131,-0.020245819323134222,1.1597712879502318,-623.0458403933385,1733.2526300583695,128.1922,-1868.27063,338.40455043444933,1256.7862744778886,-18316.37872502506,2.2254901960219162,1256.7862744778886,-18316.37872502506,2.2254901960219162,-0.0577,-0.04,0.0088,-0.0577,-0.04,0.0088,128.1922,1868.27063,0.227,11.43800000000192,11.43800000000192,11.43800000000192,11.43800000000192,40.619482535,121.005140582,0.0,-0.0577,11.43800000000192,0.0
40.619421668,121.005105,13.0941,-0.18797196043978928,-0.02600540585471551,1.1639600781550183,-617.1593917740854,1732.3111283840651,127.829468,-1868.099243,352.62971024022323,635.9675024961261,-9294.026084702267,1.7114427860926977,635.9675024961261,-9294.026084702267,1.7114427860926977,0.0123,-0.02,0.0228,0.0123,-0.02,0.0228,127.829468,1868.099243,0.344,11.638999999999214,11.638999999999214,11.638999999999214,11.638999999999214,40.619485755,121.005142717,0.0,0.0123,11.638999999999214,0.0
40.619421668,121.005105,13.0941,-0.1848303677861995,-0.02600540585471551,1.1665780720330094,-613.0441939753624,1734.8220198564343,127.646568,-1868.012207,346.89015604155105,1263.8274059107314,-18495.170365899616,3.8712871286213972,1263.8274059107314,-18495.170365899616,3.8712871286213972,0.0586,0.01,0.0306,0.0586,0.01,0.0306,127.646568,1868.012207,0.391,11.7400000000016,11.7400000000016,11.7400000000016,11.7400000000016,40.619487383,121.00514379,0.0,0.0586,11.7400000000016,0.0
40.619421668,121.005105,13.0941,-0.17767451785302274,-0.02356194490192345,1.1695451317614,-607.9036001996867,1739.1487374841195,127.463821,-1867.924683,333.4737076535777,1249.6453039344049,-18312.987088423404,4.215686274553107,1249.6453039344049,-18312.987088423404,4.215686274553107,0.0728,0.03,0.0366,0.0728,0.03,0.0366,127.463821,1867.924683,0.43,11.842000000000553,11.842000000000553,11.842000000000553,11.842000000000553,40.619489013,121.005144855,0.0,0.0728,11.842000000000553,0.0
40.619421668,121.005105,13.0941,-0.17016960206944712,-0.01780235837034216,1.17268672441499,-601.5168722822782,1743.9750135250154,127.28141,-1867.836548,318.9713622902701,1260.2119802136347,-18493.43116854598,4.405940594113999,1260.2119802136347,-18493.43116854598,4.405940594113999,0.0756,0.06,0.038,0.0756,0.06,0.038,127.28141,1867.836548,0.445,11.942999999999302,11.942999999999302,11.942999999999302,11.942999999999302,40.619490646,121.005145915,0.0,0.0756,11.942999999999302,0.0
40.619421668,121.005105,13.0941,-0.1583013631558857,-0.0022689280275926286,1.1767009816945773,-591.5654504733243,1751.3472271738633,126.920815,-1867.660522,295.1238798848545,628.3208663331031,-9245.844168264879,2.08910891087935,628.3208663331031,-9245.844168264879,2.08910891087935,0.0252,0.08,0.0229,0.0252,0.08,0.0229,126.920815,1867.660522,0.422,12.145000000000437,12.145000000000437,12.145000000000437,12.145000000000437,40.619493886,121.005147996,0.0,0.0252,12.145000000000437,0.0
40.619421668,121.005105,13.0941,-0.15655603390389136,0.0054105206811824215,1.1773991133953743,-588.6020607134552,1752.9477024955622,126.738846,-1867.571533,290.87502313843794,1254.8400594214888,-18490.80725765486,3.7920792079677788,1254.8400594214888,-18490.80725765486,3.7920792079677788,0.0147,0.07,0.0116,0.0147,0.07,0.0116,126.738846,1867.571533,0.383,12.245999999999185,12.245999999999185,12.245999999999185,12.245999999999185,40.619495523,121.005149045,0.0,0.0147,12.245999999999185,0.0
40.619421668,121.005105,13.0941,-0.15603243512829304,0.011868238913561441,1.1768755146197765,-587.9936070340648,1753.348834827218,126.556786,-1867.482666,289.0322357354375,1240.7528038900602,-18308.653587770357,3.4509803920692264,1240.7528038900602,-18308.653587770357,3.4509803920692264,0.0133,0.06,0.0016,0.0133,0.06,0.0016,126.556786,1867.482666,0.352,12.348000000001775,12.348000000001775,12.348000000001775,12.348000000001775,40.619497159,121.005150095,0.0,0.0133,12.348000000001775,0.0
40.619421668,121.005105,13.0941,-0.15428710587629874,0.01658062789394613,1.1756537841433807,-589.2604664538211,1753.4520473279117,126.374603,-1867.394043,285.14762927380815,1251.2336930848105,-18489.049930922163,3.099009901028498,1251.2336930848105,-18489.049930922163,3.099009901028498,0.0114,0.04,-0.0086,0.0114,0.04,-0.0086,126.374603,1867.394043,0.313,12.449000000000524,12.449000000000524,12.449000000000524,12.449000000000524,40.619498794,121.005151148,0.0,0.0114,12.449000000000524,0.0
40.619421668,121.005105,13.1957,-0.15184364492350666,0.020245819323134222,1.171988592714192,-595.3763090213812,1751.9637003547832,125.971405,-1867.197388,280.0806856799445,626.7234079572952,-9289.539243738052,1.2835820895462915,626.7234079572952,-9289.539243738052,1.2835820895462915,0.0341,0.0,-0.023,0.0341,0.0,-0.023,125.971405,1867.197388,0.258,12.650000000001455,12.650000000001455,12.650000000001455,12.650000000001455,40.619502416,121.005153476,0.0,0.0341,12.650000000001455,0.0
40.619421668,121.005105,13.1957,-0.14852751934471745,0.019547687622336492,1.1693705988362009,-600.7642051084663,1750.9617222801849,125.767609,-1867.098511,274.0252119531984,1233.0157745224694,-18304.887362933125,2.372549019632214,1233.0157745224694,-18304.887362933125,2.372549019632214,0.0247,-0.01,-0.0283,0.0247,-0.01,-0.0283,125.767609,1867.098511,0.242,12.752000000000407,12.752000000000407,12.752000000000407,12.752000000000407,40.619504242,121.005154657,0.0,0.0247,12.752000000000407,0.0
40.619421668,121.005105,13.1957,-0.14608405839192537,0.017453292519943295,1.1664035391078102,-606.9709218539581,1749.3621132239066,125.56356,-1867.000366,269.76865244233716,1231.015294130292,-18303.925157050762,2.2941176470823885,1231.015294130292,-18303.925157050762,2.2941176470823885,0.0156,-0.02,-0.0318,0.0156,-0.02,-0.0318,125.56356,1867.000366,0.234,12.85399999999936,12.85399999999936,12.85399999999936,12.85399999999936,40.619506066,121.005155845,0.0,0.0156,12.85399999999936,0.0
40.619421668,121.005105,13.1957,-0.14538592669112765,0.014835298641951801,1.1636110123046197,-612.7452723923496,1747.3779680003083,125.359177,-1866.90271,268.8013606743842,1241.1799702677022,-18484.185247087993,2.2475247524221413,1241.1799702677022,-18484.185247087993,2.2475247524221413,0.0059,-0.02,-0.032,0.0059,-0.02,-0.032,125.359177,1866.90271,0.227,12.955000000001746,12.955000000001746,12.955000000001746,12.955000000001746,40.619507887,121.00515704,0.0,0.0059,12.955000000001746,0.0
40.619421668,121.005105,13.1957,-0.14852751934471745,0.009250245035569947,1.1575023599226393,-624.6864353164565,1741.89705482611,124.953255,-1866.711914,275.29664954986487,621.657985082998,-9287.123950373816,1.1293532338460537,621.657985082998,-9287.123950373816,1.1293532338460537,-0.0279,-0.02,-0.0335,-0.0279,-0.02,-0.0335,124.953255,1866.711914,0.227,13.15599999999904,13.15599999999904,13.15599999999904,13.15599999999904,40.619511483,121.005159436,0.0,-0.0279,13.15599999999904,0.0
40.619421668,121.005105,13.1957,-0.15289084247470328,0.007330382858376184,1.1543607672690492,-630.2398069840207,1738.447070008274,124.74794,-1866.616211,283.58023503698735,1223.0190195767852,-18300.158930907826,2.2254901960219162,1223.0190195767852,-18300.158930907826,2.2254901960219162,-0.0656,-0.01,-0.0336,-0.0656,-0.01,-0.0336,124.74794,1866.616211,0.227,13.25800000000163,13.25800000000163,13.25800000000163,13.25800000000163,40.619513296,121.005160653,0.0,-0.0656,13.25800000000163,0.0
40.619421668,121.005105,13.1957,-0.15969762655748115,0.006108652381980153,1.1513937075406597,-634.9857667311046,1734.4834832346855,124.542381,-1866.521118,296.2634958969823,1233.0928812033978,-18480.407109139876,2.1683168317100354,1233.0928812033978,-18480.407109139876,2.1683168317100354,-0.0637,-0.01,-0.0301,-0.0637,-0.01,-0.0301,124.542381,1866.521118,0.219,13.359000000000378,13.359000000000378,13.359000000000378,13.359000000000378,40.619515106,121.005161878,0.0,-0.0637,13.359000000000378,0.0
40.619421668,121.005105,13.1957,-0.1637118838370681,0.0054105206811824215,1.148426647812269,-639.9367688163152,1731.2540503562734,124.336571,-1866.426636,303.72415119849785,1218.9859902085998,-18298.300353129136,2.0686274510016407,1218.9859902085998,-18298.300353129136,2.0686274510016407,-0.0136,-0.0,-0.0254,-0.0136,-0.0,-0.0254,124.336571,1866.426636,0.211,13.46099999999933,13.46099999999933,13.46099999999933,13.46099999999933,40.619516913,121.005163109,0.0,-0.0136,13.46099999999933,0.0
40.619421668,121.005105,13.2973,-0.16877333866785166,0.00471238898038469,1.1444123905326817,-646.6918927515648,1726.898690182683,123.944336,-1866.291626,313.0769454925352,616.6384875593319,-9285.032965131108,0.8955223880555521,616.6384875593319,-9285.032965131108,0.8955223880555521,-0.0079,0.0,-0.013,-0.0079,0.0,-0.013,123.944336,1866.291626,0.18,13.662000000000262,13.662000000000262,13.662000000000262,13.662000000000262,40.619520039,121.005165783,0.0,-0.0079,13.662000000000262,0.0
40.619421668,121.005105,13.2973,-0.16877333866785166,0.004363323129985824,1.1435397259066844,-648.4511376447222,1726.1464255911267,123.746323,-1866.223511,313.1022429741256,1213.1992451105011,-18296.30893156049,1.6862745098212428,1213.1992451105011,-18296.30893156049,1.6862745098212428,0.0044,-0.0,-0.0026,0.0044,-0.0,-0.0026,123.746323,1866.223511,0.172,13.763999999999214,13.763999999999214,13.763999999999214,13.763999999999214,40.619521616,121.005167135,0.0,0.0044,13.763999999999214,0.0
40.619421668,121.005105,13.2973,-0.1684242728174528,0.003839724354387525,1.1437142588318836,-648.5004065601084,1726.1493757565786,123.548141,-1866.155396,312.4990956259236,1223.2489207631752,-18476.786098573317,1.5445544554090485,1223.2489207631752,-18476.786098573317,1.5445544554090485,-0.0002,-0.01,0.0049,-0.0002,-0.01,0.0049,123.548141,1866.155396,0.156,13.8650000000016,13.8650000000016,13.8650000000016,13.8650000000016,40.619523193,121.005168487,0.0,-0.0002,13.8650000000016,0.0
40.619421668,121.005105,13.2973,-0.16859880574265224,0.0033161255787892262,1.1447614563830804,-646.9710010299208,1726.5686968136529,123.350143,-1866.087158,312.86677667049236,1209.3151274634024,-18294.972137442826,1.450980392171767,1209.3151274634024,-18294.972137442826,1.450980392171767,-0.0097,-0.01,0.0106,-0.0097,-0.01,0.0106,123.350143,1866.087158,0.148,13.967000000000553,13.967000000000553,13.967000000000553,13.967000000000553,40.619524771,121.005169837,0.0,-0.0097,13.967000000000553,0.0
40.619421668,121.005105,13.2973,-0.17139133254584316,0.002617993877991494,1.1473794502610724,-642.5763551414906,1727.087114732577,122.958321,-1865.950928,318.05244541424133,611.7329402956731,-9283.337950205741,0.6616915422854913,611.7329402956731,-9283.337950205741,0.6616915422854913,0.0033,-0.0,0.0142,0.0033,-0.0,0.0142,122.958321,1865.950928,0.133,14.168000000001484,14.168000000001484,14.168000000001484,14.168000000001484,40.619527903,121.005172499,0.0,0.0033,14.168000000001484,0.0
40.619421668,121.005105,13.2973,-0.17366026057343578,0.0027925268031909274,1.1486011807374683,-640.2598603296808,1727.093358000728,122.760513,-1865.881958,322.18237749343825,1203.5344411888332,-18292.960372736925,1.2254901960910196,1203.5344411888332,-18292.960372736925,1.2254901960910196,-0.0448,0.0,0.0108,-0.0448,0.0,0.0108,122.760513,1865.881958,0.125,14.270000000000437,14.270000000000437,14.270000000000437,14.270000000000437,40.619529486,121.00517384,0.0,-0.0448,14.270000000000437,0.0
40.619421668,121.005105,13.2973,-0.17819811662862106,0.003490658503988659,1.149648378288665,-637.7656537762927,1726.3707676916708,122.56282,-1865.812744,330.42064019539055,1213.4932673417688,-18473.393505179396,1.2376237623915727,1213.4932673417688,-18473.393505179396,1.2376237623915727,-0.0385,0.01,0.0075,-0.0385,0.01,0.0075,122.56282,1865.812744,0.125,14.370999999999185,14.370999999999185,14.370999999999185,14.370999999999185,40.619531069,121.00517518,0.0,-0.0385,14.370999999999185,0.0
40.619421668,121.005105,13.2973,-0.18133970928221085,0.0041887902047863905,1.1498229112138643,-636.955232786701,1725.4849415941542,122.365219,-1865.743408,336.09742153552793,1199.6590097734568,-18291.60203875118,1.3039215685943386,1199.6590097734568,-18291.60203875118,1.3039215685943386,-0.0184,0.01,-0.0008,-0.0184,0.01,-0.0008,122.365219,1865.743408,0.133,14.473000000001775,14.473000000001775,14.473000000001775,14.473000000001775,40.619532653,121.005176519,0.0,-0.0184,14.473000000001775,0.0
40.619421668,121.005105,13.2973,-0.1816887751326097,0.005235987755982988,1.147728516111471,-640.4582741292887,1723.8634825880863,121.993248,-1865.561523,336.6156127369571,606.9315820977251,-9281.400612065281,0.8557213930463489,606.9315820977251,-9281.400612065281,0.8557213930463489,-0.0019,0.0,-0.0154,-0.0019,0.0,-0.0154,121.993248,1865.561523,0.172,14.673999999999069,14.673999999999069,14.673999999999069,14.673999999999069,40.619535997,121.005178662,0.0,-0.0019,14.673999999999069,0.0
40.619421668,121.005105,13.2973,-0.18238690683340741,0.00471238898038469,1.1458086539342769,-643.956269415362,1722.1809808671742,121.805252,-1865.469971,337.9759836830904,1205.9925940309097,-18469.999712434863,2.0099009900515186,1205.9925940309097,-18469.999712434863,2.0099009900515186,0.0019,-0.0,-0.0227,0.0019,-0.0,-0.0227,121.805252,1865.469971,0.203,14.775000000001455,14.775000000001455,14.775000000001455,14.775000000001455,40.619537684,121.005179749,0.0,0.0019,14.775000000001455,0.0
40.619421668,121.005105,13.2973,-0.17889624832941878,0.003839724354387525,1.1435397259066844,-648.7691543136983,1721.4827426320546,121.617188,-1865.379028,331.70087174193395,1192.3253725612672,-18288.029686462363,2.372549019632214,1192.3253725612672,-18288.029686462363,2.372549019632214,0.0733,-0.01,-0.0254,0.0733,-0.01,-0.0254,121.617188,1865.379028,0.242,14.877000000000407,14.877000000000407,14.877000000000407,14.877000000000407,40.619539369,121.00518084,0.0,0.0733,14.877000000000407,0.0
40.619421668,121.005105,13.2973,-0.16755160819145562,0.0029670597283903604,1.1410962649538925,-654.9442923132507,1722.8974494308259,121.428818,-1865.28833,310.99509338109567,1190.478607855366,-18287.140490383925,2.833333333362437,1190.478607855366,-18287.140490383925,2.833333333362437,0.1434,-0.0,-0.0261,0.1434,-0.0,-0.0261,121.428818,1865.28833,0.289,14.97899999999936,14.97899999999936,14.97899999999936,14.97899999999936,40.619541053,121.005181937,0.0,0.1434,14.97899999999936,0.0
40.619421668,121.005105,13.2973,-0.143116998663535,0.002617993877991494,1.1360348101231086,-667.0957989765338,1725.5414576233652,121.054756,-1865.110718,266.0493211109292,602.262467658901,-9279.15780095203,1.751243781086413,602.262467658901,-9279.15780095203,1.751243781086413,0.0382,0.01,-0.0243,0.0382,0.01,-0.0243,121.054756,1865.110718,0.352,15.180000000000291,15.180000000000291,15.180000000000291,15.180000000000291,40.619544378,121.005184132,0.0,0.0382,15.180000000000291,0.0
40.619421668,121.005105,13.2973,-0.1446877949903299,0.003839724354387525,1.1332422833199183,-671.5621067039375,1723.2712595940307,120.865685,-1865.021606,268.80242194390974,1196.6899505098775,-18465.560455674346,3.6336633663816573,1196.6899505098775,-18465.560455674346,3.6336633663816573,-0.0568,0.02,-0.0258,-0.0568,0.02,-0.0258,120.865685,1865.021606,0.367,15.28099999999904,15.28099999999904,15.28099999999904,15.28099999999904,40.619546054,121.005185246,0.0,-0.0568,15.28099999999904,0.0
