lat_gps,lon_gps,alt_gps,roll,pitch,yaw,vn,ve,vf,vl,vu,ax,ay,az,af,al,au,wx,wy,wz,wf,wl,wu,pos_accuracy,vel_accuracy,navstat,numsats,posmode,velmode,orimode,lat,lon,depth,height,time,time_gps
40.591030001,121.030081667,16.1958,-0.10663961729685355,-0.06492624817418906,2.450267736874839,15.769293028622853,12.135109276120243,0.845346,-20.0,2.1870514611602125,0.0,0.0,0.0,0.0,0.0,0.0,0.0019,-0.0,0.0241,0.0019,-0.0,0.0241,0.845346,20.0,0.008,0.0,0.0,0.0,0.0,40.591036637,121.030063933,0.0,0.0019,0.0,0.0
40.591045001,121.03007,16.1958,-0.1228711793404008,-0.05393067388662478,2.4527111978276315,1531.2676434214752,1095.5900429106182,140.348923,-1892.785645,239.24293333739132,349.1266741277356,-4708.422002465746,0.07711442786033922,349.1266741277356,-4708.422002465746,0.07711442786033922,-0.0314,0.04,-0.001,-0.0314,0.04,-0.001,140.348923,1892.785645,0.031,0.40200000000186265,0.40200000000186265,0.40200000000186265,0.40200000000186265,40.59104732,121.03006166,0.0,-0.0314,0.40200000000186265,0.0
40.591045001,121.03007,16.1958,-0.12426744274199626,-0.04921828490624009,2.451838533201634,1530.6364866162205,1095.774373358683,140.446564,-1892.62854,241.2436470717437,1376.9270980533593,-18555.18176489648,0.30392156863057285,1376.9270980533593,-18555.18176489648,0.30392156863057285,-0.0012,0.05,-0.0052,-0.0012,0.05,-0.0052,140.446564,1892.62854,0.031,0.5040000000008149,0.5040000000008149,0.5040000000008149,0.5040000000008149,40.591047893,121.030059605,0.0,-0.0012,0.5040000000008149,0.0
40.591045001,121.03007,16.1958,-0.12199851471440364,-0.04415683007545653,2.450267736874839,1530.1581846695365,1097.2507948297298,140.545746,-1892.46814,236.31629594488598,1391.5420395710798,-18737.308316388942,0.3069306930620545,1391.5420395710798,-18737.308316388942,0.3069306930620545,0.0534,0.06,-0.0165,0.0534,0.06,-0.0165,140.545746,1892.46814,0.031,0.6050000000032014,0.6050000000032014,0.6050000000032014,0.6050000000032014,40.591048479,121.030057512,0.0,0.0534,0.6050000000032014,0.0
40.591045001,121.03007,16.1958,-0.11309733552923257,-0.03735004599267865,2.4467770783708507,1529.2052716771202,1101.9586263006443,140.644455,-1892.307373,218.69266240528614,1378.8672058965165,-18552.03306881802,0.30392156863057285,1378.8672058965165,-18552.03306881802,0.30392156863057285,0.1042,0.07,-0.0334,0.1042,0.07,-0.0334,140.644455,1892.307373,0.031,0.7070000000021537,0.7070000000021537,0.7070000000021537,0.7070000000021537,40.591049071,121.030055421,0.0,0.1042,0.7070000000021537,0.0
40.591045001,121.03007,16.1958,-0.08499753457212385,-0.021642082724729686,2.435083372382489,1523.0569476189585,1119.41746045554,140.786377,-1892.026855,163.67195559370955,700.4297363151625,-9413.068930304644,0.19402985074536963,700.4297363151625,-9413.068930304644,0.19402985074536963,0.183,0.1,-0.0686,0.183,0.1,-0.0686,140.786377,1892.026855,0.039,0.908000000003085,0.908000000003085,0.908000000003085,0.908000000003085,40.591050272,121.030052054,0.0,0.183,0.908000000003085,0.0
40.591045001,121.03007,15.7974,-0.06335545184739416,-0.012042771838760872,2.4268803248981152,1517.4021137612376,1132.1627601676691,140.856903,-1891.884521,121.51551248133912,1394.6228019974783,-18731.529911123187,0.4653465346592313,1394.6228019974783,-18731.529911123187,0.4653465346592313,0.2579,0.1,-0.0839,0.2579,0.1,-0.0839,140.856903,1891.884521,0.047,1.0090000000018335,1.0090000000018335,1.0090000000018335,1.0090000000018335,40.591050889,121.030050361,0.0,0.2579,1.0090000000018335,0.0
40.591060001,121.030061667,15.7974,-0.034732052114687155,-0.0020943951023931952,2.4174555469373455,1508.3934930884025,1147.9333581353244,139.548569,-1891.53064,66.03062533766538,1368.1232255042491,-18544.418039406173,0.5392156862800486,1368.1232255042491,-18544.418039406173,0.5392156862800486,0.3079,0.11,-0.0961,0.3079,0.11,-0.0961,139.548569,1891.53064,0.055,1.1110000000007858,1.1110000000007858,1.1110000000007858,1.1110000000007858,40.59106063,121.030059981,0.0,0.3079,1.1110000000007858,0.0
40.591060001,121.030061667,15.7974,-0.0024434609527920616,0.007853981633974483,2.4069835714253798,1497.1866015609544,1164.1551698493392,139.616211,-1891.387085,3.5798496070973074,1368.7863823670011,-18543.010637445375,0.5392156862800486,1368.7863823670011,-18543.010637445375,0.5392156862800486,0.3345,0.1,-0.1076,0.3345,0.1,-0.1076,139.616211,1891.387085,0.055,1.212999999999738,1.212999999999738,1.212999999999738,1.212999999999738,40.591061273,121.030058304,0.0,0.3345,1.212999999999738,0.0
40.591060001,121.030061667,15.7974,0.06894050545377602,0.024783675378319478,2.384468824074653,1464.953239986038,1196.59796383224,139.74379,-1891.099487,-133.60734103399253,695.2427363151866,-9408.455159160387,0.4278606965154304,695.2427363151866,-9408.455159160387,0.4278606965154304,0.384,0.06,-0.1211,0.384,0.06,-0.1211,139.74379,1891.099487,0.086,1.4140000000006694,1.4140000000006694,1.4140000000006694,1.4140000000006694,40.591062603,121.030055021,0.0,0.384,1.4140000000006694,0.0
40.591060001,121.030061667,15.7974,0.10855947947404729,0.030892327760299633,2.3726005851610914,1443.6493000983814,1211.3840171340728,139.806473,-1890.953613,-208.99016639312205,1384.2225049177875,-18722.312999557613,1.0792079207665788,1384.2225049177875,-18722.312999557613,1.0792079207665788,0.412,0.04,-0.1276,0.412,0.04,-0.1276,139.806473,1890.953613,0.109,1.515000000003056,1.515000000003056,1.515000000003056,1.515000000003056,40.591063289,121.030053374,0.0,0.412,1.515000000003056,0.0
40.591060001,121.030061667,15.7974,0.15376350710070044,0.03577924966588375,2.3586379511451367,1415.759966761751,1226.2713910382,139.867126,-1890.806885,-294.2714753691005,1371.2463333474188,-18537.3224021512,1.3823529411906699,1371.2463333474188,-18537.3224021512,1.3823529411906699,0.4092,0.02,-0.1346,0.4092,0.02,-0.1346,139.867126,1890.806885,0.141,1.6170000000020082,1.6170000000020082,1.6170000000020082,1.6170000000020082,40.591063993,121.03005174,0.0,0.4092,1.6170000000020082,0.0
40.591060001,121.030061667,15.7974,0.1921607506445757,0.039095375244672985,2.3450243829795814,1387.4533333254128,1238.9968228952328,139.925766,-1890.65918,-366.10313463924393,1385.4036237795426,-18719.397822014125,1.7029702970508038,1385.4036237795426,-18719.397822014125,1.7029702970508038,0.3649,0.0,-0.1439,0.3649,0.0,-0.1439,139.925766,1890.65918,0.172,1.7180000000007567,1.7180000000007567,1.7180000000007567,1.7180000000007567,40.591064713,121.030050119,0.0,0.3649,1.7180000000007567,0.0
40.591075001,121.030051667,15.7974,0.25394540616517497,0.0445058959258554,2.3146556539948797,1325.3069605057233,1266.0486576664382,139.206467,-1889.587036,-480.208203476345,689.140925738702,-9354.39126727417,1.1584158415776493,689.140925738702,-9354.39126727417,1.1584158415776493,0.2628,-0.01,-0.1681,0.2628,-0.01,-0.1681,139.206467,1889.587036,0.234,1.9200000000018917,1.9200000000018917,1.9200000000018917,1.9200000000018917,40.591076281,121.030049015,0.0,0.2628,1.9200000000018917,0.0
40.591075001,121.030051667,15.7974,0.27872908154349446,0.04782202150464463,2.297376894400136,1292.2004920242891,1281.9247299378696,139.249207,-1889.459961,-525.6769193698331,1378.7050198190634,-18707.524366568436,2.4752475247831454,1378.7050198190634,-18707.524366568436,2.4752475247831454,0.2566,-0.02,-0.1808,0.2566,-0.02,-0.1808,139.249207,1889.459961,0.25,2.0210000000006403,2.0210000000006403,2.0210000000006403,2.0210000000006403,40.591076944,121.030047692,0.0,0.2566,2.0210000000006403,0.0
40.591075001,121.030051667,15.7974,0.3033382239966145,0.05113814708343386,2.2785273384785976,1256.0401343252165,1298.4166506578886,139.289505,-1889.332153,-570.4866375099443,1365.5833823182627,-18522.86424462766,2.607843137188677,1365.5833823182627,-18522.86424462766,2.607843137188677,0.2524,-0.03,-0.1972,0.2524,-0.03,-0.1972,139.289505,1889.332153,0.266,2.1230000000032305,2.1230000000032305,2.1230000000032305,2.1230000000032305,40.591077626,121.030046384,0.0,0.2524,2.1230000000032305,0.0
40.591075001,121.030051667,15.7974,0.32864549815053223,0.054279739737023644,2.2579324533050644,1216.275450075393,1315.1077933138668,139.327133,-1889.203369,-616.1712519226962,1379.4765643735284,-18704.98385171692,2.633663366369267,1379.4765643735284,-18704.98385171692,2.633663366369267,0.2893,-0.04,-0.2153,0.2893,-0.04,-0.2153,139.327133,1889.203369,0.266,2.224000000001979,2.224000000001979,2.224000000001979,2.224000000001979,40.591078329,121.030045096,0.0,0.2893,2.224000000001979,0.0
40.591075001,121.030051667,15.7974,0.39147735122232813,0.05724679946541401,2.2099358988752202,1120.1898360334724,1343.0505759731702,139.389465,-1888.94519,-727.278014195094,693.4799253699211,-9397.737263638048,1.3582089552175876,693.4799253699211,-9397.737263638048,1.3582089552175876,0.3685,-0.1,-0.2418,0.3685,-0.1,-0.2418,139.389465,1888.94519,0.273,2.4250000000029104,2.4250000000029104,2.4250000000029104,2.4250000000029104,40.591079813,121.030042635,0.0,0.3685,2.4250000000029104,0.0
40.591075001,121.030051667,15.7974,0.4317944569433971,0.05585053606381855,2.179741702815718,1059.3043630000448,1352.805036243347,139.416885,-1888.813843,-796.7732904058961,1366.8322058963931,-18517.782774700016,2.676470588262787,1366.8322058963931,-18517.782774700016,2.676470588262787,0.3967,-0.14,-0.2503,0.3967,-0.14,-0.2503,139.416885,1888.813843,0.273,2.5270000000018626,2.5270000000018626,2.5270000000018626,2.5270000000018626,40.59108059,121.030041422,0.0,0.3967,2.5270000000018626,0.0
40.591075001,121.030051667,15.7974,0.47071529926287065,0.052708943410228755,2.1500711055318145,1000.2976269429003,1357.240756553382,139.440475,-1888.681885,-862.4761849507414,1367.0634804061992,-18516.48906881765,2.676470588262787,1367.0634804061992,-18516.48906881765,2.676470588262787,0.4097,-0.17,-0.2523,0.4097,-0.17,-0.2523,139.440475,1888.681885,0.273,2.629000000000815,2.629000000000815,2.629000000000815,2.629000000000815,40.591081395,121.030040241,0.0,0.4097,2.629000000000815,0.0
40.591075001,121.030051667,15.7974,0.5106833391335408,0.04799655442984406,2.1186551789959167,939.3551977343707,1357.0782930108212,139.459915,-1888.549194,-928.4489908977849,1380.7912375911358,-18698.506870845304,2.86138613854625,1380.7912375911358,-18698.506870845304,2.86138613854625,0.4224,-0.2,-0.2545,0.4224,-0.2,-0.2545,139.459915,1888.549194,0.289,2.7300000000032014,2.7300000000032014,2.7300000000032014,2.7300000000032014,40.591082227,121.030039093,0.0,0.4224,2.7300000000032014,0.0
40.591075001,121.030051667,15.8989,0.594982742004867,0.038397243543875255,2.0530307991209296,812.7862156386349,1339.7961532495938,139.473663,-1888.249512,-1062.6683657723568,693.8988209048663,-9394.276179230981,1.557213930369228,693.8988209048663,-9394.276179230981,1.557213930369228,0.4441,-0.22,-0.2538,0.4441,-0.22,-0.2538,139.473663,1888.249512,0.313,2.9310000000004948,2.9310000000004948,2.9310000000004948,2.9310000000004948,40.591084271,121.030036783,0.0,0.4441,2.9310000000004948,0.0
40.591075001,121.030051667,15.8989,0.6384414403795258,0.035430183815484885,2.0198695433330376,747.9803102493447,1322.8232516838345,139.475555,-1888.098022,-1129.173050949574,1367.4074019260597,-18510.764921098555,3.215686274428143,1367.4074019260597,-18510.764921098555,3.215686274428143,0.4558,-0.21,-0.2525,0.4558,-0.21,-0.2525,139.475555,1888.098022,0.328,3.033000000003085,3.033000000003085,3.033000000003085,3.033000000003085,40.591085333,121.030035662,0.0,0.4558,3.033000000003085,0.0
40.591075001,121.030051667,15.8989,0.6846926655573754,0.034557519189487726,1.987057353395544,681.169069158147,1298.049099414192,139.472565,-1887.946777,-1197.8618310575707,1380.9164851656255,-18692.54234676627,3.168316831722426,1380.9164851656255,-18692.54234676627,3.168316831722426,0.4901,-0.2,-0.2508,0.4901,-0.2,-0.2508,139.472565,1887.946777,0.32,3.1340000000018335,3.1340000000018335,3.1340000000018335,3.1340000000018335,40.591086421,121.030034588,0.0,0.4901,3.1340000000018335,0.0
40.591075001,121.030051667,15.8989,0.7326892199872195,0.03612831551628262,1.9552923610092474,613.3868141422546,1265.9002770363684,139.464706,-1887.795532,-1266.6789540840614,1367.3010392297313,-18507.799333523446,2.9901960784620876,1367.3010392297313,-18507.799333523446,2.9901960784620876,0.485,-0.19,-0.2501,0.485,-0.19,-0.2501,139.464706,1887.795532,0.305,3.236000000000786,3.236000000000786,3.236000000000786,3.236000000000786,40.591087535,121.030033559,0.0,0.485,3.236000000000786,0.0
40.591075001,121.030051667,15.8989,0.8353145800044861,0.047472955654245766,1.893507705488648,470.7755601486435,1178.0680486564072,139.430695,-1887.497314,-1404.4974599393242,693.6850497480295,-9390.533900454002,1.0099502487515395,693.6850497480295,-9390.533900454002,1.0099502487515395,0.5007,-0.15,-0.2446,0.5007,-0.15,-0.2446,139.430695,1887.497314,0.203,3.437000000001717,3.437000000001717,3.437000000001717,3.437000000001717,40.591089833,121.030031705,0.0,0.5007,3.437000000001717,0.0
40.591075001,121.030051667,15.8989,0.8831366015091308,0.05619960191421741,1.8666296350079354,404.06566404088125,1129.317737679572,139.409546,-1887.347412,-1463.8605395643128,1366.7602549160001,-18503.406000190065,1.303921568640845,1366.7602549160001,-18503.406000190065,1.303921568640845,0.4831,-0.14,-0.2392,0.4831,-0.14,-0.2392,139.409546,1887.347412,0.133,3.5390000000006694,3.5390000000006694,3.5390000000006694,3.5390000000006694,40.591091012,121.03003081,0.0,0.4831,3.5390000000006694,0.0
40.591075001,121.030051667,15.8989,0.9293878266869805,0.06632251157578452,1.8407987620784194,338.65580940904937,1077.92957125272,139.384491,-1887.197876,-1517.9999820987057,1380.0444653139257,-18685.127484707005,0.623762376222885,1380.0444653139257,-18685.127484707005,0.623762376222885,0.4823,-0.14,-0.2363,0.4823,-0.14,-0.2363,139.384491,1887.197876,0.063,3.640000000003056,3.640000000003056,3.640000000003056,3.640000000003056,40.591092209,121.030029955,0.0,0.4823,3.640000000003056,0.0
40.591075001,121.030051667,15.8989,0.9758135847900296,0.07731808586334879,1.8158405537749003,274.2749529490643,1021.6553597495813,139.355728,-1887.049072,-1568.8746907277884,1366.2326274650143,-18500.48109822925,-0.07843137254982525,1366.2326274650143,-18500.48109822925,-0.07843137254982525,0.4783,-0.14,-0.2294,0.4783,-0.14,-0.2294,139.355728,1887.049072,-0.008,3.742000000002008,3.742000000002008,3.742000000002008,3.742000000002008,40.591093421,121.030029139,0.0,0.4783,3.742000000002008,0.0
40.591075001,121.030051667,15.9927,1.0663961729685354,0.09843656981248018,1.7673204005694583,154.7834496782595,898.7179665463774,139.32785,-1886.66626,-1657.4890516393928,693.1733830813654,-9386.399303439095,-0.8557213930308608,693.1733830813654,-9386.399303439095,-0.8557213930308608,0.4391,-0.16,-0.2037,0.4391,-0.16,-0.2037,139.32785,1886.66626,-0.172,3.9430000000029395,3.9430000000029395,3.9430000000029395,3.9430000000029395,40.591096286,121.030026611,0.0,0.4391,3.9430000000029395,0.0
40.591075001,121.030051667,15.9927,1.103397153110815,0.10821041362364843,1.7435839227423353,103.33922007030758,844.5593150419708,139.309097,-1886.473267,-1689.4463729718402,1365.775460798343,-18494.83595117037,-2.5294117647318646,1365.775460798343,-18494.83595117037,-2.5294117647318646,0.3382,-0.17,-0.1882,0.3382,-0.17,-0.1882,139.309097,1886.473267,-0.258,4.045000000001892,4.045000000001892,4.045000000001892,4.045000000001892,40.591097755,121.030025381,0.0,0.3382,4.045000000001892,0.0
40.591075001,121.030051667,15.9927,1.1316714869931233,0.1181587903600161,1.7179275827380187,55.23396681972131,802.2134733271599,139.285507,-1886.280884,-1711.9751431670377,1379.0644257596618,-18676.048356667055,-3.326732673308548,1379.0644257596618,-18676.048356667055,-3.326732673308548,0.2279,-0.17,-0.1781,0.2279,-0.17,-0.1781,139.285507,1886.280884,-0.336,4.14600000000064,4.14600000000064,4.14600000000064,4.14600000000064,40.591099248,121.0300242,0.0,0.2279,4.14600000000064,0.0
40.591075001,121.030051667,15.9927,1.1463322527098758,0.1270599695451872,1.6948892366116934,17.02987281534761,780.274946207234,139.257401,-1886.089111,-1722.674059407419,1365.2686372202315,-18491.0697152167,-3.980392156761665,1365.2686372202315,-18491.0697152167,-3.980392156761665,0.1128,-0.17,-0.1729,0.1128,-0.17,-0.1729,139.257401,1886.089111,-0.406,4.2480000000032305,4.2480000000032305,4.2480000000032305,4.2480000000032305,40.591100761,121.030023064,0.0,0.1128,4.2480000000032305,0.0
40.591075001,121.030051667,15.9927,1.1459831868594768,0.1439896632895322,1.6489870772842425,-47.817879088861865,782.8540863107562,139.184464,-1885.712036,-1720.5044010336692,692.4600199098221,-9381.651920524342,-2.567164179139047,692.4600199098221,-9381.651920524342,-2.567164179139047,-0.0483,-0.17,-0.1667,-0.0483,-0.17,-0.1667,139.184464,1885.712036,-0.516,4.449000000000524,4.449000000000524,4.449000000000524,4.449000000000524,40.591103833,121.030020997,0.0,-0.0483,4.449000000000524,0.0
40.591075001,121.030051667,15.9927,1.1355112113475108,0.15184364492350666,1.6262977970083163,-76.84159497958696,800.0439720395876,139.143463,-1885.522461,-1711.309788207629,1377.658049472398,-18668.539217380665,-5.643564356302292,1377.658049472398,-18668.539217380665,-5.643564356302292,-0.0918,-0.17,-0.1611,-0.0918,-0.17,-0.1611,139.143463,1885.522461,-0.57,4.55000000000291,4.55000000000291,4.55000000000291,4.55000000000291,40.591105402,121.03002,0.0,-0.0918,4.55000000000291,0.0
40.591075001,121.030051667,15.9927,1.1210249785559578,0.1583013631558857,1.6041321155079882,-102.95816006998989,823.000278715728,139.098099,-1885.333984,-1698.7945878088274,1363.7068529551843,-18483.666509993785,-6.049019607905272,1363.7068529551843,-18483.666509993785,-6.049019607905272,-0.1469,-0.17,-0.1461,-0.1469,-0.17,-0.1461,139.098099,1885.333984,-0.617,4.652000000001863,4.652000000001863,4.652000000001863,4.652000000001863,40.591106987,121.03001905,0.0,-0.1469,4.652000000001863,0.0
40.591075001,121.030051667,15.9927,1.0986847641304305,0.16353735091186866,1.5826645657084581,-126.02350514425846,858.27585556734,139.048782,-1885.146362,-1679.461947224415,1363.2233529551793,-18481.827078621216,-6.431372549085671,1363.2233529551793,-18481.827078621216,-6.431372549085671,-0.227,-0.17,-0.1315,-0.227,-0.17,-0.1315,139.048782,1885.146362,-0.656,4.754000000000815,4.754000000000815,4.754000000000815,4.754000000000815,40.591108588,121.030018144,0.0,-0.227,4.754000000000815,0.0
40.591075001,121.030051667,0.0,1.0293951928262555,0.1684242728174528,1.542871058762987,-160.86468239714415,966.608403539938,138.98259,-1884.834839,-1616.0785169673852,691.4556716385872,-9377.287756175458,-3.4975124377947395,691.4556716385872,-9377.287756175458,-3.4975124377947395,-0.3755,-0.15,-0.1016,-0.3755,-0.15,-0.1016,138.98259,1884.834839,-0.703,4.955000000001746,4.955000000001746,4.955000000001746,4.955000000001746,40.59111116,121.030016492,0.0,-0.3755,4.955000000001746,0.0
40.591075001,121.030051667,0.0,0.9815731713216109,0.1684242728174528,1.5227997723650526,-175.8159110487856,1039.5153014073546,138.945892,-1884.678223,-1568.3797927278888,1375.701901007145,-18660.180425973787,-7.039603960483265,1375.701901007145,-18660.180425973787,-7.039603960483265,-0.4265,-0.15,-0.0886,-0.4265,-0.15,-0.0886,138.945892,1884.678223,-0.711,5.056000000000495,5.056000000000495,5.056000000000495,5.056000000000495,40.591112471,121.030015692,0.0,-0.4265,5.056000000000495,0.0
40.591075001,121.030051667,0.0,0.9334020839665674,0.16667894356545848,1.5056955456955077,-187.03468454901144,1111.0937201126221,138.906708,-1884.522095,-1516.973265728019,1361.8304705536523,-18475.706813256307,-7.049019607664131,1361.8304705536523,-18475.706813256307,-7.049019607664131,-0.4884,-0.15,-0.0796,-0.4884,-0.15,-0.0796,138.906708,1884.522095,-0.719,5.158000000003085,5.158000000003085,5.158000000003085,5.158000000003085,40.591113793,121.030014922,0.0,-0.4884,5.158000000003085,0.0
40.591075001,121.030051667,0.0,0.8782496796035466,0.16336281798666924,1.489289450726761,-196.50778449060132,1190.5668556168916,138.864807,-1884.366821,-1453.9798900297403,1374.899079224957,-18657.097237854938,-7.118811881276326,1374.899079224957,-18657.097237854938,-7.118811881276326,-0.554,-0.15,-0.0686,-0.554,-0.15,-0.0686,138.864807,1884.366821,-0.719,5.2590000000018335,5.2590000000018335,5.2590000000018335,5.2590000000018335,40.591115124,121.03001418,0.0,-0.554,5.2590000000018335,0.0
40.591075001,121.030051667,0.0,0.7620107514207243,0.15079644737231007,1.457873524190863,-211.44223359974242,1347.3087859421998,138.77243,-1884.061768,-1307.2865839366277,686.9922277189121,-9327.038455393136,-3.366336633644451,686.9922277189121,-9327.038455393136,-3.366336633644451,-0.5291,-0.16,-0.0505,-0.5291,-0.16,-0.0505,138.77243,1884.061768,-0.68,5.461000000002969,5.461000000002969,5.461000000002969,5.461000000002969,40.591117794,121.030012821,0.0,-0.5291,5.461000000002969,0.0
40.591075001,121.030051667,0.0,0.7091272750852962,0.14119713648634125,1.4428636926237126,-217.43524962535886,1413.1507403482015,138.723495,-1883.908569,-1234.5375662082258,1373.4999505120684,-18652.56008934003,-6.267326732750925,1373.4999505120684,-18652.56008934003,-6.267326732750925,-0.474,-0.18,-0.0441,-0.474,-0.18,-0.0441,138.723495,1883.908569,-0.633,5.562000000001717,5.562000000001717,5.562000000001717,5.562000000001717,40.591119149,121.030012161,0.0,-0.474,5.562000000001717,0.0
40.591075001,121.030051667,0.0,0.6611307206554521,0.1296779634231787,1.427853861056561,-223.7587051309029,1469.5984503289535,138.672211,-1883.756104,-1165.3239127065779,1359.531480406122,-18468.19709822892,-5.7450980392746995,1359.531480406122,-18468.19709822892,-5.7450980392746995,-0.4556,-0.19,-0.0406,-0.4556,-0.19,-0.0406,138.672211,1883.756104,-0.586,5.664000000000669,5.664000000000669,5.664000000000669,5.664000000000669,40.591120512,121.030011528,0.0,-0.4556,5.664000000000669,0.0
40.591075001,121.030051667,0.0,0.6143558967020041,0.1165879940332212,1.4130185624146088,-230.6082429119328,1521.5413820472472,138.618744,-1883.60437,-1094.9486350596812,1372.4628118487583,-18649.548217381114,-5.178217821659823,1372.4628118487583,-18649.548217381114,-5.178217821659823,-0.4331,-0.19,-0.0408,-0.4331,-0.19,-0.0408,138.618744,1883.60437,-0.523,5.765000000003056,5.765000000003056,5.765000000003056,5.765000000003056,40.591121882,121.030010922,0.0,-0.4331,5.765000000003056,0.0
40.591075001,121.030051667,0.0,0.5281366316534841,0.08744099552491591,1.3829988992803068,-249.56440805878316,1608.2000006649805,138.503754,-1883.307007,-957.8303979660583,689.0734029943536,-9369.686602116222,-1.8258706467907562,689.0734029943536,-9369.686602116222,-1.8258706467907562,-0.3442,-0.19,-0.0509,-0.3442,-0.19,-0.0509,138.503754,1883.307007,-0.367,5.966000000000349,5.966000000000349,5.966000000000349,5.966000000000349,40.591124622,121.030009828,0.0,-0.3442,5.966000000000349,0.0
40.591075001,121.030051667,0.0,0.4953244417159907,0.07417649320975901,1.369036265264352,-261.7362126810549,1637.4608701853651,138.443649,-1883.157715,-903.1421571694146,1357.2906764361205,-18462.330538746846,-2.7549019607143546,1357.2906764361205,-18462.330538746846,-2.7549019607143546,-0.2792,-0.18,-0.0643,-0.2792,-0.18,-0.0643,138.443649,1883.157715,-0.281,6.0680000000029395,6.0680000000029395,6.0680000000029395,6.0680000000029395,40.591126012,121.030009302,0.0,-0.2792,6.0680000000029395,0.0
40.591075001,121.030051667,0.0,0.4687954370856769,0.061959188445798695,1.3547245653979987,-276.6927660165479,1659.017511050968,138.381424,-1883.009277,-857.890092935974,1356.6806274649161,-18460.875264895512,-2.0686274510016407,1356.6806274649161,-18460.875264895512,-2.0686274510016407,-0.242,-0.16,-0.078,-0.242,-0.16,-0.078,138.381424,1883.009277,-0.211,6.170000000001892,6.170000000001892,6.170000000001892,6.170000000001892,40.591127406,121.030008801,0.0,-0.242,6.170000000001892,0.0
40.591075001,121.030051667,0.0,0.4447098934081552,0.05166174585903215,1.340238332606446,-294.658558603494,1676.696973425657,138.317001,-1882.861816,-816.1885958186405,1369.4752574427114,-18642.196198250793,-1.3960396039776939,1369.4752574427114,-18642.196198250793,-1.3960396039776939,-0.2265,-0.15,-0.091,-0.2265,-0.15,-0.091,138.317001,1882.861816,-0.141,6.27100000000064,6.27100000000064,6.27100000000064,6.27100000000064,40.591128806,121.030008327,0.0,-0.2265,6.27100000000064,0.0
40.591075001,121.030051667,0.0,0.4021238596594935,0.03735004599267865,1.3107422682477419,-338.60177230152885,1702.5735218079676,138.181,-1882.573486,-741.4642017959254,687.467661688357,-9366.037243737697,-0.15422885572067843,687.467661688357,-9366.037243737697,-0.15422885572067843,-0.1745,-0.1,-0.1152,-0.1745,-0.1,-0.1152,138.181,1882.573486,-0.031,6.472000000001572,6.472000000001572,6.472000000001572,6.472000000001572,40.591131599,121.030007495,0.0,-0.1745,6.472000000001572,0.0
40.591075001,121.030051667,0.0,0.38275070496235647,0.032812189937493394,1.2946852391293937,-365.4309762353869,1711.4167294136503,138.108627,-1882.426392,-707.1888673054034,1327.967567315868,-18100.253769342205,0.0,1327.967567315868,-18100.253769342205,0.0,-0.1573,-0.08,-0.1219,-0.1573,-0.08,-0.1219,138.108627,1882.426392,0.0,6.576000000000931,6.576000000000931,6.576000000000931,6.576000000000931,40.591133042,121.030007098,0.0,-0.1573,6.576000000000931,0.0
40.591075001,121.030051667,0.0,0.36791540632040465,0.030543261909900768,1.2805480721882396,-390.2513212156627,1716.4291020296084,138.035614,-1882.282959,-680.895008450945,1366.6892475416869,-18636.46494082498,0.07920792079306066,1366.6892475416869,-18636.46494082498,0.07920792079306066,-0.137,-0.06,-0.1228,-0.137,-0.06,-0.1228,138.035614,1882.282959,0.008,6.67699999999968,6.67699999999968,6.67699999999968,6.67699999999968,40.591134461,121.030006735,0.0,-0.137,6.67699999999968,0.0
40.591075001,121.030051667,0.0,0.3544763710800483,0.029321531433504737,1.2671090369478837,-414.53010236204506,1719.866657269833,137.960739,-1882.140503,-657.0460516963215,1352.5562646715348,-18452.357872080433,0.07843137254702788,1352.5562646715348,-18452.357872080433,0.07843137254702788,-0.131,-0.05,-0.1177,-0.131,-0.05,-0.1177,137.960739,1882.140503,0.008,6.77900000000227,6.77900000000227,6.77900000000227,6.77900000000227,40.591135884,121.030006396,0.0,-0.131,6.77900000000227,0.0
40.591075001,121.030051667,16.0942,0.3244567079457459,0.028797932657906436,1.2442452237467578,-458.0535453363981,1728.0747716812677,137.813263,-1881.878418,-603.6583543200402,685.6381243749327,-9362.57919398647,-0.039800995024691206,685.6381243749327,-9362.57919398647,-0.039800995024691206,-0.1562,-0.03,-0.0929,-0.1562,-0.03,-0.0929,137.813263,1881.878418,-0.008,6.980000000003201,6.980000000003201,6.980000000003201,6.980000000003201,40.591138555,121.030005861,0.0,-0.1562,6.980000000003201,0.0
40.591075001,121.030051667,16.0942,0.3090978105281958,0.029321531433504737,1.2351695116363868,-476.2494801531809,1732.3614430078915,137.737595,-1881.746704,-576.2400255567896,1350.3685784452434,-18448.497098228716,-0.22549019608074758,1350.3685784452434,-18448.497098228716,-0.22549019608074758,-0.1494,-0.02,-0.0793,-0.1494,-0.02,-0.0793,137.737595,1881.746704,-0.023,7.082000000002154,7.082000000002154,7.082000000002154,7.082000000002154,40.591139905,121.030005607,0.0,-0.1494,7.082000000002154,0.0
40.591075001,121.030051667,16.0942,0.2935643801854462,0.030019663134302467,1.227664595852811,-491.7734472911454,1736.9066816968698,137.661072,-1881.615601,-548.3993962505166,1362.9809109079774,-18629.8574358744,-0.38613861386617065,1362.9809109079774,-18629.8574358744,-0.38613861386617065,-0.1495,-0.01,-0.0686,-0.1495,-0.01,-0.0686,137.661072,1881.615601,-0.039,7.183000000000902,7.183000000000902,7.183000000000902,7.183000000000902,40.591141257,121.030005367,0.0,-0.1495,7.183000000000902,0.0
40.591075001,121.030051667,16.0942,0.2789036144686939,0.0307177948351002,1.2212068776204328,-505.27127347072184,1741.0115398072733,137.583527,-1881.484985,-522.0102845446554,1348.8581078569928,-18445.931225679673,-0.5392156862800486,1348.8581078569928,-18445.931225679673,-0.5392156862800486,-0.1366,-0.01,-0.0586,-0.1366,-0.01,-0.0586,137.583527,1881.484985,-0.055,7.2849999999998545,7.2849999999998545,7.2849999999998545,7.2849999999998545,40.59114261,121.030005138,0.0,-0.1366,7.2849999999998545,0.0
40.591075001,121.030051667,16.0942,0.25080381351158515,0.030892327760299633,1.2107349021084666,-527.0169285666149,1748.8082519994964,137.427429,-1881.227905,-470.98576371151296,683.718552235638,-9359.342810901908,-0.38805970149073926,683.718552235638,-9359.342810901908,-0.38805970149073926,-0.1407,-0.02,-0.0377,-0.1407,-0.02,-0.0377,137.427429,1881.227905,-0.078,7.486000000000786,7.486000000000786,7.486000000000786,7.486000000000786,40.591145293,121.03000472,0.0,-0.1407,7.486000000000786,0.0
40.591075001,121.030051667,16.0942,0.23596851486963336,0.030019663134302467,1.2070697106792787,-534.7006893251942,1753.4414626892603,137.348206,-1881.098389,-443.7723455006216,1359.8832276906398,-18624.736524312393,-0.7722772277045242,1359.8832276906398,-18624.736524312393,-0.7722772277045242,-0.1608,-0.02,-0.0287,-0.1608,-0.02,-0.0287,137.348206,1881.098389,-0.078,7.587000000003172,7.587000000003172,7.587000000003172,7.587000000003172,40.591146648,121.030004516,0.0,-0.1608,7.587000000003172,0.0
40.591075001,121.030051667,16.0942,0.2183406894244906,0.028099800957108706,1.204102650950888,-540.9647227370738,1759.3045386128986,137.268494,-1880.969238,-411.20874139709866,1345.7695490334315,-18440.874882542365,-0.7647058823607962,1345.7695490334315,-18440.874882542365,-0.7647058823607962,-0.1823,-0.03,-0.0187,-0.1823,-0.03,-0.0187,137.268494,1880.969238,-0.078,7.689000000002125,7.689000000002125,7.689000000002125,7.689000000002125,40.591148004,121.030004318,0.0,-0.1823,7.689000000002125,0.0
40.591075001,121.030051667,16.0942,0.20053833105414848,0.02548180707911721,1.2020082558484948,-545.4055578978381,1765.2093548516932,137.188599,-1880.839966,-378.08518006090105,1344.986264719698,-18439.607509993333,-0.5392156862800486,1344.986264719698,-18439.607509993333,-0.5392156862800486,-0.1774,-0.03,-0.0116,-0.1774,-0.03,-0.0116,137.188599,1880.839966,-0.055,7.791000000001077,7.791000000001077,7.791000000001077,7.791000000001077,40.59114936,121.030004123,0.0,-0.1774,7.791000000001077,0.0
40.591075001,121.030051667,15.8989,0.16929693744344995,0.01884955592153876,1.1997393278209023,-550.1812675340321,1775.0630311028424,136.89743,-1880.643188,-319.3924159682629,681.0817412903766,-9356.433771100927,0.0,681.0817412903766,-9356.433771100927,0.0,-0.1509,-0.04,0.0007,-0.1509,-0.04,0.0007,136.89743,1880.643188,0.0,7.992000000002008,7.992000000002008,7.992000000002008,7.992000000002008,40.591152364,121.030005404,0.0,-0.1509,7.992000000002008,0.0
40.591075001,121.030051667,15.8989,0.15428710587629874,0.015707963267948967,1.1992157290453034,-551.5216391413416,1779.3931576045727,136.750397,-1880.543823,-291.0835173296296,1353.9643267494498,-18619.245772507933,0.22772277228004936,1353.9643267494498,-18619.245772507933,0.22772277228004936,-0.1485,-0.03,0.0037,-0.1485,-0.03,0.0037,136.750397,1880.543823,0.023,8.093000000000757,8.093000000000757,8.093000000000757,8.093000000000757,40.59115388,121.030006051,0.0,-0.1485,8.093000000000757,0.0
40.591075001,121.030051667,15.8989,0.13962634015954636,0.012915436464758038,1.1990411961201042,-552.3158953456438,1783.3401008096846,136.603271,-1880.444458,-263.39524082347424,1339.2477549157175,-18435.729980581527,0.5392156862800486,1339.2477549157175,-18435.729980581527,0.5392156862800486,-0.1405,-0.02,0.0024,-0.1405,-0.02,0.0024,136.603271,1880.444458,0.055,8.194999999999709,8.194999999999709,8.194999999999709,8.194999999999709,40.591155397,121.030006699,0.0,-0.1405,8.194999999999709,0.0
40.591075001,121.030051667,15.8989,0.12479104151759457,0.010471975511965976,1.1990411961201042,-552.8845283257245,1786.9629231907215,136.456238,-1880.345093,-235.372450669155,1351.051861354215,-18617.278148074947,0.8514851484947318,1351.051861354215,-18617.278148074947,0.8514851484947318,-0.1279,-0.02,0.0014,-0.1279,-0.02,0.0014,136.456238,1880.345093,0.086,8.296000000002095,8.296000000002095,8.296000000002095,8.296000000002095,40.591156913,121.030007346,0.0,-0.1279,8.296000000002095,0.0
40.591075001,121.030051667,15.8989,0.09861110273767963,0.00942477796076938,1.1985175973445064,-555.3569572756021,1791.7539316668147,136.164856,-1880.148682,-186.26981687577236,674.0834455407667,-9307.666742521957,0.5396039603930075,674.0834455407667,-9307.666742521957,0.5396039603930075,-0.1267,0.0,-0.0055,-0.1267,0.0,-0.0055,136.164856,1880.148682,0.109,8.49800000000323,8.49800000000323,8.49800000000323,8.49800000000323,40.591159916,121.030008632,0.0,-0.1267,8.49800000000323,0.0
40.591075001,121.030051667,15.8989,0.08499753457212385,0.010297442586766544,1.1979939985689076,-557.1570054371504,1793.5369205619525,136.017639,-1880.049438,-160.89774305659202,1346.7092970463898,-18614.350871517774,1.0099009901115232,1346.7092970463898,-18614.350871517774,1.0099009901115232,-0.1386,0.01,-0.0084,-0.1386,0.01,-0.0084,136.017639,1880.049438,0.102,8.599000000001979,8.599000000001979,8.599000000001979,8.599000000001979,40.591161432,121.030009282,0.0,-0.1386,8.599000000001979,0.0
40.591075001,121.030051667,15.8989,0.07208209810736581,0.012042771838760872,1.196946801017711,-559.821077652597,1794.581801433329,135.870392,-1879.950439,-136.93408229771651,1332.0626666803496,-18430.886657052066,0.8431372549106214,1332.0626666803496,-18430.886657052066,0.8431372549106214,-0.1288,0.02,-0.0103,-0.1288,0.02,-0.0103,135.870392,1879.950439,0.086,8.701000000000931,8.701000000000931,8.701000000000931,8.701000000000931,40.591162947,121.030009934,0.0,-0.1288,8.701000000000931,0.0
40.591075001,121.030051667,15.8989,0.05951572749300664,0.014137166941154071,1.1958996034665144,-562.3261267284555,1795.3082489958724,135.723022,-1879.851562,-113.66730033566813,1343.7922970463535,-18612.39170320092,0.544554455452292,1343.7922970463535,-18612.39170320092,0.544554455452292,-0.1115,0.02,-0.0131,-0.1115,0.02,-0.0131,135.723022,1879.851562,0.055,8.80199999999968,8.80199999999968,8.80199999999968,8.80199999999968,40.591164462,121.030010588,0.0,-0.1115,8.80199999999968,0.0
40.591075001,121.030051667,14.9926,0.03874630939427412,0.01815142422074103,1.1934561425137225,-567.4085875110189,1795.527037774135,135.41452,-1879.681152,-75.28929414376745,670.3689108873223,-9305.352237571477,-0.15346534653379112,670.3689108873223,-9305.352237571477,-0.15346534653379112,-0.1064,0.01,-0.0107,-0.1064,0.01,-0.0107,135.41452,1879.681152,-0.031,9.004000000000815,9.004000000000815,9.004000000000815,9.004000000000815,40.591167374,121.030012222,0.0,-0.1064,9.004000000000815,0.0
40.591075001,121.030051667,14.9926,0.02897246558310587,0.019024088846738195,1.1925834778877251,-569.0546987450966,1795.5757595442644,135.258789,-1879.595215,-57.075019008390306,1339.1959306614258,-18609.853613421656,-0.623762376222885,1339.1959306614258,-18609.853613421656,-0.623762376222885,-0.1018,0.0,-0.0079,-0.1018,0.0,-0.0079,135.258789,1879.595215,-0.063,9.105000000003201,9.105000000003201,9.105000000003201,9.105000000003201,40.591168844,121.030013049,0.0,-0.1018,9.105000000003201,0.0
40.591075001,121.030051667,14.9926,0.01658062789394613,0.018500490071139894,1.1920598791121273,-569.8767556300595,1795.8034974417146,135.102951,-1879.509644,-33.757986174789515,1324.538735307723,-18426.565137444177,-1.0000000000102718,1324.538735307723,-18426.565137444177,-1.0000000000102718,-0.1215,-0.02,-0.0031,-0.1215,-0.02,-0.0031,135.102951,1879.509644,-0.102,9.207000000002154,9.207000000002154,9.207000000002154,9.207000000002154,40.591170313,121.030013878,0.0,-0.1215,9.207000000002154,0.0
40.591075001,121.030051667,14.9926,0.005061454830783556,0.016231562043547264,1.191885346186928,-569.9931702241734,1795.9434213089432,134.947128,-1879.423828,-11.81861470492416,1336.1101782343771,-18608.156713101856,-1.1584158415985122,1336.1101782343771,-18608.156713101856,-1.1584158415985122,-0.1058,-0.03,0.0015,-0.1058,-0.03,0.0015,134.947128,1879.423828,-0.117,9.308000000000902,9.308000000000902,9.308000000000902,9.308000000000902,40.591171782,121.030014706,0.0,-0.1058,9.308000000000902,0.0
40.591075001,121.030051667,14.9926,-0.016406094968746697,0.007504915783575617,1.1925834778877251,-568.5072851661272,1796.006578162841,134.638504,-1879.253662,29.693541951282576,669.8433034794834,-9349.520706424342,-0.6218905472608001,669.8433034794834,-9349.520706424342,-0.6218905472608001,-0.0855,-0.05,0.0047,-0.0855,-0.05,0.0047,134.638504,1879.253662,-0.125,9.509000000001834,9.509000000001834,9.509000000001834,9.509000000001834,40.591174693,121.030016344,0.0,-0.0855,9.509000000001834,0.0
40.591075001,121.030051667,14.9926,-0.024783675378319478,0.0019198621771937625,1.1932816095885233,-567.375035999468,1795.9140817031398,134.482788,-1879.167725,46.207672727569914,1318.4587058958962,-18423.21299038532,-1.0000000000102718,1318.4587058958962,-18423.21299038532,-1.0000000000102718,-0.0929,-0.06,0.0029,-0.0929,-0.06,0.0029,134.482788,1879.167725,-0.102,9.611000000000786,9.611000000000786,9.611000000000786,9.611000000000786,40.591176163,121.03001717,0.0,-0.0929,9.611000000000786,0.0
40.591075001,121.030051667,14.9926,-0.034557519189487726,-0.003490658503988659,1.1936306754389217,-566.9545096760672,1795.3518694697846,134.327072,-1879.081665,65.31401721365056,1316.9320784448998,-18422.369264895115,-0.7647058823607962,1316.9320784448998,-18422.369264895115,-0.7647058823607962,-0.1039,-0.05,0.0024,-0.1039,-0.05,0.0024,134.327072,1879.081665,-0.078,9.712999999999738,9.712999999999738,9.712999999999738,9.712999999999738,40.591177633,121.030017995,0.0,-0.1039,9.712999999999738,0.0
40.591075001,121.030051667,14.9926,-0.04642575810304917,-0.008377580409572781,1.193805208364121,-566.8937379647527,1794.2866937464494,134.171371,-1878.995483,88.27646708046073,1328.4294158101948,-18603.915672827738,-0.4653465346424697,1328.4294158101948,-18603.915672827738,-0.4653465346424697,-0.1291,-0.04,-0.0023,-0.1291,-0.04,-0.0023,134.171371,1878.995483,-0.047,9.814000000002125,9.814000000002125,9.814000000002125,9.814000000002125,40.591179103,121.03001882,0.0,-0.1291,9.814000000002125,0.0
40.591075001,121.030051667,14.7973,-0.06824237375297829,-0.013439035240356337,1.1927580108129243,-569.1102677734696,1790.8485052622852,133.806854,-1878.828735,129.91083102546636,665.7057412904478,-9347.406641747735,0.039800995024691206,665.7057412904478,-9347.406641747735,0.039800995024691206,-0.0812,-0.01,-0.0116,-0.0812,-0.01,-0.0116,133.806854,1878.828735,0.008,10.015000000003056,10.015000000003056,10.015000000003056,10.015000000003056,40.5911823,121.030021004,0.0,-0.0812,10.015000000003056,0.0
40.591075001,121.030051667,14.7973,-0.07801621756414652,-0.013264502315156905,1.1913617474113292,-571.4573611197286,1788.5764918136958,133.622711,-1878.744751,148.21432663386432,1310.026578444829,-18419.066186463708,0.30392156863057285,1310.026578444829,-18419.066186463708,0.30392156863057285,-0.0889,0.01,-0.014,-0.0889,0.01,-0.014,133.622711,1878.744751,0.031,10.117000000002008,10.117000000002008,10.117000000002008,10.117000000002008,40.591183913,121.030022109,0.0,-0.0889,10.117000000002008,0.0
40.591075001,121.030051667,14.7973,-0.08587019919812101,-0.011519173063162575,1.1897909510845348,-573.8737596363909,1786.4404030430817,133.438354,-1878.661011,162.70398265204372,1321.1718217985485,-18600.604069537407,0.544554455452292,1321.1718217985485,-18600.604069537407,0.544554455452292,-0.048,0.03,-0.013,-0.048,0.03,-0.013,133.438354,1878.661011,0.055,10.218000000000757,10.218000000000757,10.218000000000757,10.218000000000757,40.591185525,121.030023218,0.0,-0.048,10.218000000000757,0.0
40.591075001,121.030051667,14.7973,-0.08970992355250854,-0.008377580409572781,1.1883946876829385,-575.8532556667384,1785.07121670938,133.253983,-1878.577515,169.48123188910824,1306.411598052635,-18417.42661783624,0.686274509810971,1306.411598052635,-18417.42661783624,0.686274509810971,-0.0285,0.04,-0.0113,-0.0285,0.04,-0.0113,133.253983,1878.577515,0.07,10.319999999999709,10.319999999999709,10.319999999999709,10.319999999999709,40.591187136,121.030024329,0.0,-0.0285,10.319999999999709,0.0
40.591075001,121.030051667,14.7973,-0.0937241808320955,-0.0005235987755982988,1.1859512267301466,-579.0048203273449,1783.2255051862412,132.88829,-1878.413208,175.94231834027218,661.1357711412153,-9345.33934324028,0.38805970149073926,661.1357711412153,-9345.33934324028,0.38805970149073926,-0.0168,0.04,-0.0065,-0.0168,0.04,-0.0065,132.88829,1878.413208,0.078,10.52100000000064,10.52100000000064,10.52100000000064,10.52100000000064,40.591190322,121.030026541,0.0,-0.0168,10.52100000000064,0.0
40.591075001,121.030051667,14.7973,-0.09599310885968812,0.0029670597283903604,1.18490402917895,-580.2801338173663,1782.3337696365288,132.703568,-1878.330444,179.7131041724727,1301.0153725159807,-18415.004352473537,0.7647058823335219,1301.0153725159807,-18415.004352473537,0.7647058823335219,-0.0308,0.04,-0.0062,-0.0308,0.04,-0.0062,132.703568,1878.330444,0.078,10.62300000000323,10.62300000000323,10.62300000000323,10.62300000000323,40.591191929,121.03002766,0.0,-0.0308,10.62300000000323,0.0
40.591075001,121.030051667,14.7973,-0.09965830028887622,0.006108652381980153,1.184205897478153,-580.8496576528929,1781.3877828504646,132.518921,-1878.247803,186.13791203554825,1312.068524768733,-18596.51290122052,0.7722772277323413,1312.068524768733,-18596.51290122052,0.7722772277323413,-0.0228,0.03,-0.0048,-0.0228,0.03,-0.0048,132.518921,1878.247803,0.078,10.724000000001979,10.724000000001979,10.724000000001979,10.724000000001979,40.591193536,121.030028781,0.0,-0.0228,10.724000000001979,0.0
40.591075001,121.030051667,14.7973,-0.10210176124166827,0.008552113334772215,1.1833332328521555,-581.9125782652719,1780.4926897613086,132.334076,-1878.165283,190.3698426338742,1297.392901974111,-18413.385127640122,0.7647058823607962,1297.392901974111,-18413.385127640122,0.7647058823607962,-0.0319,0.02,-0.0043,-0.0319,0.02,-0.0043,132.334076,1878.165283,0.078,10.826000000000931,10.826000000000931,10.826000000000931,10.826000000000931,40.591195142,121.030029903,0.0,-0.0319,10.826000000000931,0.0
40.591075001,121.030051667,14.8989,-0.11309733552923257,0.011519173063162575,1.1817624365253603,-583.4253989817835,1777.4994924330385,131.933136,-1877.974243,210.48509223565625,656.3837611909885,-9343.155437767653,0.38805970149073926,656.3837611909885,-9343.155437767653,0.38805970149073926,-0.0489,0.01,-0.0061,-0.0489,0.01,-0.0061,131.933136,1877.974243,0.078,11.027000000001863,11.027000000001863,11.027000000001863,11.027000000001863,40.591198712,121.030032249,0.0,-0.0489,11.027000000001863,0.0
40.591075001,121.030051667,14.8989,-0.11449359893082801,0.012740903539558606,1.1807152389741635,-585.055741271485,1776.5569213626154,131.730682,-1877.87793,212.91731589781614,1291.4772745230698,-18410.567941365585,0.7647058823607962,1291.4772745230698,-18410.567941365585,0.7647058823607962,0.0154,0.01,-0.0097,0.0154,0.01,-0.0097,131.730682,1877.87793,0.078,11.129000000000815,11.129000000000815,11.129000000000815,11.129000000000815,40.591200513,121.030033436,0.0,0.0154,11.129000000000815,0.0
40.591075001,121.030051667,14.8989,-0.11309733552923257,0.013962634015954637,1.1794935084977676,-587.2841074745377,1776.0367872422216,131.528091,-1877.781982,210.1321560735373,1302.2583267019022,-18591.900811441883,0.6930693069143167,1302.2583267019022,-18591.900811441883,0.6930693069143167,0.0045,0.01,-0.015,0.0045,0.01,-0.015,131.528091,1877.781982,0.07,11.230000000003201,11.230000000003201,11.230000000003201,11.230000000003201,40.591202313,121.030034626,0.0,0.0045,11.230000000003201,0.0
40.591075001,121.030051667,14.8989,-0.11606439525762292,0.015184364492350668,1.1777481792457738,-589.9762273985717,1774.387036807638,131.325287,-1877.686401,215.47911556464416,1287.5028137387153,-18408.690206071446,0.5392156862800486,1287.5028137387153,-18408.690206071446,0.5392156862800486,-0.0613,0.01,-0.0176,-0.0613,0.01,-0.0176,131.325287,1877.686401,0.055,11.332000000002154,11.332000000002154,11.332000000002154,11.332000000002154,40.591204111,121.03003582,0.0,-0.0613,11.332000000002154,0.0
40.591075001,121.030051667,14.8989,-0.12531464029319286,0.017627825445142728,1.1732103231905888,-596.7481679544436,1769.760318227127,130.922897,-1877.498779,232.3413667558923,651.3576965143949,-9340.789945230352,0.11442786069598722,651.3576965143949,-9340.789945230352,0.11442786069598722,-0.0212,0.01,-0.0226,-0.0212,0.01,-0.0226,130.922897,1877.498779,0.023,11.533000000003085,11.533000000003085,11.533000000003085,11.533000000003085,40.591207665,121.030038206,0.0,-0.0212,11.533000000003085,0.0
40.591075001,121.030051667,14.8989,-0.12566370614359174,0.01815142422074103,1.1709413951629952,-600.7593711341535,1768.21428178809,130.719421,-1877.404419,232.89772701000817,1294.2516930853437,-18588.162564586757,0.07920792079306066,1294.2516930853437,-18588.162564586757,0.07920792079306066,0.0001,0.01,-0.0234,0.0001,0.01,-0.0234,130.719421,1877.404419,0.008,11.634000000001834,11.634000000001834,11.634000000001834,11.634000000001834,40.591209457,121.030039416,0.0,0.0001,11.634000000001834,0.0
40.591075001,121.030051667,14.8989,-0.12688543661998775,0.01832595714594046,1.1686724671354027,-604.7325570370613,1766.4486072795457,130.515869,-1877.310669,235.13313739586357,1279.5673431503985,-18405.006559012585,0.0,1279.5673431503985,-18405.006559012585,0.0,-0.0283,-0.0,-0.0228,-0.0283,-0.0,-0.0228,130.515869,1877.310669,0.0,11.736000000000786,11.736000000000786,11.736000000000786,11.736000000000786,40.591211248,121.030040631,0.0,-0.0283,11.736000000000786,0.0
40.591075001,121.030051667,14.8989,-0.1308996938995747,0.017627825445142728,1.1662290061826108,-608.8478281211424,1763.898953341578,130.311981,-1877.217407,242.67511282494632,1290.21763363288,-18586.310959956867,-0.15841584158041525,1290.21763363288,-18586.310959956867,-0.15841584158041525,-0.0333,-0.01,-0.0229,-0.0333,-0.01,-0.0229,130.311981,1877.217407,-0.016,11.837000000003172,11.837000000003172,11.837000000003172,11.837000000003172,40.591213035,121.030041852,0.0,-0.0333,11.837000000003172,0.0
40.591075001,121.030051667,14.8989,-0.13142329267517303,0.013264502315156905,1.162389281828224,-616.8159510854741,1760.7017115436397,129.922134,-1877.045166,244.22506346585814,643.1788811960882,-9292.302802095337,-0.03960396039653033,643.1788811960882,-9292.302802095337,-0.03960396039653033,-0.0103,-0.03,-0.0182,-0.0103,-0.03,-0.0182,129.922134,1877.045166,-0.008,12.03900000000067,12.03900000000067,12.03900000000067,12.03900000000067,40.59121641,121.030044232,0.0,-0.0103,12.03900000000067,0.0
40.591075001,121.030051667,14.8989,-0.13456488532876282,0.010297442586766544,1.1609930184266277,-619.7181799356827,1758.6983821738038,129.725204,-1876.958496,250.46197766502183,1284.4079603656903,-18583.7474847094,0.0,1284.4079603656903,-18583.7474847094,0.0,-0.0656,-0.03,-0.017,-0.0656,-0.03,-0.017,129.725204,1876.958496,0.0,12.140000000003056,12.140000000003056,12.140000000003056,12.140000000003056,40.591218113,121.030045437,0.0,-0.0656,12.140000000003056,0.0
40.591075001,121.030051667,14.8989,-0.14381513036433277,0.006981317007977318,1.1595967550250326,-622.0082959635207,1755.1809309749112,129.528214,-1876.872192,268.09021370336234,1269.8844509934363,-18400.707764894894,0.07843137254982525,1269.8844509934363,-18400.707764894894,0.07843137254982525,-0.0956,-0.03,-0.0181,-0.0956,-0.03,-0.0181,129.528214,1876.872192,0.008,12.242000000002008,12.242000000002008,12.242000000002008,12.242000000002008,40.591219814,121.030046645,0.0,-0.0956,12.242000000002008,0.0
40.591075001,121.030051667,14.8989,-0.15166911199830724,0.003839724354387525,1.1583750245486366,-624.1483027588198,1751.956016808945,129.331116,-1876.786011,283.0923540866453,1280.5060990257675,-18582.03971310153,0.30693069307311005,1280.5060990257675,-18582.03971310153,0.30693069307311005,-0.0427,-0.03,-0.0174,-0.0427,-0.03,-0.0174,129.331116,1876.786011,0.031,12.343000000000757,12.343000000000757,12.343000000000757,12.343000000000757,40.591221514,121.030047856,0.0,-0.0427,12.343000000000757,0.0
40.591075001,121.030051667,14.8989,-0.1499237827463129,-0.0010471975511965976,1.1557570306706455,-630.4818672054204,1749.8894523505369,128.94017,-1876.616333,280.52443251078876,638.31767326374,-9290.179866284432,0.4653465346508505,638.31767326374,-9290.179866284432,0.4653465346508505,0.0125,-0.02,-0.0137,0.0125,-0.02,-0.0137,128.94017,1876.616333,0.094,12.545000000001892,12.545000000001892,12.545000000001892,12.545000000001892,40.591224876,121.030050265,0.0,0.0125,12.545000000001892,0.0
40.591075001,121.030051667,14.8989,-0.1494001839707146,-0.0027925268031909274,1.154709833119449,-632.9639064629304,1749.0053076498068,128.742722,-1876.531006,279.7864284848962,1274.6804158573782,-18579.514911121303,1.1584158415985122,1274.6804158573782,-18579.514911121303,1.1584158415985122,-0.0153,-0.01,-0.0106,-0.0153,-0.01,-0.0106,128.742722,1876.531006,0.117,12.64600000000064,12.64600000000064,12.64600000000064,12.64600000000064,40.591226573,121.030051484,0.0,-0.0153,12.64600000000064,0.0
40.591075001,121.030051667,14.8989,-0.15079644737231007,-0.004014257279586958,1.1538371684934514,-634.7980627338067,1747.7898917174605,128.545151,-1876.445801,282.5502358870365,1260.2465783993691,-18396.527460317142,1.4509803921200157,1260.2465783993691,-18396.527460317142,1.4509803921200157,0.0018,-0.01,-0.0076,0.0018,-0.01,-0.0076,128.545151,1876.445801,0.148,12.74800000000323,12.74800000000323,12.74800000000323,12.74800000000323,40.591228269,121.030052705,0.0,0.0018,12.74800000000323,0.0
40.591075001,121.030051667,14.8989,-0.14870205226991687,-0.004537856055185257,1.1531390367926535,-636.5197648871617,1747.668219863616,128.347595,-1876.360718,278.74910543800814,1270.7682673424786,-18577.828891319303,1.7821782178438645,1270.7682673424786,-18577.828891319303,1.7821782178438645,0.0495,-0.0,-0.0065,0.0495,-0.0,-0.0065,128.347595,1876.360718,0.18,12.849000000001979,12.849000000001979,12.849000000001979,12.849000000001979,40.591229964,121.030053927,0.0,0.0495,12.849000000001979,0.0
40.591075001,121.030051667,14.9926,-0.13456488532876282,-0.004886921905584123,1.1524409050918554,-639.5323896244664,1750.3499747431872,127.948769,-1876.202759,252.5490385382033,636.5610397980455,-9334.342084533864,1.0895522388009218,636.5610397980455,-9334.342084533864,1.0895522388009218,0.0222,-0.0,-0.0025,0.0222,-0.0,-0.0025,127.948769,1876.202759,0.219,13.05000000000291,13.05000000000291,13.05000000000291,13.05000000000291,40.591233288,121.030056495,0.0,0.0222,13.05000000000291,0.0
40.591075001,121.030051667,14.9926,-0.1356120828799594,-0.004886921905584123,1.1520918392414567,-640.1954095237089,1749.7249117583278,127.747398,-1876.123047,254.49894053496158,1252.4254706011002,-18393.363206071288,2.2941176470823885,1252.4254706011002,-18393.363206071288,2.2941176470823885,-0.0247,0.0,-0.0014,-0.0247,0.0,-0.0014,127.747398,1876.123047,0.234,13.152000000001863,13.152000000001863,13.152000000001863,13.152000000001863,40.591234965,121.030057792,0.0,-0.0247,13.152000000001863,0.0
40.591075001,121.030051667,14.9926,-0.1361356816555577,-0.00471238898038469,1.1517427733910581,-640.8669611401162,1749.2409310417358,127.546036,-1876.043457,255.44628731515616,1250.451333346178,-18392.582911953632,2.372549019632214,1250.451333346178,-18392.582911953632,2.372549019632214,0.0283,0.0,-0.0019,0.0283,0.0,-0.0019,127.546036,1876.043457,0.242,13.254000000000815,13.254000000000815,13.254000000000815,13.254000000000815,40.591236643,121.03005909,0.0,0.0283,13.254000000000815,0.0
40.591075001,121.030051667,14.9926,-0.1329940890019679,-0.004363323129985824,1.151568240465859,-641.541099841896,1749.7436388394333,127.344643,-1875.963867,249.5583427677401,1260.8380494751584,-18573.899672828447,2.475247524693988,1260.8380494751584,-18573.899672828447,2.475247524693988,0.0269,0.01,-0.0012,0.0269,0.01,-0.0012,127.344643,1875.963867,0.25,13.355000000003201,13.355000000003201,13.355000000003201,13.355000000003201,40.59123832,121.030060388,0.0,0.0269,13.355000000003201,0.0
40.591075001,121.030051667,14.9926,-0.13578661580515886,-0.0022689280275926286,1.1512191746154594,-641.701346277849,1748.783776298473,126.945587,-1875.806396,254.4396879473324,631.5700845856192,-9332.370129478903,1.1293532338460537,631.5700845856192,-9332.370129478903,1.1293532338460537,-0.0571,0.01,-0.0028,-0.0571,0.01,-0.0028,126.945587,1875.806396,0.227,13.556000000000495,13.556000000000495,13.556000000000495,13.556000000000495,40.591241641,121.030062961,0.0,-0.0571,13.556000000000495,0.0
40.591075001,121.030051667,14.9926,-0.14206980111233844,-0.0006981317007977319,1.1506955758398616,-641.7465534471761,1746.9648957500929,126.744179,-1875.727051,265.87800233956335,1242.5899901645234,-18389.480891689873,1.9901960783808326,1242.5899901645234,-18389.480891689873,1.9901960783808326,-0.0714,0.02,-0.0025,-0.0714,0.02,-0.0025,126.744179,1875.727051,0.203,13.658000000003085,13.658000000003085,13.658000000003085,13.658000000003085,40.591243317,121.030064261,0.0,-0.0714,13.658000000003085,0.0
40.591075001,121.030051667,14.9926,-0.1473057888683214,0.0006981317007977319,1.150346509989463,-641.5861406857509,1745.4505419158484,126.54277,-1875.647705,275.3852721491786,1252.8987128868116,-18570.76935666575,1.7821782178438645,1252.8987128868116,-18570.76935666575,1.7821782178438645,-0.0367,0.02,-0.0021,-0.0367,0.02,-0.0021,126.54277,1875.647705,0.18,13.759000000001834,13.759000000001834,13.759000000001834,13.759000000001834,40.591244993,121.030065562,0.0,-0.0367,13.759000000001834,0.0
40.591075001,121.030051667,14.9926,-0.1504473815219112,0.0019198621771937625,1.1498229112138643,-641.9794498625884,1744.3087494828446,126.341171,-1875.568604,281.0143664225745,1238.6389313852724,-18387.92749038496,1.450980392171767,1238.6389313852724,-18387.92749038496,1.450980392171767,-0.0399,0.01,-0.004,-0.0399,0.01,-0.004,126.341171,1875.568604,0.148,13.861000000000786,13.861000000000786,13.861000000000786,13.861000000000786,40.591246668,121.030066865,0.0,-0.0399,13.861000000000786,0.0
40.591075001,121.030051667,14.9926,-0.16126842288427606,0.0017453292519943296,1.1487757136626675,-642.8581411691787,1740.4428468312556,125.912086,-1875.40918,301.0075778308039,626.4282885543114,-9330.393930305027,0.46766169154012166,626.4282885543114,-9330.393930305027,0.46766169154012166,-0.0802,-0.01,-0.0049,-0.0802,-0.01,-0.0049,125.912086,1875.40918,0.094,14.062000000001717,14.062000000001717,14.062000000001717,14.062000000001717,40.591250169,121.030069705,0.0,-0.0802,14.062000000001717,0.0
40.591075001,121.030051667,14.9926,-0.16877333866785166,-0.0,1.148426647812269,-643.1637681935122,1737.7359849404525,125.695396,-1875.328857,315.0740758911805,1232.3078039342267,-18385.57702960062,0.686274509810971,1232.3078039342267,-18385.57702960062,0.686274509810971,-0.079,-0.03,-0.0057,-0.079,-0.03,-0.0057,125.695396,1875.328857,0.07,14.16400000000067,14.16400000000067,14.16400000000067,14.16400000000067,40.591251936,121.03007114,0.0,-0.079,14.16400000000067,0.0
40.591075001,121.030051667,14.9926,-0.1741838593490341,-0.003141592653589793,1.1486011807374683,-643.248598971739,1735.689869725027,125.478729,-1875.248413,325.4434542501791,1242.363653435991,-18566.81596985832,0.623762376222885,1242.363653435991,-18566.81596985832,0.623762376222885,-0.0358,-0.03,-0.0018,-0.0358,-0.03,-0.0018,125.478729,1875.248413,0.063,14.265000000003056,14.265000000003056,14.265000000003056,14.265000000003056,40.591253703,121.030072574,0.0,-0.0358,14.265000000003056,0.0
40.591075001,121.030051667,14.9926,-0.17627825445142728,-0.006981317007977318,1.1492993124382664,-643.0873488780514,1734.8301247723136,125.262161,-1875.167969,329.7705638871577,1228.060401973399,-18383.99969626727,0.6176470588298738,1228.060401973399,-18383.99969626727,0.6176470588298738,-0.0295,-0.04,0.0036,-0.0295,-0.04,0.0036,125.262161,1875.167969,0.063,14.367000000002008,14.367000000002008,14.367000000002008,14.367000000002008,40.591255471,121.030074007,0.0,-0.0295,14.367000000002008,0.0
40.591075001,121.030051667,14.9926,-0.17941984710501707,-0.012740903539558606,1.1520918392414567,-639.9465540695585,1734.54128897598,124.833588,-1875.007202,336.2593707435774,621.062626862794,-9328.394039757772,0.4278606965154304,621.062626862794,-9328.394039757772,0.4278606965154304,-0.0099,-0.02,0.0152,-0.0099,-0.02,0.0152,124.833588,1875.007202,0.086,14.56800000000294,14.56800000000294,14.56800000000294,14.56800000000294,40.591258979,121.030076832,0.0,-0.0099,14.56800000000294,0.0
40.591075001,121.030051667,14.9926,-0.18011797880581482,-0.013439035240356337,1.1540117014186508,-636.915548911791,1735.2884421559995,124.617409,-1874.925659,337.6215933743776,1221.7393039341182,-18381.624108031952,0.9215686274604467,1221.7393039341182,-18381.624108031952,0.9215686274604467,-0.0015,-0.0,0.0188,-0.0015,-0.0,0.0188,124.617409,1874.925659,0.094,14.670000000001892,14.670000000001892,14.670000000001892,14.670000000001892,40.591260753,121.030078254,0.0,-0.0015,14.670000000001892,0.0
40.591075001,121.030051667,14.9926,-0.1827359726838063,-0.012391837689159739,1.1557570306706455,-633.425098618393,1735.5443694042729,124.401276,-1874.84375,342.30565214424047,1231.6958019954595,-18562.8094061706,0.9306930693184626,1231.6958019954595,-18562.8094061706,0.9306930693184626,-0.07,0.02,0.0219,-0.07,0.02,0.0219,124.401276,1874.84375,0.094,14.77100000000064,14.77100000000064,14.77100000000064,14.77100000000064,40.591262528,121.030079671,0.0,-0.07,14.77100000000064,0.0
40.591075001,121.030051667,14.9926,-0.19041542139258136,-0.009773843811168246,1.1575023599226393,-628.7939829218614,1734.3456927985121,124.185448,-1874.761353,356.1113709303087,1217.5043921259448,-18380.013264239133,0.8431372548805497,1217.5043921259448,-18380.013264239133,0.8431372548805497,-0.0889,0.03,0.0193,-0.0889,0.03,0.0193,124.185448,1874.761353,0.086,14.87300000000323,14.87300000000323,14.87300000000323,14.87300000000323,40.591264305,121.030081085,0.0,-0.0889,14.87300000000323,0.0
40.591075001,121.030051667,15.1958,-0.20036379812894903,-0.002617993877991494,1.159247689174634,-622.3519098300217,1732.7864824938622,123.755379,-1874.576782,373.47371504749833,615.6984029933656,-9326.252646891757,0.3134328358251162,615.6984029933656,-9326.252646891757,0.3134328358251162,-0.0065,0.03,0.0106,-0.0065,0.03,0.0106,123.755379,1874.576782,0.063,15.074000000000524,15.074000000000524,15.074000000000524,15.074000000000524,40.59126799,121.03008375,0.0,-0.0065,15.074000000000524,0.0
40.591075001,121.030051667,15.1958,-0.2007128639793479,0.0005235987755982988,1.1594222220998331,-621.0859000505968,1733.076991393279,123.538292,-1874.483521,373.6932284125542,1223.1514059116923,-18559.242781739686,0.4653465346424697,1223.1514059116923,-18559.242781739686,0.4653465346424697,0.0113,0.03,0.0066,0.0113,0.03,0.0066,123.538292,1874.483521,0.047,15.17500000000291,15.17500000000291,15.17500000000291,15.17500000000291,40.591269851,121.030085095,0.0,0.0113,15.17500000000291,0.0
40.591075001,121.030051667,15.1958,-0.19826940302655582,0.0029670597283903604,1.1594222220998331,-620.7882868434338,1734.1009168806052,123.321198,-1874.390259,368.8670151464904,1209.0313529535956,-18376.375088424054,0.30392156863057285,1209.0313529535956,-18376.375088424054,0.30392156863057285,0.0269,0.02,0.0042,0.0269,0.02,0.0042,123.321198,1874.390259,0.031,15.277000000001863,15.277000000001863,15.277000000001863,15.277000000001863,40.591271712,121.03008644,0.0,0.0269,15.277000000001863,0.0
40.591075001,121.030051667,15.1958,-0.19600047499896323,0.004537856055185257,1.1594222220998331,-620.7721114781306,1734.921787196881,123.104111,-1874.296875,364.4609385989534,1206.9030490320051,-18375.45955901228,0.07843137254982525,1206.9030490320051,-18375.45955901228,0.07843137254982525,-0.0004,0.01,0.0032,-0.0004,0.01,0.0032,123.104111,1874.296875,0.008,15.379000000000815,15.379000000000815,15.379000000000815,15.379000000000815,40.591273572,121.030087784,0.0,-0.0004,15.379000000000815,0.0
