lat_gps,lon_gps,alt_gps,roll,pitch,yaw,vn,ve,vf,vl,vu,ax,ay,az,af,al,au,wx,wy,wz,wf,wl,wu,pos_accuracy,vel_accuracy,navstat,numsats,posmode,velmode,orimode,lat,lon,depth,height,time,time_gps
40.578916668,121.041266667,17.399,-0.11711159280881951,-0.08464846872172498,-0.6319837221471474,-0.11798197647819632,-0.0010453435580786083,0.0,-0.0,-0.8114672886094324,0.0,0.0,0.0,0.0,0.0,0.0,-0.1077,-0.06,0.096,-0.1077,-0.06,0.096,0.0,0.0,-0.82,0.0,0.0,0.0,0.0,40.57890951,121.041274968,0.0,-0.1077,0.0,0.0
40.578901668,121.041266667,17.0943,-0.19058995431778078,-0.07923794804054256,-0.6122615015996116,-1367.4978003942472,-885.7405201316827,86.152046,-1658.016113,319.14532445324596,213.77678908271955,-4114.18390324185,-1.9776674938042387,213.77678908271955,-4114.18390324185,-1.9776674938042387,-0.1896,0.06,0.0373,-0.1896,0.06,0.0373,86.152046,1658.016113,-0.797,0.4029999999984284,0.4029999999984284,0.4029999999984284,0.4029999999984284,40.57889784,121.041271358,0.0,-0.1896,0.4029999999984284,0.0
40.578901668,121.041266667,17.0943,-0.20874137853852182,-0.0715584993317675,-0.608072711394825,-1366.6088430071145,-876.4159183343609,86.139114,-1658.159058,348.119881796557,852.8625148313331,-16417.41641545366,-7.891089108724434,852.8625148313331,-16417.41641545366,-7.891089108724434,-0.1289,0.06,0.066,-0.1289,0.06,0.066,86.139114,1658.159058,-0.797,0.5040000000008149,0.5040000000008149,0.5040000000008149,0.5040000000008149,40.578896901,121.041272519,0.0,-0.1289,0.5040000000008149,0.0
40.578901668,121.041266667,17.0943,-0.21991148575128552,-0.0645771823237902,-0.6012659273120463,-1370.1242125057722,-863.9246171707521,86.124825,-1658.304565,365.7677705292349,844.361029420438,-16257.887892323863,-7.892156862826166,844.361029420438,-16257.887892323863,-7.892156862826166,-0.0834,0.04,0.0964,-0.0834,0.04,0.0964,86.124825,1658.304565,-0.805,0.6059999999997672,0.6059999999997672,0.6059999999997672,0.6059999999997672,40.57889595,121.041273711,0.0,-0.0834,0.6059999999997672,0.0
40.578901668,121.041266667,17.0943,-0.22794000031045944,-0.059166661642607775,-0.5909684847252802,-1377.2800427014624,-847.2149741124688,86.109184,-1658.449951,378.41531573380456,852.5661782283858,-16420.296544757915,-7.970297029801729,852.5661782283858,-16420.296544757915,-7.970297029801729,-0.0685,0.01,0.1259,-0.0685,0.01,0.1259,86.109184,1658.449951,-0.805,0.7069999999985157,0.7069999999985157,0.7069999999985157,0.7069999999985157,40.578895007,121.041274916,0.0,-0.0685,0.7069999999985157,0.0
40.578901668,121.041266667,17.0943,-0.23422318561763902,-0.05689773361501514,-0.5614724203665751,-1399.9978213542681,-804.9014196153138,86.069565,-1658.736816,388.53074322846453,426.0869554431503,-8211.568395993463,-3.633663366316216,426.0869554431503,-8211.568395993463,-3.633663366316216,0.0541,-0.06,0.158,0.0541,-0.06,0.158,86.069565,1658.736816,-0.734,0.9089999999996508,0.9089999999996508,0.9089999999996508,0.9089999999996508,40.578893196,121.041277374,0.0,0.0541,0.9089999999996508,0.0
40.578901668,121.041266667,17.0943,-0.22619467105846514,-0.0614355896702004,-0.5441936607718321,-1415.87833838157,-783.0785038767156,86.047096,-1658.881226,375.9894044748395,851.9514455551107,-16424.566594262917,-6.4158415842379135,851.9514455551107,-16424.566594262917,-6.4158415842379135,0.1304,-0.1,0.1504,0.1304,-0.1,0.1504,86.047096,1658.881226,-0.648,1.0099999999983993,1.0099999999983993,1.0099999999983993,1.0099999999983993,40.578892298,121.041278635,0.0,0.1304,1.0099999999983993,0.0
40.578901668,121.041266667,17.0943,-0.21135937241651329,-0.06928957130417489,-0.5277875658030854,-1432.5767040438623,-763.6511687811027,86.00885,-1659.033325,352.63334272010826,843.2240195864298,-16265.032597626174,-5.362745097903032,843.2240195864298,-16265.032597626174,-5.362745097903032,0.1876,-0.12,0.1328,0.1876,-0.12,0.1328,86.00885,1659.033325,-0.547,1.1120000000009895,1.1120000000009895,1.1120000000009895,1.1120000000009895,40.578891432,121.041280099,0.0,0.1876,1.1120000000009895,0.0
40.578901668,121.041266667,17.1958,-0.19303341527057286,-0.07888888219014369,-0.5131268000863325,-1448.5042042651824,-746.5733290762714,85.968376,-1659.184814,323.6492469670766,851.1720396145071,-16427.572416045132,-4.336633663420071,851.1720396145071,-16427.572416045132,-4.336633663420071,0.1926,-0.12,0.1163,0.1926,-0.12,0.1163,85.968376,1659.184814,-0.438,1.212999999999738,1.212999999999738,1.212999999999738,1.212999999999738,40.578890583,121.04128158,0.0,0.1926,1.212999999999738,0.0
40.578890001,121.04127,17.1958,-0.15969762655748115,-0.09826203688728075,-0.48624872960562043,-1476.2572970659867,-711.9787306601698,86.691559,-1658.93103,270.7735943582232,431.30128855521554,-8253.388208916982,-1.3233830845709826,431.30128855521554,-8253.388208916982,-1.3233830845709826,0.1341,-0.09,0.1093,0.1341,-0.09,0.1093,86.691559,1658.93103,-0.266,1.4140000000006694,1.4140000000006694,1.4140000000006694,1.4140000000006694,40.57888838,121.041272991,0.0,0.1341,1.4140000000006694,0.0
40.578890001,121.04127,17.1958,-0.1504473815219112,-0.10437068926926091,-0.4738568919164601,-1487.144226921853,-694.8899714576198,86.645241,-1659.080933,256.099540211866,849.4631470675491,-16265.499343304333,-2.372549019632214,849.4631470675491,-16265.499343304333,-2.372549019632214,0.0743,-0.07,0.1154,0.0743,-0.07,0.1154,86.645241,1659.080933,-0.242,1.5159999999996217,1.5159999999996217,1.5159999999996217,1.5159999999996217,40.578887576,121.041274514,0.0,0.0743,1.5159999999996217,0.0
40.578890001,121.04127,17.1958,-0.14713125594312199,-0.10838494654884787,-0.4614650542273007,-1496.2857102986773,-677.2759451879682,86.597,-1659.230225,250.93905572524196,848.9901960871521,-16266.962990363172,-2.4509803921820392,848.9901960871521,-16266.962990363172,-2.4509803921820392,0.0142,-0.05,0.1172,0.0142,-0.05,0.1172,86.597,1659.230225,-0.25,1.617999999998574,1.617999999998574,1.617999999998574,1.617999999998574,40.578886786,121.04127605,0.0,0.0142,1.617999999998574,0.0
40.578890001,121.04127,17.1958,-0.1499237827463129,-0.11047934165124106,-0.44924774946334056,-1503.4974300436336,-659.6864696064245,86.546967,-1659.378784,255.61228547473442,856.900663346089,-16429.49291050288,-2.702970296965835,856.900663346089,-16429.49291050288,-2.702970296965835,-0.0432,-0.03,0.1139,-0.0432,-0.03,0.1139,86.546967,1659.378784,-0.273,1.7190000000009604,1.7190000000009604,1.7190000000009604,1.7190000000009604,40.578886011,121.041277599,0.0,-0.0432,1.7190000000009604,0.0
40.578890001,121.04127,17.1958,-0.16632987771505958,-0.11257373675363426,-0.4265584691874141,-1512.9437405156536,-627.0880391352588,86.441185,-1659.670898,282.38544219794716,430.0556467719603,-8257.069144389796,-1.8656716418161678,430.0556467719603,-8257.069144389796,-1.8656716418161678,-0.0973,-0.02,0.105,-0.0973,-0.02,0.105,86.441185,1659.670898,-0.375,1.9199999999982538,1.9199999999982538,1.9199999999982538,1.9199999999982538,40.578884528,121.041280712,0.0,-0.0973,1.9199999999982538,0.0
40.578890001,121.04127,17.1958,-0.17976891295541594,-0.11292280260403312,-0.4157374278250492,-1515.2141547996541,-611.5953106751894,86.386162,-1659.817627,304.19493221270005,846.9231568412379,-16272.721832920095,-4.294117646949776,846.9231568412379,-16272.721832920095,-4.294117646949776,-0.155,-0.02,0.1063,-0.155,-0.02,0.1063,86.386162,1659.817627,-0.438,2.022000000000844,2.022000000000844,2.022000000000844,2.022000000000844,40.578883793,121.041282293,0.0,-0.155,2.022000000000844,0.0
40.578890001,121.04127,17.1958,-0.19966566642815128,-0.11257373675363426,-0.4043927876870854,-1515.0779832972676,-595.2855685060663,86.329956,-1659.975098,336.36919261336374,854.7520396145513,-16435.397010104636,-4.950495049566291,854.7520396145513,-16435.397010104636,-4.950495049566291,-0.2147,-0.02,0.1149,-0.2147,-0.02,0.1149,86.329956,1659.975098,-0.5,2.1229999999995925,2.1229999999995925,2.1229999999995925,2.1229999999995925,40.57888299,121.041283964,0.0,-0.2147,2.1229999999995925,0.0
40.578890001,121.04127,17.2974,-0.22532200643246794,-0.11135200627723822,-0.39077921952153016,-1513.273822150123,-575.2012159532734,86.271507,-1660.131714,377.65895876393984,845.7990882439822,-16275.801117814244,-5.441176470644127,845.7990882439822,-16275.801117814244,-5.441176470644127,-0.2092,-0.01,0.1369,-0.2092,-0.01,0.1369,86.271507,1660.131714,-0.555,2.224999999998545,2.224999999998545,2.224999999998545,2.224999999998545,40.578882204,121.041285649,0.0,-0.2092,2.224999999998545,0.0
40.578876668,121.041273333,17.2974,-0.2633701841259443,-0.10367255756846318,-0.35866516128483494,-1516.0010800183827,-523.2381345233335,87.345764,-1660.282715,438.32747584899744,434.55603979898154,-8260.113009911976,-3.223880596999988,434.55603979898154,-8260.113009911976,-3.223880596999988,-0.1491,0.01,0.1946,-0.1491,0.01,0.1946,87.345764,1660.282715,-0.648,2.425999999999476,2.425999999999476,2.425999999999476,2.425999999999476,40.578875194,121.041276735,0.0,-0.1491,2.425999999999476,0.0
40.578876668,121.041273333,17.2974,-0.28064894372068816,-0.09599310885968812,-0.3394665395128969,-1518.8750057478396,-490.91571212873606,87.279442,-1660.436157,465.49638700251575,855.6808039303581,-16278.785853108393,-6.745098039284971,855.6808039303581,-16278.785853108393,-6.745098039284971,-0.1637,0.03,0.214,-0.1637,0.03,0.214,87.279442,1660.436157,-0.688,2.5279999999984284,2.5279999999984284,2.5279999999984284,2.5279999999984284,40.578874475,121.041278471,0.0,-0.1637,2.5279999999984284,0.0
40.578876668,121.041273333,17.2974,-0.3000220984178253,-0.08639379797371932,-0.31974431896536104,-1520.2279496045253,-456.3767134009163,87.209991,-1660.588135,495.7684460467379,863.4652574053399,-16441.466682779825,-7.267326732501549,863.4652574053399,-16441.466682779825,-7.267326732501549,-0.1898,0.04,0.2172,-0.1898,0.04,0.2172,87.209991,1660.588135,-0.734,2.629000000000815,2.629000000000815,2.629000000000815,2.629000000000815,40.578873782,121.041280225,0.0,-0.1898,2.629000000000815,0.0
40.578876668,121.041273333,17.2974,-0.3220132469929538,-0.07592182246175333,-0.30089476304382257,-1518.7869532810673,-422.01277272855725,87.137779,-1660.738892,529.9421478695654,854.2919509891674,-16281.753843304501,-7.65686274517669,854.2919509891674,-16281.753843304501,-7.65686274517669,-0.2197,0.04,0.2045,-0.2197,0.04,0.2045,87.137779,1660.738892,-0.781,2.730999999999767,2.730999999999767,2.730999999999767,2.730999999999767,40.578873115,121.041281996,0.0,-0.2197,2.730999999999767,0.0
40.578876668,121.041273333,17.2974,-0.36669367584400864,-0.05759586531581287,-0.27000243528352325,-1508.7404801714747,-362.97853681144295,86.985512,-1661.032837,598.7870928772106,432.76374129152714,-8263.844960160715,-4.079601990030849,432.76374129152714,-8263.844960160715,-4.079601990030849,-0.1735,0.03,0.1444,-0.1735,0.03,0.1444,86.985512,1661.032837,-0.82,2.9320000000006985,2.9320000000006985,2.9320000000006985,2.9320000000006985,40.578871876,121.041285555,0.0,-0.1735,2.9320000000006985,0.0
40.578876668,121.041273333,17.2974,-0.3797836452339661,-0.05113814708343386,-0.25865779514555953,-1505.9365295692528,-341.19051148362104,86.90696,-1661.180298,618.722598558732,852.0290196165951,-16286.081353108466,-7.892156862826166,852.0290196165951,-16286.081353108466,-7.892156862826166,-0.0704,0.02,0.1149,-0.0704,0.02,0.1149,86.90696,1661.180298,-0.805,3.0339999999996508,3.0339999999996508,3.0339999999996508,3.0339999999996508,40.578871267,121.041287361,0.0,-0.0704,3.0339999999996508,0.0
40.578876668,121.041273333,17.399,-0.38117990863556156,-0.04590215932745086,-0.2490584842595905,-1509.1886883686145,-323.53899849714924,86.864838,-1661.329956,620.6732769335351,860.0479010007557,-16448.811445748368,-7.504950495142497,860.0479010007557,-16448.811445748368,-7.504950495142497,0.0636,0.01,0.0855,0.0636,0.01,0.0855,86.864838,1661.329956,-0.758,3.1349999999983993,3.1349999999983993,3.1349999999983993,3.1349999999983993,40.57887044,121.041288844,0.0,0.0636,3.1349999999983993,0.0
40.578876668,121.041273333,17.399,-0.3689626038716013,-0.041887902047863905,-0.24225170017681286,-1519.4525912638182,-311.9283197309113,86.821709,-1661.47937,601.6782576134827,851.1932254685804,-16289.013430958898,-6.7450980390443975,851.1932254685804,-16289.013430958898,-6.7450980390443975,0.1944,0.01,0.0719,0.1944,0.01,0.0719,86.821709,1661.47937,-0.688,3.2370000000009895,3.2370000000009895,3.2370000000009895,3.2370000000009895,40.578869621,121.041290334,0.0,0.1944,3.2370000000009895,0.0
40.578865001,121.04128,17.399,-0.30543261909900765,-0.033510321638291124,-0.2289871978616561,-1559.635261229988,-290.6458191501999,87.737411,-1661.641602,501.81053899423426,436.5045323441864,-8266.873641902366,-2.6815920398371054,436.5045323441864,-8266.873641902366,-2.6815920398371054,0.4528,0.02,0.0889,0.4528,0.02,0.0889,87.737411,1661.641602,-0.539,3.437999999998283,3.437999999998283,3.437999999998283,3.437999999998283,40.578863409,121.041282979,0.0,0.4528,3.437999999998283,0.0
40.578865001,121.04128,17.399,-0.25481807079117214,-0.02949606435870417,-0.22043508452688373,-1585.8051820628057,-278.16050146209824,87.691086,-1661.790039,420.81440364677,868.2285742369105,-16453.366722383504,-4.871287128597769,868.2285742369105,-16453.366722383504,-4.871287128597769,0.5687,0.01,0.0984,0.5687,0.01,0.0984,87.691086,1661.790039,-0.492,3.5390000000006694,3.5390000000006694,3.5390000000006694,3.5390000000006694,40.578862615,121.041284493,0.0,0.5687,3.5390000000006694,0.0
40.578865001,121.04128,17.399,-0.19390607989657,-0.02652900463031381,-0.21066124071571546,-1611.3744797623683,-263.6476913353793,87.643188,-1661.937988,321.9962812601582,859.2469411852967,-16293.509686441876,-4.598039215733505,859.2469411852967,-16293.509686441876,-4.598039215733505,0.6515,0.0,0.1079,0.6515,0.0,0.1079,87.643188,1661.937988,-0.469,3.6409999999996217,3.6409999999996217,3.6409999999996217,3.6409999999996217,40.578861832,121.041286016,0.0,0.6515,3.6409999999996217,0.0
40.578865001,121.04128,17.399,-0.12636183784438945,-0.025132741228718343,-0.19949113350295197,-1632.5050843064225,-246.08065844611303,87.593697,-1662.085327,211.12077939234717,858.7617353029389,-16294.95418644189,-4.745098039264428,858.7617353029389,-16294.95418644189,-4.745098039264428,0.7038,-0.01,0.1197,0.7038,-0.01,0.1197,87.593697,1662.085327,-0.484,3.742999999998574,3.742999999998574,3.742999999998574,3.742999999998574,40.578861062,121.04128755,0.0,0.7038,3.742999999998574,0.0
40.578865001,121.04128,17.399,0.022514747350726852,-0.02897246558310587,-0.1710422666954445,-1652.7614547653002,-195.61872559583335,87.487534,-1662.374512,-35.444315355063004,435.26136318206284,-8270.519960160684,-2.835820895509248,435.26136318206284,-8270.519960160684,-2.835820895509248,0.6894,-0.04,0.1552,0.6894,-0.04,0.1552,87.487534,1662.374512,-0.57,3.9439999999995052,3.9439999999995052,3.9439999999995052,3.9439999999995052,40.578859603,121.041290645,0.0,0.6894,3.9439999999995052,0.0
40.578865001,121.04128,17.399,0.08831366015091306,-0.03420845333908886,-0.15463617172669783,-1650.4595061164534,-163.7419263083336,87.431473,-1662.519409,-144.17849574858954,865.6581485255776,-16460.58820812475,-6.188118811957864,865.6581485255776,-16460.58820812475,-6.188118811957864,0.632,-0.04,0.1813,0.632,-0.04,0.1813,87.431473,1662.519409,-0.625,4.044999999998254,4.044999999998254,4.044999999998254,4.044999999998254,40.578858887,121.041292224,0.0,0.632,4.044999999998254,0.0
40.578865001,121.04128,18.2974,0.14748032179352083,-0.04066617157146788,-0.13578661580515836,-1642.4897639092667,-126.27489565436082,87.343094,-1662.613159,-241.23395517674115,856.3048431155094,-16300.129009389988,-6.66666666649737,856.3048431155094,-16300.129009389988,-6.66666666649737,0.5515,-0.04,0.21,0.5515,-0.04,0.21,87.343094,1662.613159,-0.68,4.147000000000844,4.147000000000844,4.147000000000844,4.147000000000844,40.578858713,121.041293729,0.0,0.5515,4.147000000000844,0.0
40.578865001,121.04128,18.2974,0.19565140914856435,-0.04904375198104066,-0.11466813185602734,-1631.9179829955856,-84.24277604211689,87.252747,-1662.704712,-319.2920158450363,863.88858416912,-16462.42289129309,-7.267326732763315,863.88858416912,-16462.42289129309,-7.267326732763315,0.4141,-0.05,0.2328,0.4141,-0.05,0.2328,87.252747,1662.704712,-0.734,4.2479999999995925,4.2479999999995925,4.2479999999995925,4.2479999999995925,40.578858563,121.041295239,0.0,0.4141,4.2479999999995925,0.0
40.578853334,121.041291667,18.2974,0.23841197582242543,-0.07016223593017204,-0.06963863715457391,-1620.0032671533752,2.318772105945993,87.662132,-1663.150879,-386.44559045558947,433.970950492611,-8233.420193023043,-4.0247524752249095,433.970950492611,-8233.420193023043,-4.0247524752249095,0.0259,-0.06,0.2462,0.0259,-0.06,0.2462,87.662132,1663.150879,-0.813,4.450000000000728,4.450000000000728,4.450000000000728,4.450000000000728,40.578853141,121.041294672,0.0,0.0259,4.450000000000728,0.0
40.578853334,121.041291667,18.2974,0.23003439541285262,-0.08185594191853406,-0.047647488579445514,-1623.036342654049,41.08817533322512,87.565727,-1663.236328,-371.6023465963565,866.9873960503465,-16467.68641604563,-8.118811881288716,866.9873960503465,-16467.68641604563,-8.118811881288716,-0.1729,-0.07,0.2344,-0.1729,-0.07,0.2344,87.565727,1663.236328,-0.82,4.550999999999476,4.550999999999476,4.550999999999476,4.550999999999476,40.578853069,121.041296192,0.0,-0.1729,4.550999999999476,0.0
40.578853334,121.041291667,18.2974,0.2012364627549462,-0.0937241808320955,-0.027052603405912305,-1632.1962197558748,74.14949100031502,87.467697,-1663.319702,-323.60628903635103,857.526441185279,-16307.05590212829,-7.892156862826166,857.526441185279,-16307.05590212829,-7.892156862826166,-0.3764,-0.07,0.2164,-0.3764,-0.07,0.2164,87.467697,1663.319702,-0.805,4.652999999998428,4.652999999998428,4.652999999998428,4.652999999998428,40.578853021,121.041297714,0.0,-0.3764,4.652999999998428,0.0
40.578853334,121.041291667,18.2974,0.1488765851951163,-0.10576695267085637,-0.0061086523819805505,-1645.5449272649548,102.95815975330237,87.367912,-1663.401123,-236.8935788464693,865.0288316627287,-16469.318049115802,-7.732673267144019,865.0288316627287,-16469.318049115802,-7.732673267144019,-0.5345,-0.08,0.1907,-0.5345,-0.08,0.1907,87.367912,1663.401123,-0.781,4.754000000000815,4.754000000000815,4.754000000000815,4.754000000000815,40.578852997,121.041299236,0.0,-0.5345,4.754000000000815,0.0
40.578853334,121.041291667,18.2974,0.022514747350726852,-0.1202531854624093,0.025481807079116854,-1660.2566589706946,133.45993022258165,87.165291,-1663.555908,-27.43788122779477,433.6581641770951,-8276.397552200458,-3.577114427844122,433.6581641770951,-8276.397552200458,-3.577114427844122,-0.6681,-0.03,0.1323,-0.6681,-0.03,0.1323,87.165291,1663.555908,-0.719,4.955000000001746,4.955000000001746,4.955000000001746,4.955000000001746,40.578853023,121.041302252,0.0,-0.6681,4.955000000001746,0.0
40.578853334,121.041291667,18.2974,-0.0466002910282486,-0.12164944886400476,0.03717551306747914,-1657.8457420117652,138.8125239353632,87.06205,-1663.632812,86.79289610552152,853.5495098126892,-16310.125608010674,-6.892156862815893,853.5495098126892,-16310.125608010674,-6.892156862815893,-0.6821,0.01,0.0964,-0.6821,0.01,0.0964,87.06205,1663.632812,-0.703,5.0570000000006985,5.0570000000006985,5.0570000000006985,5.0570000000006985,40.578853049,121.041303774,0.0,-0.6821,5.0570000000006985,0.0
40.578853334,121.041291667,17.0943,-0.11588986233242347,-0.11833332328521555,0.045204027626652696,-1648.0909060968713,138.3386080202548,86.958801,-1663.736328,200.59836108775656,852.5372647146395,-16311.140470755781,-6.970588235365719,852.5372647146395,-16311.140470755781,-6.970588235365719,-0.6853,0.04,0.065,-0.6853,0.04,0.065,86.958801,1663.736328,-0.711,5.158999999999651,5.158999999999651,5.158999999999651,5.158999999999651,40.578852886,121.041305491,0.0,-0.6853,5.158999999999651,0.0
40.578853334,121.041291667,17.0943,-0.18535396656179778,-0.11222467090323539,0.049916416607038064,-1630.8395868275156,133.58698098031158,86.855049,-1663.839478,313.72423745373754,859.9509802086752,-16473.658198223922,-7.198019802069386,859.9509802086752,-16473.658198223922,-7.198019802069386,-0.6923,0.06,0.0472,-0.6923,0.06,0.0472,86.855049,1663.839478,-0.727,5.259999999998399,5.259999999998399,5.259999999998399,5.259999999998399,40.57885273,121.041307209,0.0,-0.6923,5.259999999998399,0.0
40.578843334,121.041301667,17.0943,-0.3134611336581816,-0.10262536001726658,0.055326937288220523,-1579.3446633093138,122.20948261062632,87.661575,-1664.578369,518.8848433242347,436.12723880394935,-8281.484422847201,-3.5373134328194307,436.12723880394935,-8281.484422847201,-3.5373134328194307,-0.5312,0.0,0.0314,-0.5312,0.0,0.0314,87.661575,1664.578369,-0.711,5.460999999999331,5.460999999999331,5.460999999999331,5.460999999999331,40.578843039,121.041305072,0.0,-0.5312,5.460999999999331,0.0
40.578843334,121.041301667,17.0943,-0.36006142468643015,-0.10367255756846318,0.05916666164260753,-1553.8819872462398,118.54735389874175,87.556931,-1664.680664,591.7986872720357,858.401284322543,-16320.398666834308,-6.666666666735146,858.401284322543,-16320.398666834308,-6.666666666735146,-0.382,-0.05,0.0347,-0.382,-0.05,0.0347,87.556931,1664.680664,-0.68,5.562999999998283,5.562999999998283,5.562999999998283,5.562999999998283,40.578842894,121.041306791,0.0,-0.382,5.562999999998283,0.0
40.578843334,121.041301667,17.0943,-0.3939208121751202,-0.10838494654884787,0.06544984694978735,-1533.060003467777,118.40362077129097,87.451591,-1664.782104,644.0925737902317,865.8573366132041,-16482.991128323396,-6.267326732525178,865.8573366132041,-16482.991128323396,-6.267326732525178,-0.2249,-0.07,0.0402,-0.2249,-0.07,0.0402,87.451591,1664.782104,-0.633,5.664000000000669,5.664000000000669,5.664000000000669,5.664000000000669,40.578842758,121.041308512,0.0,-0.2249,5.664000000000669,0.0
40.578843334,121.041301667,17.0943,-0.4118977034706618,-0.11344640137963143,0.07243116395776428,-1521.0461069077394,121.78524663472835,87.345596,-1664.882935,671.6039593046922,856.3293725578158,-16322.381715853939,-5.7450980392746995,856.3293725578158,-16322.381715853939,-5.7450980392746995,-0.1201,-0.07,0.044,-0.1201,-0.07,0.044,87.345596,1664.882935,-0.586,5.765999999999622,5.765999999999622,5.765999999999622,5.765999999999622,40.578842632,121.041310234,0.0,-0.1201,5.765999999999622,0.0
40.578843334,121.041301667,17.0943,-0.42010075095503513,-0.1165879940332212,0.08412486994612657,-1514.4737113255414,135.32829351411291,87.133209,-1665.079956,684.2070641428658,433.49855223679737,-8283.979880558632,-2.3333333333225217,433.49855223679737,-8283.979880558632,-2.3333333333225217,0.0457,-0.0,0.0475,0.0457,-0.0,0.0475,87.133209,1665.079956,-0.469,5.967000000000553,5.967000000000553,5.967000000000553,5.967000000000553,40.578842411,121.041313649,0.0,0.0457,5.967000000000553,0.0
40.578843334,121.041301667,17.0943,-0.41311943394705786,-0.11327186845443199,0.08848819307611239,-1518.3233740429012,145.69690636558153,87.025566,-1665.178955,673.6921522616931,853.1918235381756,-16325.283872716713,-4.0588235294534565,853.1918235381756,-16325.283872716713,-4.0588235294534565,0.1084,0.03,0.0575,0.1084,0.03,0.0575,87.025566,1665.178955,-0.414,6.068999999999505,6.068999999999505,6.068999999999505,6.068999999999505,40.578842305,121.041315374,0.0,0.1084,6.068999999999505,0.0
40.578843334,121.041301667,16.9927,-0.40072759625789806,-0.10768681484805014,0.09320058205649676,-1525.3077048909554,159.29842100036063,86.940231,-1665.299194,654.8591928494714,860.7943663472995,-16488.11083188747,-3.6336633663816573,860.7943663472995,-16488.11083188747,-3.6336633663816573,0.1453,0.04,0.0747,0.1453,0.04,0.0747,86.940231,1665.299194,-0.367,6.169999999998254,6.169999999998254,6.169999999998254,6.169999999998254,40.578841926,121.041317045,0.0,0.1453,6.169999999998254,0.0
40.578843334,121.041301667,16.9927,-0.3853686988403479,-0.10088003076527226,0.09948376736367659,-1533.4423046333397,176.56935590423922,86.854019,-1665.418823,631.3014651777021,851.5099901744546,-16327.63551919321,-3.137254901881115,851.5099901744546,-16327.63551919321,-3.137254901881115,0.1755,0.04,0.0946,0.1755,0.04,0.0946,86.854019,1665.418823,-0.32,6.272000000000844,6.272000000000844,6.272000000000844,6.272000000000844,40.578841556,121.041318719,0.0,0.1755,6.272000000000844,0.0
40.578836668,121.041315,16.9927,-0.34749505407207104,-0.08726646259971647,0.11885692206081389,-1550.9046161979306,222.98180511427717,87.261612,-1665.887695,572.5124050089928,434.1373731323168,-8287.998482548663,-1.2835820895462915,434.1373731323168,-8287.998482548663,-1.2835820895462915,0.2316,0.03,0.1326,0.2316,0.03,0.1326,87.261612,1665.887695,-0.258,6.473000000001775,6.473000000001775,6.473000000001775,6.473000000001775,40.578835983,121.041318334,0.0,0.2316,6.473000000001775,0.0
40.578836668,121.041315,16.9927,-0.32131511529215606,-0.07906341511534314,0.13247049022636917,-1560.9721396921723,253.76278788140175,87.171539,-1666.004395,531.1685257227165,854.6229313813276,-16333.376421736402,-2.2941176470823885,854.6229313813276,-16333.376421736402,-2.2941176470823885,0.2631,0.04,0.1502,0.2631,0.04,0.1502,87.171539,1666.004395,-0.234,6.575000000000728,6.575000000000728,6.575000000000728,6.575000000000728,40.578835655,121.041320023,0.0,0.2631,6.575000000000728,0.0
40.578836668,121.041315,16.9927,-0.29565877528783946,-0.06981317007977318,0.1459095254667262,-1569.2485795763114,284.1956817210519,87.07988,-1666.119873,490.1327353117607,862.1770297136534,-16496.236366541034,-2.247524752503096,862.1770297136534,-16496.236366541034,-2.247524752503096,0.2717,0.06,0.16,0.2717,0.06,0.16,87.07988,1666.119873,-0.227,6.675999999999476,6.675999999999476,6.675999999999476,6.675999999999476,40.578835344,121.041321718,0.0,0.2717,6.675999999999476,0.0
40.578836668,121.041315,16.9927,-0.2701769682087222,-0.05881759579220891,0.15969762655748077,-1575.7641885339342,315.29671287159175,86.986679,-1666.234009,448.84041129784805,852.8105784401325,-16335.627539383486,-2.2941176470823885,852.8105784401325,-16335.627539383486,-2.2941176470823885,0.2442,0.08,0.1649,0.2442,0.08,0.1649,86.986679,1666.234009,-0.234,6.777999999998428,6.777999999998428,6.777999999998428,6.777999999998428,40.578835051,121.041323419,0.0,0.2442,6.777999999998428,0.0
40.578836668,121.041315,16.9927,-0.2350958502436362,-0.03438298626428829,0.18867009214058705,-1578.1551559126722,376.0710158625535,86.795563,-1666.454834,390.6432728485301,431.81872139103405,-8290.820069613326,-1.477611940291661,431.81872139103405,-8290.820069613326,-1.477611940291661,0.1138,0.07,0.1761,0.1138,0.07,0.1761,86.795563,1666.454834,-0.297,6.97899999999936,6.97899999999936,6.97899999999936,6.97899999999936,40.578834546,121.041326807,0.0,0.1138,6.97899999999936,0.0
40.578836668,121.041315,16.9927,-0.22654373690886398,-0.024609142453120045,0.20490165418413445,-1574.3208159266983,406.29592808220866,86.697365,-1666.564697,376.0213061042654,849.9741666753976,-16338.869578599204,-3.2941176470926608,849.9741666753976,-16338.869578599204,-3.2941176470926608,0.0714,0.04,0.1816,0.0714,0.04,0.1816,86.697365,1666.564697,-0.336,7.080999999998312,7.080999999998312,7.080999999998312,7.080999999998312,40.578834312,121.041328523,0.0,0.0714,7.080999999998312,0.0
40.578836668,121.041315,18.5943,-0.22218041377887815,-0.018675022996339326,0.22235494670407774,-1568.1501666281574,436.2888363875019,86.594536,-1666.643555,368.4516168030946,857.3716435440978,-16501.421336243755,-3.6336633662507745,857.3716435440978,-16501.421336243755,-3.6336633662507745,0.0196,-0.01,0.1824,0.0196,-0.01,0.1824,86.594536,1666.643555,-0.367,7.1820000000006985,7.1820000000006985,7.1820000000006985,7.1820000000006985,40.578834321,121.041330056,0.0,0.0196,7.1820000000006985,0.0
40.578836668,121.041315,18.5943,-0.2223549467040776,-0.01780235837034216,0.2406809038500184,-1559.8572720131535,465.16199368363556,86.490318,-1666.720703,368.6573481940968,847.9442941263571,-16340.399049187456,-3.833333333372709,847.9442941263571,-16340.399049187456,-3.833333333372709,-0.0018,-0.06,0.177,-0.0018,-0.06,0.177,86.490318,1666.720703,-0.391,7.283999999999651,7.283999999999651,7.283999999999651,7.283999999999651,40.578834351,121.041331589,0.0,-0.0018,7.283999999999651,0.0
40.578830001,121.041328333,18.5943,-0.21153390534171274,-0.031241393610698498,0.27907814739389347,-1546.049576715762,521.9125078309934,86.793243,-1667.077515,352.16290746131904,431.8071791024769,-8293.917985036198,-2.019900497503079,431.8071791024769,-8293.917985036198,-2.019900497503079,0.1459,-0.13,0.1512,0.1459,-0.13,0.1512,86.793243,1667.077515,-0.406,7.485000000000582,7.485000000000582,7.485000000000582,7.485000000000582,40.578830151,121.041331364,0.0,0.1459,7.485000000000582,0.0
40.578830001,121.041328333,18.5943,-0.19303341527057286,-0.041887902047863905,0.2961823740634382,-1543.6425589459088,547.6223066221633,86.684883,-1667.148682,322.76404343081373,858.2661683274662,-16506.42259426393,-4.099009901040889,858.2661683274662,-16506.42259426393,-4.099009901040889,0.2418,-0.14,0.1407,0.2418,-0.14,0.1407,86.684883,1667.148682,-0.414,7.585999999999331,7.585999999999331,7.585999999999331,7.585999999999331,40.578830246,121.041332892,0.0,0.2418,7.585999999999331,0.0
40.578830001,121.041328333,18.5943,-0.16667894356545848,-0.05305800926062762,0.31223940318178534,-1542.6246716463113,573.4117115141817,86.575439,-1667.218018,280.3917541447632,848.7788137342088,-16345.274686442408,-4.137254902003281,848.7788137342088,-16345.274686442408,-4.137254902003281,0.2906,-0.13,0.1355,0.2906,-0.13,0.1355,86.575439,1667.218018,-0.422,7.687999999998283,7.687999999998283,7.687999999998283,7.687999999998283,40.57883036,121.041334418,0.0,0.2906,7.687999999998283,0.0
40.578830001,121.041328333,18.5943,-0.1387536755335492,-0.06387905062299247,0.32742376767413606,-1540.5703007212542,598.8667892211415,86.464935,-1667.285767,235.20190547254856,856.0884653263063,-16507.77987089707,-4.485148514745506,856.0884653263063,-16507.77987089707,-4.485148514745506,0.2781,-0.12,0.1346,0.2781,-0.12,0.1346,86.464935,1667.285767,-0.453,7.789000000000669,7.789000000000669,7.789000000000669,7.789000000000669,40.578830492,121.041335941,0.0,0.2781,7.789000000000669,0.0
40.578830001,121.041328333,18.5943,-0.09494591130849153,-0.08203047484373349,0.35657076618244166,-1530.0473983733343,647.8808445553489,86.242195,-1667.413452,164.0458198132882,426.9415594035416,-8254.522039557578,-2.821782178201966,426.9415594035416,-8254.522039557578,-2.821782178201966,0.1574,-0.09,0.1335,0.1574,-0.09,0.1335,86.242195,1667.413452,-0.57,7.991000000001804,7.991000000001804,7.991000000001804,7.991000000001804,40.57883082,121.041338947,0.0,0.1574,7.991000000001804,0.0
40.578830001,121.041328333,18.5943,-0.08499753457212385,-0.08918632477691024,0.37088246604879505,-1521.997802438017,670.4493426540005,86.12886,-1667.476318,148.0412800991766,852.7609901095763,-16509.66651505605,-6.267326732750925,852.7609901095763,-16509.66651505605,-6.267326732750925,0.0582,-0.07,0.1337,0.0582,-0.07,0.1337,86.12886,1667.476318,-0.633,8.092000000000553,8.092000000000553,8.092000000000553,8.092000000000553,40.578831002,121.041340461,0.0,0.0582,8.092000000000553,0.0
40.578830001,121.041328333,17.5943,-0.08587019919812101,-0.0947713783832921,0.3846705671395506,-1512.9395789175896,690.3569372696514,86.023918,-1667.52002,149.81573844627962,843.3717451067022,-16348.235490364006,-6.892156862815893,843.3717451067022,-16348.235490364006,-6.892156862815893,-0.0541,-0.06,0.1302,-0.0541,-0.06,0.1302,86.023918,1667.52002,-0.703,8.193999999999505,8.193999999999505,8.193999999999505,8.193999999999505,40.578831273,121.041341758,0.0,-0.0541,8.193999999999505,0.0
40.578830001,121.041328333,17.5943,-0.09948376736367678,-0.09861110273767963,0.3993313328563025,-1501.9011985878465,708.9951907439226,85.918381,-1667.562256,172.52544616910768,850.6770396145009,-16510.517386343192,-7.504950495142497,850.6770396145009,-16510.517386343192,-7.504950495142497,-0.1736,-0.04,0.1304,-0.1736,-0.04,0.1304,85.918381,1667.562256,-0.758,8.294999999998254,8.294999999998254,8.294999999998254,8.294999999998254,40.578831558,121.041343049,0.0,-0.1736,8.294999999998254,0.0
40.578825001,121.041343333,17.5943,-0.1551597705022959,-0.10000736613927509,0.42690753503781265,-1475.517017873931,737.1573891532427,86.137428,-1668.22998,264.31062909851863,426.422910888693,-8258.564257379338,-4.059405940571249,426.422910888693,-8258.564257379338,-4.059405940571249,-0.3414,-0.02,0.1431,-0.3414,-0.02,0.1431,86.137428,1668.22998,-0.82,8.496999999999389,8.496999999999389,8.496999999999389,8.496999999999389,40.57882562,121.041345869,0.0,-0.3414,8.496999999999389,0.0
40.578825001,121.041343333,17.5943,-0.19320794819577228,-0.09983283321407564,0.44174283367976486,-1457.2264835020799,748.6037163560618,86.03019,-1668.267578,326.49966222873593,851.784059385814,-16517.50077188694,-8.11881188099628,851.784059385814,-16517.50077188694,-8.11881188099628,-0.3886,-0.03,0.1478,-0.3886,-0.03,0.1478,86.03019,1668.267578,-0.82,8.598000000001775,8.598000000001775,8.598000000001775,8.598000000001775,40.578825946,121.041347143,0.0,-0.3886,8.598000000001775,0.0
40.578825001,121.041343333,17.5943,-0.23492131731843677,-0.10070549784007281,0.4571017310973149,-1435.5400616945603,757.9087252723366,85.922409,-1668.303589,394.23247378378625,842.3765588321822,-16355.917539383694,-7.735294117726515,842.3765588321822,-16355.917539383694,-7.735294117726515,-0.413,-0.05,0.1487,-0.413,-0.05,0.1487,85.922409,1668.303589,-0.789,8.700000000000728,8.700000000000728,8.700000000000728,8.700000000000728,40.578826288,121.04134841,0.0,-0.413,8.700000000000728,0.0
40.578825001,121.041343333,17.5943,-0.27838001569309556,-0.10349802464326374,0.473158760215663,-1410.7074092647074,764.9680866611849,85.81398,-1668.337769,464.15938322403883,849.6433663471614,-16518.19573287794,-7.346534653556375,849.6433663471614,-16518.19573287794,-7.346534653556375,-0.4195,-0.08,0.1441,-0.4195,-0.08,0.1441,85.81398,1668.337769,-0.742,8.800999999999476,8.800999999999476,8.800999999999476,8.800999999999476,40.578826645,121.041349669,0.0,-0.4195,8.800999999999476,0.0
40.578825001,121.041343333,17.5943,-0.35883969421003414,-0.10995574287564276,0.5047492196767603,-1357.4315895271636,773.7781283010056,85.597244,-1668.398804,591.2095365999902,425.85693532140994,-8300.491562150595,-3.029850746254618,425.85693532140994,-8300.491562150595,-3.029850746254618,-0.3289,-0.07,0.1375,-0.3289,-0.07,0.1375,85.597244,1668.398804,-0.609,9.002000000000407,9.002000000000407,9.002000000000407,9.002000000000407,40.578827412,121.041352134,0.0,-0.3289,9.002000000000407,0.0
40.578825001,121.041343333,17.5943,-0.3895574890451344,-0.10943214410004445,0.5194099853935124,-1332.1888182596492,779.9516781995223,85.48735,-1668.427979,638.6772577027887,838.111274518413,-16357.137049187628,-5.362745098094302,838.111274518413,-16357.137049187628,-5.362745098094302,-0.249,-0.03,0.138,-0.249,-0.03,0.138,85.48735,1668.427979,-0.547,9.10399999999936,9.10399999999936,9.10399999999936,9.10399999999936,40.578827813,121.041353371,0.0,-0.249,9.10399999999936,0.0
40.578825001,121.041343333,17.2974,-0.4134684997974567,-0.10384709049366261,0.5333726194094671,-1307.99128597369,790.2221252718981,85.327309,-1668.489868,675.164587261132,844.8248415641962,-16519.701662975993,-4.871287128597769,844.8248415641962,-16519.701662975993,-4.871287128597769,-0.1501,0.02,0.1339,-0.1501,0.02,0.1339,85.327309,1668.489868,-0.492,9.205000000001746,9.205000000001746,9.205000000001746,9.205000000001746,40.578828261,121.041355313,0.0,-0.1501,9.205000000001746,0.0
40.578825001,121.041343333,17.2974,-0.42446407408502096,-0.09459684545809266,0.5438445949214336,-1290.9739219206067,803.8882574942794,85.166519,-1668.549927,691.7097781548429,834.9658725575963,-16358.332617815091,-4.598039215733505,834.9658725575963,-16358.332617815091,-4.598039215733505,-0.0361,0.06,0.1331,-0.0361,0.06,0.1331,85.166519,1668.549927,-0.469,9.307000000000698,9.307000000000698,9.307000000000698,9.307000000000698,40.578828724,121.041357249,0.0,-0.0361,9.307000000000698,0.0
40.578820001,121.041361667,17.2974,-0.41259583517145954,-0.06946410422937431,0.5628686837681712,-1273.2012639927996,848.860272019979,85.149429,-1669.658081,673.3524802515643,423.6289999980371,-8306.756621852059,-2.4875621890432003,423.6289999980371,-8306.756621852059,-2.4875621890432003,0.1346,0.08,0.1491,0.1346,0.08,0.1491,85.149429,1669.658081,-0.5,9.50800000000163,9.50800000000163,9.50800000000163,9.50800000000163,40.578820975,121.041365478,0.0,0.1346,9.50800000000163,0.0
40.578820001,121.041361667,17.2974,-0.39828413530510604,-0.05724679946541401,0.574213323906134,-1266.388752805358,876.2230267606116,84.986938,-1669.713257,650.8902797981592,833.2052745183626,-16369.73781389364,-5.205882352994651,833.2052745183626,-16369.73781389364,-5.205882352994651,0.1753,0.05,0.1558,0.1753,0.05,0.1558,84.986938,1669.713257,-0.531,9.610000000000582,9.610000000000582,9.610000000000582,9.610000000000582,40.578821483,121.041367395,0.0,0.1753,9.610000000000582,0.0
40.578820001,121.041361667,17.2974,-0.3794345793835672,-0.04852015320544236,0.5873032932960915,-1260.9434347955469,905.1287053589499,84.823669,-1669.766357,621.3523332071056,839.8383069410993,-16532.340168521678,-5.4158415842255225,839.8383069410993,-16532.340168521678,-5.4158415842255225,0.2193,0.01,0.1572,0.2193,0.01,0.1572,84.823669,1669.766357,-0.547,9.71099999999933,9.71099999999933,9.71099999999933,9.71099999999933,40.57882201,121.041369303,0.0,0.2193,9.71099999999933,0.0
40.578820001,121.041361667,17.2974,-0.35482543693044716,-0.04485496177625427,0.6026621907136415,-1256.8983884908685,935.923201803948,84.659668,-1669.816895,582.8466471280547,829.9967451065648,-16370.753872717178,-5.284313725544477,829.9967451065648,-16370.753872717178,-5.284313725544477,0.2991,-0.05,0.1566,0.2991,-0.05,0.1566,84.659668,1669.816895,-0.539,9.812999999998283,9.812999999998283,9.812999999998283,9.812999999998283,40.578822559,121.0413712,0.0,0.2991,9.812999999998283,0.0
40.578820001,121.041361667,17.2974,-0.2792526803190927,-0.05375614096142535,0.6394886379307221,-1252.6145132664637,1005.7844667638655,84.331291,-1669.905029,463.7340314619631,419.55866168959824,-8307.985218866977,-2.1791044776018436,419.55866168959824,-8307.985218866977,-2.1791044776018436,0.4084,-0.14,0.1483,0.4084,-0.14,0.1483,84.331291,1669.905029,-0.438,10.013999999999214,10.013999999999214,10.013999999999214,10.013999999999214,40.578823752,121.041374902,0.0,0.4084,10.013999999999214,0.0
40.578820001,121.041361667,17.2974,-0.2389355745980237,-0.06475171524898962,0.6574655292262642,-1248.6016595366555,1037.855182766121,84.198929,-1669.927734,399.49810480017766,825.4796960574688,-16371.84052899601,-3.4509803920692264,825.4796960574688,-16371.84052899601,-3.4509803920692264,0.4115,-0.16,0.1417,0.4115,-0.16,0.1417,84.198929,1669.927734,-0.352,10.116000000001804,10.116000000001804,10.116000000001804,10.116000000001804,40.578824322,121.041376301,0.0,0.4115,10.116000000001804,0.0
40.578820001,121.041361667,17.7974,-0.20036379812894903,-0.07819075048934597,0.6745697558958079,-1241.9958164617774,1067.344927691975,84.066223,-1669.948242,337.66184947967236,832.3388415944717,-16534.14101010586,-2.554455445576206,832.3388415944717,-16534.14101010586,-2.554455445576206,0.3772,-0.17,0.139,0.3772,-0.17,0.139,84.066223,1669.948242,-0.258,10.217000000000553,10.217000000000553,10.217000000000553,10.217000000000553,40.578824911,121.041377688,0.0,0.3772,10.217000000000553,0.0
40.578820001,121.041361667,17.7974,-0.1668534764906579,-0.0916297857297023,0.6914994496401534,-1231.3917742963827,1095.0013239683076,83.933235,-1669.966431,283.688384864986,822.8748529496289,-16372.219911932882,-1.764705882371068,822.8748529496289,-16372.219911932882,-1.764705882371068,0.3155,-0.15,0.1423,0.3155,-0.15,0.1423,83.933235,1669.966431,-0.18,10.318999999999505,10.318999999999505,10.318999999999505,10.318999999999505,40.578825518,121.041379061,0.0,0.3155,10.318999999999505,0.0
40.578818334,121.041376667,17.7974,-0.11920598791121272,-0.1090830782496456,0.7241371066524475,-1201.2440216854811,1145.4388834320773,84.320389,-1670.499512,206.54569946894935,419.5044228836284,-8310.942845732636,-0.5820895522361089,419.5044228836284,-8310.942845732636,-0.5820895522361089,0.1904,-0.06,0.1567,0.1904,-0.06,0.1567,84.320389,1670.499512,-0.117,10.520000000000437,10.520000000000437,10.520000000000437,10.520000000000437,40.578819603,121.041379333,0.0,0.1904,10.520000000000437,0.0
40.578818334,121.041376667,17.7974,-0.10576695267085637,-0.11030480872604163,0.7403686686959948,-1182.9656848670568,1168.0238129816773,84.18663,-1670.51123,184.41187283531855,825.3591176555368,-16377.561078599603,-1.3823529411906699,825.3591176555368,-16377.561078599603,-1.3823529411906699,0.1014,-0.0,0.163,0.1014,-0.0,0.163,84.18663,1670.51123,-0.141,10.621999999999389,10.621999999999389,10.621999999999389,10.621999999999389,40.57882026,121.041380666,0.0,0.1014,10.621999999999389,0.0
40.578818334,121.041376667,17.7974,-0.10314895879286488,-0.10611601852125524,0.7567747636647415,-1163.2282659014313,1188.3991686743987,84.052658,-1670.520874,179.75620276512055,832.2045346338012,-16539.81063327255,-1.861386138569879,832.2045346338012,-16539.81063327255,-1.861386138569879,-0.0159,0.05,0.1674,-0.0159,0.05,0.1674,84.052658,1670.520874,-0.188,10.723000000001775,10.723000000001775,10.723000000001775,10.723000000001775,40.578820933,121.041381984,0.0,-0.0159,10.723000000001775,0.0
40.578818334,121.041376667,17.7974,-0.11205013797803595,-0.09564404300928926,0.7744025891098841,-1140.7325150164684,1207.8587401990417,83.918472,-1670.527954,193.68175566177428,822.7301176555098,-16377.725039383917,-2.676470588262787,822.7301176555098,-16377.725039383917,-2.676470588262787,-0.1063,0.1,0.1695,-0.1063,0.1,0.1695,83.918472,1670.527954,-0.273,10.825000000000728,10.825000000000728,10.825000000000728,10.825000000000728,40.578821625,121.041383287,0.0,-0.1063,10.825000000000728,0.0
40.578818334,121.041376667,17.7974,-0.1382300767579509,-0.06736970912698112,0.8056439827205829,-1097.0518086649492,1240.568454742482,83.652496,-1670.533813,234.83698854133726,416.1815721373751,-8311.113497473929,-2.293532338297831,416.1815721373751,-8311.113497473929,-2.293532338297831,-0.0904,0.13,0.1696,-0.0904,0.13,0.1696,83.652496,1670.533813,-0.461,11.026000000001659,11.026000000001659,11.026000000001659,11.026000000001659,40.578823054,121.041385809,0.0,-0.0904,11.026000000001659,0.0
40.578818334,121.041376667,17.899,-0.14521139376592823,-0.05183627878423159,0.8203047484373349,-1075.4928780262014,1257.3160233571173,83.531029,-1670.530884,245.19919341014233,827.0398910993566,-16539.9097427792,-5.336633663432462,827.0398910993566,-16539.9097427792,-5.336633663432462,-0.025,0.12,0.1617,-0.025,0.12,0.1617,83.531029,1670.530884,-0.539,11.127000000000407,11.127000000000407,11.127000000000407,11.127000000000407,40.578823746,121.04138692,0.0,-0.025,11.127000000000407,0.0
40.578818334,121.041376667,17.899,-0.14416419621473162,-0.03874630939427412,0.8337437836776909,-1056.3371207585892,1273.9626351418494,83.409698,-1670.526367,242.46023378805705,817.7421372633019,-16377.709480560387,-5.823529411824524,817.7421372633019,-16377.709480560387,-5.823529411824524,0.065,0.09,0.1385,0.065,0.09,0.1385,83.409698,1670.526367,-0.594,11.22899999999936,11.22899999999936,11.22899999999936,11.22899999999936,40.57882445,121.041388018,0.0,0.065,11.22899999999936,0.0
40.578818334,121.041376667,17.899,-0.13351768777756623,-0.030019663134302467,0.8450884238156546,-1041.5579315133625,1289.3708697563584,83.288368,-1670.520508,224.17833592704716,816.5526274593681,-16377.652039383916,-5.970588235355447,816.5526274593681,-16377.652039383916,-5.970588235355447,0.1617,0.05,0.1062,0.1617,0.05,0.1062,83.288368,1670.520508,-0.609,11.330999999998312,11.330999999998312,11.330999999998312,11.330999999998312,40.578825163,121.041389105,0.0,0.1617,11.330999999998312,0.0
40.578818334,121.041391667,17.899,-0.0841248699461267,-0.024434609527920613,0.8599237224576058,-1026.0975926098847,1314.1429186924208,83.345566,-1671.237427,141.89229164829703,414.6545572120091,-8314.614064638092,-2.641791044763879,414.6545572120091,-8314.614064638092,-2.641791044763879,0.3127,-0.0,0.0498,0.3127,-0.0,0.0498,83.345566,1671.237427,-0.531,11.531999999999243,11.531999999999243,11.531999999999243,11.531999999999243,40.578819771,121.041393794,0.0,0.3127,11.531999999999243,0.0
40.578818334,121.041391667,17.899,-0.05166174585903215,-0.024783675378319478,0.8644615785127909,-1021.604446328625,1322.322538964845,83.224358,-1671.229126,87.86787526386335,824.0035445349852,-16546.82302931199,-4.643564356325921,824.0035445349852,-16546.82302931199,-4.643564356325921,0.3411,-0.01,0.0416,0.3411,-0.01,0.0416,83.224358,1671.229126,-0.469,11.63300000000163,11.63300000000163,11.63300000000163,11.63300000000163,40.578820499,121.041394863,0.0,0.3411,11.63300000000163,0.0
40.578818334,121.041391667,17.899,-0.014311699866353502,-0.025132741228718343,0.8693485004183756,-1015.3604875244221,1329.7641424915566,83.10321,-1671.220337,25.5762021527975,814.7373529495454,-16384.513108011437,-4.137254902003281,814.7373529495454,-16384.513108011437,-4.137254902003281,0.322,-0.0,0.05,0.322,-0.0,0.05,83.10321,1671.220337,-0.422,11.735000000000582,11.735000000000582,11.735000000000582,11.735000000000582,40.578821232,121.041395928,0.0,0.322,11.735000000000582,0.0
40.578818334,121.041391667,17.899,0.013788101090755204,-0.02548180707911721,0.8752826198751559,-1006.6274549309061,1336.4421951834418,82.982124,-1671.210693,-21.3261353667482,821.6051881289922,-16546.6405249575,-4.019801980247828,821.6051881289922,-16546.6405249575,-4.019801980247828,0.228,-0.0,0.0677,0.228,-0.0,0.0677,82.982124,1671.210693,-0.406,11.83599999999933,11.83599999999933,11.83599999999933,11.83599999999933,40.57882197,121.041396987,0.0,0.228,11.83599999999933,0.0
40.578818334,121.041391667,17.899,0.034732052114687155,-0.0301941960595019,0.8930849782454987,-981.4089964047414,1354.0378999175118,82.742607,-1671.187378,-55.960199887825006,409.61686633433203,-8273.204841537672,-2.2425742574131413,409.61686633433203,-8273.204841537672,-2.2425742574131413,-0.0024,-0.05,0.1109,-0.0024,-0.05,0.1109,82.742607,1671.187378,-0.453,12.038000000000466,12.038000000000466,12.038000000000466,12.038000000000466,40.578823459,121.04139905,0.0,-0.0024,12.038000000000466,0.0
40.578818334,121.041391667,17.2974,0.02949606435870417,-0.03717551306747922,0.9049532171590603,-965.4733172141803,1365.7696942030225,82.629456,-1671.171631,-46.657163770278004,818.1134257527114,-16546.253772482247,-4.722772277286241,818.1134257527114,-16546.253772482247,-4.722772277286241,-0.1039,-0.09,0.1293,-0.1039,-0.09,0.1293,82.629456,1671.171631,-0.477,12.138999999999214,12.138999999999214,12.138999999999214,12.138999999999214,40.578824198,121.041399989,0.0,-0.1039,12.138999999999214,0.0
40.578818334,121.041391667,17.2974,0.013613568165555772,-0.04782202150464463,0.9183922523994162,-948.078997086848,1378.528071066532,82.516464,-1671.154053,-19.278440128097976,808.9849411559268,-16383.863264289821,-4.901960784189242,808.9849411559268,-16383.863264289821,-4.901960784189242,-0.2032,-0.12,0.1374,-0.2032,-0.12,0.1374,82.516464,1671.154053,-0.5,12.241000000001804,12.241000000001804,12.241000000001804,12.241000000001804,40.578824946,121.041400915,0.0,-0.2032,12.241000000001804,0.0
40.578818334,121.041391667,17.2974,-0.010122909661567111,-0.061086523819801536,0.9320058205649716,-931.0974622093265,1389.9934371752256,82.40374,-1671.135132,21.42447926551509,815.8786138714954,-16545.89239624462,-4.87128712877323,815.8786138714954,-16545.89239624462,-4.87128712877323,-0.2597,-0.15,0.1325,-0.2597,-0.15,0.1325,82.40374,1671.135132,-0.492,12.342000000000553,12.342000000000553,12.342000000000553,12.342000000000553,40.578825704,121.041401827,0.0,-0.2597,12.342000000000553,0.0
40.578818334,121.041406667,17.2974,-0.06981317007977318,-0.08988445647770797,0.9562658971676935,-903.1962555724547,1404.068528400751,82.364105,-1671.990479,123.14329266974714,409.77166666476796,-8318.360592001258,-2.0597014925277697,409.77166666476796,-8318.360592001258,-2.0597014925277697,-0.3051,-0.14,0.0898,-0.3051,-0.14,0.0898,82.364105,1671.990479,-0.414,12.543000000001484,12.543000000001484,12.543000000001484,12.543000000001484,40.578819869,121.041408426,0.0,-0.3051,12.543000000001484,0.0
40.578818334,121.041406667,17.2974,-0.1033234917180643,-0.10314895879286488,0.9660397409788618,-892.8410890008125,1404.5636114008382,82.252113,-1671.967651,179.65858103608556,806.3932647141655,-16391.83971585465,-3.3725490196424857,806.3932647141655,-16391.83971585465,-3.3725490196424857,-0.2824,-0.11,0.0619,-0.2824,-0.11,0.0619,82.252113,1671.967651,-0.344,12.645000000000437,12.645000000000437,12.645000000000437,12.645000000000437,40.57882065,121.041409304,0.0,-0.2824,12.645000000000437,0.0
40.578818334,121.041406667,17.2974,-0.13107422682477415,-0.11292280260403312,0.9724974592112409,-886.5254457238659,1401.8172058070443,82.140175,-1671.944092,226.10902164921814,805.2958333416053,-16391.608745266414,-2.7549019608126124,805.2958333416053,-16391.608745266414,-2.7549019608126124,-0.2565,-0.09,0.0436,-0.2565,-0.09,0.0436,82.140175,1671.944092,-0.281,12.746999999999389,12.746999999999389,12.746999999999389,12.746999999999389,40.578821435,121.041410175,0.0,-0.2565,12.746999999999389,0.0
40.578818334,121.041406667,17.2974,-0.1556833692778942,-0.1207767842380076,0.9777334469672231,-881.5129583891337,1397.7426400546913,82.028473,-1671.919922,267.01191706958826,812.1630989907105,-16553.66259366826,-2.2475247524221413,812.1630989907105,-16553.66259366826,-2.2475247524221413,-0.2184,-0.08,0.0338,-0.2184,-0.08,0.0338,82.028473,1671.919922,-0.227,12.848000000001775,12.848000000001775,12.848000000001775,12.848000000001775,40.578822224,121.041411041,0.0,-0.2184,12.848000000001775,0.0
40.578818334,121.041406667,17.2974,-0.1923352835697751,-0.1349139511791617,0.9869836920027936,-872.7848255386982,1390.242579538537,81.807526,-1671.870117,327.58874616087115,407.00261692090356,-8317.76177623141,-0.46766169154858606,407.00261692090356,-8317.76177623141,-0.46766169154858606,-0.1331,-0.08,0.0397,-0.1331,-0.08,0.0397,81.807526,1671.870117,-0.094,13.048999999999069,13.048999999999069,13.048999999999069,13.048999999999069,40.578823798,121.041412737,0.0,-0.1331,13.048999999999069,0.0
40.578818334,121.041406667,16.9927,-0.20525072003453315,-0.14102260356114182,0.9932668773099734,-865.9933787999264,1389.3080937113164,81.659584,-1671.862061,348.81159420830033,800.5841568424146,-16390.804519191606,-0.303921568619733,800.5841568424146,-16390.804519191606,-0.303921568619733,-0.1071,-0.07,0.0587,-0.1071,-0.07,0.0587,81.659584,1671.862061,-0.031,13.151000000001659,13.151000000001659,13.151000000001659,13.151000000001659,40.578824673,121.041414058,0.0,-0.1071,13.151000000001659,0.0
40.578818334,121.041406667,16.9927,-0.21642082724729686,-0.14538592669112765,1.0016444577195456,-855.842841847207,1390.881154090604,81.517265,-1671.853271,367.0436891665149,807.1016336733669,-16553.00268337342,0.15841584158612132,807.1016336733669,-16553.00268337342,0.15841584158612132,-0.0965,-0.05,0.0832,-0.0965,-0.05,0.0832,81.517265,1671.853271,0.016,13.252000000000407,13.252000000000407,13.252000000000407,13.252000000000407,40.578825524,121.04141532,0.0,-0.0965,13.252000000000407,0.0
40.578821668,121.041423333,16.9927,-0.2272418686096617,-0.14625859131712482,1.0117673673811134,-842.8136195339761,1394.941114674057,81.102623,-1672.5979,384.6633100138735,795.1237549101282,-16398.018627619418,0.4607843137302233,795.1237549101282,-16398.018627619418,0.4607843137302233,-0.089,-0.01,0.1091,-0.089,-0.01,0.1091,81.102623,1672.5979,0.047,13.35399999999936,13.35399999999936,13.35399999999936,13.35399999999936,40.578822545,121.041424608,0.0,-0.089,13.35399999999936,0.0
40.578821668,121.041423333,16.9927,-0.24434609527920614,-0.1322959573011702,1.0362019769090336,-803.8435626158287,1410.0715308374738,80.815933,-1672.570068,411.77135939127515,402.06931840609724,-8321.244119364428,0.07960199004938241,402.06931840609724,-8321.244119364428,0.07960199004938241,-0.0352,0.09,0.1377,-0.0352,0.09,0.1377,80.815933,1672.570068,0.016,13.555000000000291,13.555000000000291,13.555000000000291,13.555000000000291,40.578824328,121.041427077,0.0,-0.0352,13.555000000000291,0.0
40.578821668,121.041423333,16.9927,-0.24905848425959082,-0.11833332328521555,1.0466739524209998,-783.9940596371549,1419.102076765161,80.671356,-1672.554443,418.8661419372293,790.8956470669476,-16397.592578599808,-0.4607843137302233,790.8956470669476,-16397.592578599808,-0.4607843137302233,-0.0394,0.13,0.1296,-0.0394,0.13,0.1296,80.671356,1672.554443,-0.047,13.656999999999243,13.656999999999243,13.656999999999243,13.656999999999243,40.578825238,121.041428311,0.0,-0.0394,13.656999999999243,0.0
40.578821668,121.041423333,16.9927,-0.2541199390903744,-0.10140362954087054,1.0548769999053726,-765.9659862679202,1426.6832305481973,80.526932,-1672.537598,426.3070435614594,797.2963564168044,-16559.77819762851,-1.5445544554090485,797.2963564168044,-16559.77819762851,-1.5445544554090485,-0.035,0.15,0.1097,-0.035,0.15,0.1097,80.526932,1672.537598,-0.156,13.75800000000163,13.75800000000163,13.75800000000163,13.75800000000163,40.578826156,121.041429535,0.0,-0.035,13.75800000000163,0.0
40.578821668,121.041423333,16.9927,-0.2581341963699613,-0.08429940287132612,1.0604620535117544,-751.3991624775863,1432.6969248686999,80.382561,-1672.519897,431.9294683100032,788.0643235375067,-16397.253892325294,-2.833333333362437,788.0643235375067,-16397.253892325294,-2.833333333362437,-0.0315,0.15,0.0833,-0.0315,0.15,0.0833,80.382561,1672.519897,-0.289,13.860000000000582,13.860000000000582,13.860000000000582,13.860000000000582,40.57882708,121.041430753,0.0,-0.0315,13.860000000000582,0.0
40.578821668,121.041423333,16.9927,-0.2525491427635795,-0.059341194567807204,1.0662216400433355,-734.632759164035,1444.4253007111822,80.096802,-1672.483398,421.3867370120956,398.4915522369596,-8320.812925334581,-2.7611940298379527,398.4915522369596,-8320.812925334581,-2.7611940298379527,0.1216,0.07,0.0375,0.1216,0.07,0.0375,80.096802,1672.483398,-0.555,14.061000000001513,14.061000000001513,14.061000000001513,14.061000000001513,40.578828919,121.04143315,0.0,0.1216,14.061000000001513,0.0
40.578821668,121.041423333,17.2974,-0.2366666465704311,-0.05393067388662478,1.0681415022205294,-731.8597151596548,1453.1430006533305,79.941772,-1672.436768,395.21216888077794,783.7428627531486,-16396.438902129208,-6.5882352941853215,783.7428627531486,-16396.438902129208,-6.5882352941853215,0.2006,0.03,0.0272,0.2006,0.03,0.0272,79.941772,1672.436768,-0.672,14.163000000000466,14.163000000000466,14.163000000000466,14.163000000000466,40.578830106,121.041434256,0.0,0.2006,14.163000000000466,0.0
40.578821668,121.041423333,17.2974,-0.21101030656611444,-0.05305800926062762,1.0709340290237208,-730.2237826511426,1464.6577723161631,79.786812,-1672.389648,353.27677805822015,789.9684356533526,-16558.313346739826,-7.504950495142497,789.9684356533526,-16558.313346739826,-7.504950495142497,0.2683,-0.02,0.0287,0.2683,-0.02,0.0287,79.786812,1672.389648,-0.758,14.263999999999214,14.263999999999214,14.263999999999214,14.263999999999214,40.578831297,121.041435357,0.0,0.2683,14.263999999999214,0.0
40.578821668,121.041423333,17.2974,-0.1837831702350029,-0.05619960191421741,1.074948286303307,-727.4626339350624,1475.973222462538,79.632126,-1672.341919,308.82127576106893,780.7071176272332,-16395.509009387566,-7.892156862544681,780.7071176272332,-16395.509009387566,-7.892156862544681,0.2757,-0.05,0.0414,0.2757,-0.05,0.0414,79.632126,1672.341919,-0.805,14.366000000001804,14.366000000001804,14.366000000001804,14.366000000001804,40.57883249,121.041436451,0.0,0.2757,14.366000000001804,0.0
40.578828334,121.041438333,17.2974,-0.1322959573011702,-0.06579891280018622,1.0880382556932646,-712.3269875689053,1498.7967213423667,79.486298,-1672.705933,224.63848177355047,395.4542189107978,-8321.92006478868,-3.810945273683159,395.4542189107978,-8321.92006478868,-3.810945273683159,0.2521,-0.04,0.0733,0.2521,-0.04,0.0733,79.486298,1672.705933,-0.766,14.566999999999098,14.566999999999098,14.566999999999098,14.566999999999098,40.57883072,121.041440461,0.0,0.2521,14.566999999999098,0.0
40.578828334,121.041438333,17.2974,-0.10768681484805014,-0.06719517620178168,1.0960667702524391,-700.4665565740728,1509.823017300239,79.332504,-1672.654907,183.9827726031752,785.4703366151036,-16560.93967287601,-7.1188118810199095,785.4703366151036,-16560.93967287601,-7.1188118810199095,0.2502,0.0,0.0816,0.2502,0.0,0.0816,79.332504,1672.654907,-0.719,14.668000000001484,14.668000000001484,14.668000000001484,14.668000000001484,40.578831931,121.041441523,0.0,0.2502,14.668000000001484,0.0
40.578828334,121.041438333,17.2974,-0.08395033702092725,-0.06370451769779303,1.1037462189612142,-687.8486433631215,1519.833265707764,79.179199,-1672.602661,144.362444264942,776.2666568707189,-16398.065304090007,-6.352941176535846,776.2666568707189,-16398.065304090007,-6.352941176535846,0.2384,0.06,0.0799,0.2384,0.06,0.0799,79.179199,1672.602661,-0.648,14.770000000000437,14.770000000000437,14.770000000000437,14.770000000000437,40.578833149,121.041442572,0.0,0.2384,14.770000000000437,0.0
40.578828334,121.041438333,17.2974,-0.060039326268604934,-0.055326937288220246,1.1105530030439918,-675.8154908843633,1528.438807749507,79.026314,-1672.549561,103.99884439604295,774.7677843216838,-16397.54471585471,-5.666666666724874,774.7677843216838,-16397.54471585471,-5.666666666724874,0.2506,0.11,0.064,0.2506,0.11,0.064,79.026314,1672.549561,-0.578,14.871999999999389,14.871999999999389,14.871999999999389,14.871999999999389,40.578834371,121.04144361,0.0,0.2506,14.871999999999389,0.0
40.578828334,121.041438333,17.2974,-0.006283185307179586,-0.029670597283903602,1.1173597871267695,-662.1429435406309,1537.7494202940745,78.724014,-1672.442017,12.386223027568837,391.66176119221507,-8320.607049712691,-2.2537313432731394,391.66176119221507,-8320.607049712691,-2.2537313432731394,0.2903,0.13,0.015,0.2903,0.13,0.015,78.724014,1672.442017,-0.453,15.07300000000032,15.07300000000032,15.07300000000032,15.07300000000032,40.578836804,121.041445645,0.0,0.2903,15.07300000000032,0.0
40.578828334,121.041438333,17.899,0.025830872929516076,-0.017278759594743863,1.1178833859023682,-660.1939856004349,1537.9827414636948,78.628494,-1672.377808,-42.22699966163367,778.4999406037057,-16558.196119017048,-3.9405940594547677,778.4999406037057,-16558.196119017048,-3.9405940594547677,0.2934,0.09,-0.0041,0.2934,0.09,-0.0041,78.628494,1672.377808,-0.398,15.173999999999069,15.173999999999069,15.173999999999069,15.173999999999069,40.578837786,121.041446068,0.0,0.2934,15.173999999999069,0.0
40.578828334,121.041438333,17.899,0.054628805587422516,-0.010122909661567111,1.1173597871267695,-660.0409108210553,1535.868520262872,78.532967,-1672.313721,-90.8548908685431,769.9310490000559,-16395.23255840718,-3.3725490195221988,769.9310490000559,-16395.23255840718,-3.3725490195221988,0.275,0.05,-0.0088,0.275,0.05,-0.0088,78.532967,1672.313721,-0.344,15.276000000001659,15.276000000001659,15.276000000001659,15.276000000001659,40.578838769,121.041446491,0.0,0.275,15.276000000001659,0.0
40.578835001,121.041451667,17.899,0.08028514559173916,-0.007155849933176751,1.1168361883511717,-659.9401464548871,1533.3356532671266,78.350777,-1672.849487,-133.8846946093612,775.7502673363447,-16562.86620812602,-2.861386138649316,775.7502673363447,-16562.86620812602,-2.861386138649316,0.2317,0.01,-0.003,0.2317,0.01,-0.003,78.350777,1672.849487,-0.289,15.377000000000407,15.377000000000407,15.377000000000407,15.377000000000407,40.578835984,121.041452091,0.0,0.2317,15.377000000000407,0.0
