lat_gps,lon_gps,alt_gps,roll,pitch,yaw,vn,ve,vf,vl,vu,ax,ay,az,af,al,au,wx,wy,wz,wf,wl,wu,pos_accuracy,vel_accuracy,navstat,numsats,posmode,velmode,orimode,lat,lon,depth,height,time,time_gps
34.525468568,108.427525286,7.4455,0.029321531433504737,-0.3467969223712733,2.870892086605473,0.5195262626384424,-1.8413549315676994,2.328196,0.015625,1.556025139083956,0.0,0.0,0.0,0.0,0.0,0.0,-0.0009,0.02,0.0016,-0.0009,0.02,0.0016,2.328196,-0.015625,0.813,0.0,0.0,0.0,0.0,34.526536736,108.423466573,0.0,-0.0009,0.0,53531.0
34.525468568,108.427525286,7.4455,0.028274333882308142,-0.3391174736624982,2.8715902183062703,0.5215746734834367,-1.8586519409700104,2.328196,0.015625,1.5262118389496457,7.683815181521105,0.05156765676569638,2.630363036304641,7.683815181521105,0.05156765676569638,2.630363036304641,0.0091,0.03,0.0032,0.0091,0.03,0.0032,2.328196,-0.015625,0.797,0.3029999999998836,0.3029999999998836,0.3029999999998836,0.3029999999998836,34.526538392,108.423459148,0.0,0.0091,0.3029999999998836,53531.0
34.525468568,108.427525286,8.4378,0.0307177948351002,-0.3363249468593073,2.872288350007068,-30.518214105236083,16.620268692062897,-25.032015,25.032015,-6.798440067475358,-250.32014999908935,250.32014999908935,7.809999999971588,-250.32014999908935,250.32014999908935,7.809999999971588,0.0497,0.03,0.0057,0.0497,0.03,0.0057,-25.032015,-25.032015,0.781,0.4030000000002474,0.4030000000002474,0.4030000000002474,0.4030000000002474,34.526538392,108.423459148,0.0,0.0497,0.4030000000002474,53531.0
34.525468568,108.427525286,8.4378,0.03682644721708035,-0.3331833542057175,2.8731610146330655,-30.512230274772996,16.713274236375202,-25.032015,25.032015,-6.592463415097075,-247.84173267410648,247.84173267410648,7.584158415867263,-247.84173267410648,247.84173267410648,7.584158415867263,0.0779,0.03,0.0084,0.0779,0.03,0.0084,-25.032015,-25.032015,0.766,0.5039999999999054,0.5039999999999054,0.5039999999999054,0.5039999999999054,34.526538392,108.423459148,0.0,0.0779,0.5039999999999054,53531.0
34.525468568,108.427525286,8.4378,0.0445058959258554,-0.3296926957017289,2.874208212184262,-30.50293440115854,16.82301814005745,-25.032015,25.032015,-6.349107614331886,-250.32014999908935,250.32014999908935,7.419999999973006,-250.32014999908935,250.32014999908935,7.419999999973006,0.079,0.04,0.0095,0.079,0.04,0.0095,-25.032015,-25.032015,0.742,0.6040000000002692,0.6040000000002692,0.6040000000002692,0.6040000000002692,34.526538392,108.423459148,0.0,0.079,0.6040000000002692,53531.0
34.525468568,108.427525286,8.4378,0.05096361415823442,-0.32602750427254074,2.8752554097354586,-30.492109698143942,16.92294870587139,-25.032015,25.032015,-6.129075311598916,-247.84173267410648,247.84173267410648,7.118811881212221,-247.84173267410648,247.84173267410648,7.118811881212221,0.0541,0.04,0.0088,0.0541,0.04,0.0088,-25.032015,-25.032015,0.719,0.7049999999999272,0.7049999999999272,0.7049999999999272,0.7049999999999272,34.526538392,108.423459148,0.0,0.0541,0.7049999999999272,53531.0
34.525468568,108.427525286,8.4378,0.05375614096142535,-0.3216641811425549,2.8764771402118545,-30.477925661000484,17.00087444748086,-25.032015,25.032015,-5.979372069370651,-250.32014999908935,250.32014999908935,6.9499999999747155,-250.32014999908935,250.32014999908935,6.9499999999747155,0.0095,0.05,0.0071,0.0095,0.05,0.0071,-25.032015,-25.032015,0.695,0.805000000000291,0.805000000000291,0.805000000000291,0.805000000000291,34.526538392,108.423459148,0.0,0.0095,0.805000000000291,53531.0
34.525468568,108.427525286,8.4378,0.05445427266222309,-0.3166027263117714,2.877349804837852,-30.47027853531368,17.054757949534874,-25.032015,25.032015,-5.861099827133946,-250.320150001366,250.320150001366,6.720000000036671,-250.320150001366,250.320150001366,6.720000000036671,0.0171,0.06,0.0058,0.0171,0.06,0.0058,-25.032015,-25.032015,0.672,0.9049999999997453,0.9049999999997453,0.9049999999997453,0.9049999999997453,34.526538392,108.423459148,0.0,0.0171,0.9049999999997453,53531.0
34.525468568,108.427525286,8.4378,0.05567600313861911,-0.31066860685499065,2.8782224694638487,-30.463924701701565,17.11921177025852,-25.032015,25.032015,-5.70225973229465,-250.32014999908935,250.32014999908935,6.559999999976135,-250.32014999908935,250.32014999908935,6.559999999976135,0.0124,0.07,0.0044,0.0124,0.07,0.0044,-25.032015,-25.032015,0.656,1.0050000000001091,1.0050000000001091,1.0050000000001091,1.0050000000001091,34.526538392,108.423459148,0.0,0.0124,1.0050000000001091,53531.0
34.525468568,108.427525286,8.4378,0.05742133239061344,-0.30316369107141505,2.879095134089846,-30.45928136126792,17.192985414857517,-25.032015,25.032015,-5.49887901304102,-247.84173267410648,247.84173267410648,6.267326732694488,-247.84173267410648,247.84173267410648,6.267326732694488,0.0323,0.08,0.0026,0.0323,0.08,0.0026,-25.032015,-25.032015,0.633,1.1059999999997672,1.1059999999997672,1.1059999999997672,1.1059999999997672,34.526538392,108.423459148,0.0,0.0323,1.1059999999997672,53531.0
34.525468568,108.427525286,8.4378,0.06073745796940267,-0.29391344603584507,2.879967798715843,-30.456333834779365,17.287924656465318,-25.032015,25.032015,-5.208035074507716,-250.32014999908935,250.32014999908935,6.169999999977554,-250.32014999908935,250.32014999908935,6.169999999977554,0.03,0.1,0.0013,0.03,0.1,0.0013,-25.032015,-25.032015,0.617,1.206000000000131,1.206000000000131,1.206000000000131,1.206000000000131,34.526538392,108.423459148,0.0,0.03,1.206000000000131,53531.0
34.525468568,108.427525286,8.4378,0.06213372137099813,-0.2822197400474831,2.880665930416641,-30.458863428736425,17.370000548500194,-25.032015,25.032015,-4.9088802689753805,-250.320150001366,250.320150001366,5.9400000000324145,-250.320150001366,250.320150001366,5.9400000000324145,0.0067,0.13,-0.0004,0.0067,0.13,-0.0004,-25.032015,-25.032015,0.594,1.3059999999995853,1.3059999999995853,1.3059999999995853,1.3059999999995853,34.526538392,108.423459148,0.0,0.0067,1.3059999999995853,53531.0
34.525468568,108.427525286,9.4534,0.06230825429619756,-0.268082573106329,2.881364062117439,0.5518528023005633,-1.9346173028404205,2.242256,-0.0,1.1425087945742334,22.422559999918427,-0.0,5.699999999979263,22.422559999918427,-0.0,5.699999999979263,-0.0014,0.16,-0.0021,-0.0014,0.16,-0.0021,2.242256,0.0,0.57,1.405999999999949,1.405999999999949,1.405999999999949,1.405999999999949,34.526538912,108.423456786,0.0,-0.0014,1.405999999999949,53531.0
34.525468568,108.427525286,9.4534,0.06283185307179587,-0.25080381351158515,2.8824112596686353,0.5551620351350577,-1.9597896685099023,2.242256,-0.0,1.0853296916064479,22.20055445552071,-0.0,5.4158415841767535,22.20055445552071,-0.0,5.4158415841767535,0.0229,0.19,-0.0015,0.0229,0.19,-0.0015,2.242256,0.0,0.547,1.506999999999607,1.506999999999607,1.506999999999607,1.506999999999607,34.526539439,108.423454388,0.0,0.0229,1.506999999999607,53531.0
34.525468568,108.427525286,9.4534,0.0661479786505851,-0.22968532956245377,2.8836329901450313,0.560112242403473,-1.987428250545858,2.242256,-0.0,1.0186482191502537,22.200554455320795,-0.0,5.178217821753082,22.200554455320795,-0.0,5.178217821753082,0.0404,0.23,-0.0023,0.0404,0.23,-0.0023,2.242256,0.0,0.523,1.6080000000001746,1.6080000000001746,1.6080000000001746,1.6080000000001746,34.526539952,108.423452036,0.0,0.0404,1.6080000000001746,53531.0
34.525468568,108.427525286,9.4534,0.06876597252857658,-0.20367992370773827,2.885029253546627,0.564612128467958,-2.021117406310819,2.242256,-0.0,0.9264262214716861,22.422560000122356,-0.0,4.840000000026412,22.422560000122356,-0.0,4.840000000026412,0.018,0.29,-0.0035,0.018,0.29,-0.0035,2.242256,0.0,0.484,1.707999999999629,1.707999999999629,1.707999999999629,1.707999999999629,34.526540466,108.423449671,0.0,0.018,1.707999999999629,53531.0
34.525468568,108.427525286,9.4534,0.06894050545377602,-0.17226399717184032,2.8867745827986213,0.5669677023210927,-2.0591114600124603,2.242256,-0.0,0.8069817775551664,22.422559999918427,-0.0,4.299999999984356,22.422559999918427,-0.0,4.299999999984356,-0.0097,0.34,-0.0062,-0.0097,0.34,-0.0062,2.242256,0.0,0.43,1.8079999999999927,1.8079999999999927,1.8079999999999927,1.8079999999999927,34.526540976,108.423447306,0.0,-0.0097,1.8079999999999927,53531.0
34.525468568,108.427525286,9.4534,0.06649704450098395,-0.1356120828799594,2.8886944449758145,0.567109556458778,-2.096966413844383,2.242256,-0.0,0.6659726568844686,22.20055445552071,-0.0,3.6336633663489364,22.20055445552071,-0.0,3.6336633663489364,-0.0373,0.39,-0.0066,-0.0373,0.39,-0.0066,2.242256,0.0,0.367,1.9089999999996508,1.9089999999996508,1.9089999999996508,1.9089999999996508,34.526541487,108.423444916,0.0,-0.0373,1.9089999999996508,53531.0
34.525468568,108.427525286,9.4534,0.061959188445798695,-0.0958185759344887,2.8906143071530086,0.5650845191854539,-2.130003977817478,2.242256,-0.0,0.5095915130716591,22.422559999918427,-0.0,2.969999999989195,22.422559999918427,-0.0,2.969999999989195,-0.0511,0.4,-0.0051,-0.0511,0.4,-0.0051,2.242256,0.0,0.297,2.0090000000000146,2.0090000000000146,2.0090000000000146,2.0090000000000146,34.526541989,108.423442548,0.0,-0.0511,2.0090000000000146,53531.0
34.525468568,108.427525286,9.4534,0.05567600313861911,-0.05637413483941684,2.892708702255402,0.560217069665203,-2.154772629367599,2.242256,-0.0,0.3446515923653592,22.422559999918427,-0.0,2.189999999992033,22.422559999918427,-0.0,2.189999999992033,-0.0686,0.38,-0.0002,-0.0686,0.38,-0.0002,2.242256,0.0,0.219,2.1090000000003783,2.1090000000003783,2.1090000000003783,2.1090000000003783,34.526542488,108.423440178,0.0,-0.0686,2.1090000000003783,53531.0
34.525468568,108.427525286,9.4534,0.04782202150464463,-0.02007128639793479,2.894803097357795,0.5537907838195882,-2.1692760900580126,2.242256,-0.0,0.19280296262014662,22.422560000122356,-0.0,1.4800000000080762,22.422560000122356,-0.0,1.4800000000080762,-0.0889,0.34,0.0049,-0.0889,0.34,0.0049,2.242256,0.0,0.148,2.2089999999998327,2.2089999999998327,2.2089999999998327,2.2089999999998327,34.526542982,108.423437808,0.0,-0.0889,2.2089999999998327,53531.0
34.525468568,108.427525286,9.4534,0.03787364476827695,0.01064650843716541,2.8968974924601887,0.5465604512977865,-2.1754374242145564,2.242256,-0.0,0.06206171073936666,22.20055445552071,-0.0,0.8514851485177344,22.20055445552071,-0.0,0.8514851485177344,-0.1122,0.28,0.0104,-0.1122,0.28,0.0104,2.242256,0.0,0.086,2.3099999999994907,2.3099999999994907,2.3099999999994907,2.3099999999994907,34.52654348,108.423435401,0.0,-0.1122,2.3099999999994907,53531.0
34.525468568,108.427525286,10.1566,0.025656340004316644,0.035255650890285456,2.898817354637382,0.49066341091865395,-1.9787415705888882,2.039125,-0.0,-0.04889764446364441,20.391249999925815,-0.0,0.22999999999916326,20.391249999925815,-0.0,0.22999999999916326,-0.1335,0.21,0.0142,-0.1335,0.21,0.0142,2.039125,0.0,0.023,2.4099999999998545,2.4099999999998545,2.4099999999998545,2.4099999999998545,34.52654392,108.423433254,0.0,-0.1335,2.4099999999998545,53531.0
34.525468568,108.427525286,10.1566,0.011693705988362009,0.053581608036225914,2.9007372168145755,0.4853154012399667,-1.9766347351447286,2.039125,-0.0,-0.12518326870479662,20.391249999925815,-0.0,-0.1599999999994179,20.391249999925815,-0.0,-0.1599999999994179,-0.1456,0.15,0.0146,-0.1456,0.15,0.0146,2.039125,0.0,-0.016,2.5100000000002183,2.5100000000002183,2.5100000000002183,2.5100000000002183,34.526544359,108.423431095,0.0,-0.1456,2.5100000000002183,53531.0
34.525468568,108.427525286,10.1566,-0.002617993877991494,0.06649704450098395,2.9019589472909715,0.4821826348077347,-1.9728946656846504,2.039125,-0.0,-0.19037413276997958,20.391250000111274,-0.0,-0.5500000000030013,20.391250000111274,-0.0,-0.5500000000030013,-0.1427,0.11,0.0113,-0.1427,0.11,0.0113,2.039125,0.0,-0.055,2.6099999999996726,2.6099999999996726,2.6099999999996726,2.6099999999996726,34.526544795,108.423428935,0.0,-0.1427,2.6099999999996726,53531.0
34.525468568,108.427525286,10.1566,-0.016406094968746697,0.0752236907609556,2.9028316119169686,0.4807150945898526,-1.968447826447866,2.039125,-0.0,-0.24696744322104597,19.991421568654545,-0.0,-0.9215686274522294,19.991421568654545,-0.0,-0.9215686274522294,-0.1326,0.07,0.0075,-0.1326,0.07,0.0075,2.039125,0.0,-0.094,2.7119999999995343,2.7119999999995343,2.7119999999995343,2.7119999999995343,34.526545236,108.423426743,0.0,-0.1326,2.7119999999995343,53531.0
34.525468568,108.427525286,10.1566,-0.028623399732707003,0.08098327729253689,2.9033552106925673,0.4806576938280747,-1.9650528089693553,2.039125,-0.0,-0.28152336483944285,20.391249999925815,-0.0,-1.1699999999957436,20.391249999925815,-0.0,-1.1699999999957436,-0.1091,0.04,0.0034,-0.1091,0.04,0.0034,2.039125,0.0,-0.117,2.811999999999898,2.811999999999898,2.811999999999898,2.811999999999898,34.526545669,108.423424594,0.0,-0.1091,2.811999999999898,53531.0
34.525468568,108.427525286,10.1566,-0.038397243543875255,0.08447393579652555,2.9033552106925673,0.4818127639150302,-1.9623634920552946,2.039125,-0.0,-0.3044761915193165,20.391249999925815,-0.0,-1.3299999999951615,20.391249999925815,-0.0,-1.3299999999951615,-0.0845,0.03,-0.0006,-0.0845,0.03,-0.0006,2.039125,0.0,-0.133,2.912000000000262,2.912000000000262,2.912000000000262,2.912000000000262,34.526546103,108.423422433,0.0,-0.0845,2.912000000000262,53531.0
34.525468568,108.427525286,10.1566,-0.04537856055185257,0.08639379797371932,2.903180677767368,0.48327442892405964,-1.9600748244868125,2.039125,-0.0,-0.3232449139369635,20.391250000111274,-0.0,-1.4800000000080762,20.391250000111274,-0.0,-1.4800000000080762,-0.0551,0.01,-0.0028,-0.0551,0.01,-0.0028,2.039125,0.0,-0.148,3.0119999999997162,3.0119999999997162,3.0119999999997162,3.0119999999997162,34.526546537,108.423420273,0.0,-0.0551,3.0119999999997162,53531.0
34.525468568,108.427525286,10.1566,-0.04974188368183839,0.08709192967451705,2.9026570789917696,0.48531845270917595,-1.957912933771294,2.039125,-0.0,-0.34054325548461056,20.18935643553012,-0.0,-1.6237623762284998,20.18935643553012,-0.0,-1.6237623762284998,-0.0288,0.0,-0.0055,-0.0288,0.0,-0.0055,2.039125,0.0,-0.164,3.1130000000002838,3.1130000000002838,3.1130000000002838,3.1130000000002838,34.526546979,108.423418081,0.0,-0.0288,3.1130000000002838,53531.0
34.525468568,108.427525286,10.1566,-0.05131268000863329,0.08656833089891874,2.9019589472909715,0.48721231154096395,-1.9569181912695792,2.039125,-0.0,-0.3474336221296207,20.391250000111274,-0.0,-1.7200000000093858,20.391250000111274,-0.0,-1.7200000000093858,-0.0017,-0.01,-0.0086,-0.0017,-0.01,-0.0086,2.039125,0.0,-0.172,3.212999999999738,3.212999999999738,3.212999999999738,3.212999999999738,34.526547414,108.423415932,0.0,-0.0017,3.212999999999738,53531.0
34.525468568,108.427525286,10.1566,-0.05044001538263613,0.08499753457212385,2.9010862826649744,0.48936386222978534,-1.9555452723018438,2.039125,-0.0,-0.36019503598253066,20.391249999925815,-0.0,-1.8799999999931607,20.391249999925815,-0.0,-1.8799999999931607,0.0253,-0.02,-0.0114,0.0253,-0.02,-0.0114,2.039125,0.0,-0.188,3.313000000000102,3.313000000000102,3.313000000000102,3.313000000000102,34.526547852,108.423413773,0.0,0.0253,3.313000000000102,53531.0
34.525468568,108.427525286,10.5159,-0.04590215932745086,0.08272860654453122,2.900039085113778,-30.26500326157471,18.350441856891546,-25.032015,25.032015,0.729682228209869,-250.320150001366,250.320150001366,-1.9500000000106412,-250.320150001366,250.320150001366,-1.9500000000106412,0.0666,-0.03,-0.0128,0.0666,-0.03,-0.0128,-25.032015,-25.032015,-0.195,3.412999999999556,3.412999999999556,3.412999999999556,3.412999999999556,34.526547852,108.423413773,0.0,0.0666,3.412999999999556,53531.0
34.525468568,108.427525286,10.5159,-0.03787364476827695,0.07976154681614087,2.898817354637382,-30.29373638650835,18.29752345296353,-25.032015,25.032015,0.8554216232011539,-247.8417326718747,247.8417326718747,-1.930693069296082,-247.8417326718747,247.8417326718747,-1.930693069296082,0.0949,-0.03,-0.0135,0.0949,-0.03,-0.0135,-25.032015,-25.032015,-0.195,3.5140000000001237,3.5140000000001237,3.5140000000001237,3.5140000000001237,34.526547852,108.423413773,0.0,0.0949,3.5140000000001237,53531.0
34.525468568,108.427525286,10.5159,-0.027925268031909273,0.07661995416255106,2.8975956241609855,-30.321847766427737,18.242705130959205,-25.032015,25.032015,1.0168659965335785,-250.320150001366,250.320150001366,-2.0300000000110776,-250.320150001366,250.320150001366,-2.0300000000110776,0.1012,-0.03,-0.0142,0.1012,-0.03,-0.0142,-25.032015,-25.032015,-0.203,3.613999999999578,3.613999999999578,3.613999999999578,3.613999999999578,34.526547852,108.423413773,0.0,0.1012,3.613999999999578,53531.0
34.525468568,108.427525286,10.5159,-0.01815142422074103,0.0736528944341607,2.896024827834191,-30.354188802493177,18.178565075063894,-25.032015,25.032015,1.1864876209702806,-250.32014999908935,250.32014999908935,-2.029999999992615,-250.32014999908935,250.32014999908935,-2.029999999992615,0.0969,-0.03,-0.0147,0.0969,-0.03,-0.0147,-25.032015,-25.032015,-0.203,3.713999999999942,3.713999999999942,3.713999999999942,3.713999999999942,34.526547852,108.423413773,0.0,0.0969,3.713999999999942,53531.0
34.525468568,108.427525286,10.5159,-0.008726646259971648,0.07103490055616922,2.8946285644325953,-30.38104525453837,18.121050234979236,-25.032015,25.032015,1.3642589722999374,-247.84173267410648,247.84173267410648,-1.9306930693134678,-247.84173267410648,247.84173267410648,-1.9306930693134678,0.0956,-0.02,-0.0152,0.0956,-0.02,-0.0152,-25.032015,-25.032015,-0.195,3.8149999999996,3.8149999999996,3.8149999999996,3.8149999999996,34.526547852,108.423413773,0.0,0.0956,3.8149999999996,53531.0
34.525468568,108.427525286,10.5159,0.00034906585039886593,0.06876597252857658,2.8930577681058005,-30.408895209931952,18.05997851825545,-25.032015,25.032015,1.5411560440070846,-247.8417326718747,247.8417326718747,-1.861386138603402,-247.8417326718747,247.8417326718747,-1.861386138603402,0.0898,-0.02,-0.0159,0.0898,-0.02,-0.0159,-25.032015,-25.032015,-0.188,3.9160000000001673,3.9160000000001673,3.9160000000001673,3.9160000000001673,34.526547852,108.423413773,0.0,0.0898,3.9160000000001673,53531.0
34.525468568,108.427525286,10.5159,0.008552113334772215,0.06684611035138283,2.891486971779006,-30.43516105124305,18.001567301893356,-25.032015,25.032015,1.6980696042132495,-250.320150001366,250.320150001366,-1.880000000010259,-250.320150001366,250.320150001366,-1.880000000010259,0.0724,-0.02,-0.0168,0.0724,-0.02,-0.0168,-25.032015,-25.032015,-0.188,4.015999999999622,4.015999999999622,4.015999999999622,4.015999999999622,34.526547852,108.423413773,0.0,0.0724,4.015999999999622,53531.0
34.525468568,108.427525286,10.5159,0.015184364492350668,0.06527531402458793,2.8897416425270115,-30.463543334301324,17.94019136009513,-25.032015,25.032015,1.832487763332366,-250.32014999908935,250.32014999908935,-1.7999999999934515,-250.32014999908935,250.32014999908935,-1.7999999999934515,0.0648,-0.01,-0.0171,0.0648,-0.01,-0.0171,-25.032015,-25.032015,-0.18,4.1159999999999854,4.1159999999999854,4.1159999999999854,4.1159999999999854,34.526547852,108.423413773,0.0,0.0648,4.1159999999999854,53531.0
34.525468568,108.427525286,10.5159,0.020943951023931952,0.06405358354819189,2.8879963132750173,-30.491242061659623,17.88015098690305,-25.032015,25.032015,1.9538403576748744,-250.32014999908935,250.32014999908935,-1.7199999999937425,-250.32014999908935,250.32014999908935,-1.7199999999937425,0.0528,-0.01,-0.0171,0.0528,-0.01,-0.0171,-25.032015,-25.032015,-0.172,4.216000000000349,4.216000000000349,4.216000000000349,4.216000000000349,34.526547852,108.423413773,0.0,0.0528,4.216000000000349,53531.0
34.525468568,108.427525286,10.5159,0.025656340004316644,0.06335545184739416,2.886250984023023,-30.51865763670426,17.82104635469498,-25.032015,25.032015,2.0621078531190253,-247.84173267410648,247.84173267410648,-1.6237623762431217,-247.84173267410648,247.84173267410648,-1.6237623762431217,0.0441,-0.0,-0.0165,0.0441,-0.0,-0.0165,-25.032015,-25.032015,-0.164,4.317000000000007,4.317000000000007,4.317000000000007,4.317000000000007,34.526547852,108.423413773,0.0,0.0441,4.317000000000007,53531.0
34.525468568,108.427525286,10.5628,0.029670597283903602,0.06318091892219473,2.884680187696228,-30.542683249683716,17.767409487472754,-25.032015,25.032015,2.1659976764537596,-250.32014999908935,250.32014999908935,-1.5599999999943248,-250.32014999908935,250.32014999908935,-1.5599999999943248,0.0387,0.0,-0.0152,0.0387,0.0,-0.0152,-25.032015,-25.032015,-0.156,4.417000000000371,4.417000000000371,4.417000000000371,4.417000000000371,34.526547852,108.423413773,0.0,0.0387,4.417000000000371,53531.0
34.525468568,108.427525286,10.5628,0.03298672286269283,0.06370451769779303,2.8832839242946324,-30.5638074008547,17.719071214052644,-25.032015,25.032015,2.26187497338841,-250.320150001366,250.320150001366,-1.5600000000085128,-250.320150001366,250.320150001366,-1.5600000000085128,0.0263,0.01,-0.0138,0.0263,0.01,-0.0138,-25.032015,-25.032015,-0.156,4.516999999999825,4.516999999999825,4.516999999999825,4.516999999999825,34.526547852,108.423413773,0.0,0.0263,4.516999999999825,53531.0
34.525468568,108.427525286,10.5628,0.03490658503988659,0.06475171524898962,2.881887660893037,-30.58541827671772,17.670985827209403,-25.032015,25.032015,2.3439075607277533,-250.32014999908935,250.32014999908935,-1.4799999999946156,-250.32014999908935,250.32014999908935,-1.4799999999946156,0.0122,0.01,-0.0128,0.0122,0.01,-0.0128,-25.032015,-25.032015,-0.148,4.617000000000189,4.617000000000189,4.617000000000189,4.617000000000189,34.526547852,108.423413773,0.0,0.0122,4.617000000000189,53531.0
34.525468568,108.427525286,10.5628,0.03560471674068432,0.06632251157578452,2.880665930416641,-30.604872494042045,17.62864872665609,-25.032015,25.032015,2.4074788921287658,-247.84173267410648,247.84173267410648,-1.3960396039651226,-247.84173267410648,247.84173267410648,-1.3960396039651226,0.0066,0.02,-0.0124,0.0066,0.02,-0.0124,-25.032015,-25.032015,-0.141,4.717999999999847,4.717999999999847,4.717999999999847,4.717999999999847,34.526547852,108.423413773,0.0,0.0066,4.717999999999847,53531.0
34.525468568,108.427525286,10.5628,0.03630284844148206,0.06824237375297829,2.879444199940245,-30.62435697946766,17.585723060910354,-25.032015,25.032015,2.472758568794377,-250.32014999908935,250.32014999908935,-1.4099999999948702,-250.32014999908935,250.32014999908935,-1.4099999999948702,0.0085,0.02,-0.0121,0.0085,0.02,-0.0121,-25.032015,-25.032015,-0.141,4.818000000000211,4.818000000000211,4.818000000000211,4.818000000000211,34.526547852,108.423413773,0.0,0.0085,4.818000000000211,53531.0
34.525468568,108.427525286,10.5628,0.03735004599267865,0.07033676885537149,2.8783970023890486,-30.640125811594505,17.547025044740536,-25.032015,25.032015,2.551084720145351,-247.84173267410648,247.84173267410648,-1.3960396039651226,-247.84173267410648,247.84173267410648,-1.3960396039651226,0.012,0.02,-0.0119,0.012,0.02,-0.0119,-25.032015,-25.032015,-0.141,4.918999999999869,4.918999999999869,4.918999999999869,4.918999999999869,34.526547852,108.423413773,0.0,0.012,4.918999999999869,53531.0
34.525468568,108.427525286,10.5628,0.03822271061867582,0.07243116395776468,2.877349804837852,-30.655983895624463,17.508377104350085,-25.032015,25.032015,2.6250359013798574,-250.32014999908935,250.32014999908935,-1.4099999999948702,-250.32014999908935,250.32014999908935,-1.4099999999948702,0.0087,0.02,-0.012,0.0087,0.02,-0.012,-25.032015,-25.032015,-0.141,5.019000000000233,5.019000000000233,5.019000000000233,5.019000000000233,34.526547852,108.423413773,0.0,0.0087,5.019000000000233,53531.0
34.525468568,108.427525286,10.5628,0.03892084231947355,0.07435102613495843,2.876128074361456,-30.675520662661402,17.465332152223823,-25.032015,25.032015,2.6832925311229796,-247.84173267410648,247.84173267410648,-1.4653465346584267,-247.84173267410648,247.84173267410648,-1.4653465346584267,0.0062,0.02,-0.0116,0.0062,0.02,-0.0116,-25.032015,-25.032015,-0.148,5.119999999999891,5.119999999999891,5.119999999999891,5.119999999999891,34.526547852,108.423413773,0.0,0.0062,5.119999999999891,53531.0
34.525468568,108.427525286,10.5628,0.039269908169872414,0.07609635538695278,2.8750808768102596,-30.692095572131787,17.42808064485559,-25.032015,25.032015,2.7354576121719156,-250.32014999908935,250.32014999908935,-1.4799999999946156,-250.32014999908935,250.32014999908935,-1.4799999999946156,0.0013,0.02,-0.0107,0.0013,0.02,-0.0107,-25.032015,-25.032015,-0.148,5.220000000000255,5.220000000000255,5.220000000000255,5.220000000000255,34.526547852,108.423413773,0.0,0.0013,5.220000000000255,53531.0
34.525468568,108.427525286,10.5628,0.039095375244672985,0.07749261878854824,2.874208212184262,-30.706506693052713,17.39787063269163,-25.032015,25.032015,2.765862989752911,-250.320150001366,250.320150001366,-1.4800000000080762,-250.320150001366,250.320150001366,-1.4800000000080762,-0.0016,0.01,-0.0094,-0.0016,0.01,-0.0094,-25.032015,-25.032015,-0.148,5.319999999999709,5.319999999999709,5.319999999999709,5.319999999999709,34.526547852,108.423413773,0.0,-0.0016,5.319999999999709,53531.0
34.525468568,108.427525286,10.4925,0.03874630939427412,0.0783652834145454,2.8733355475582645,-30.721959199220226,17.369835130791294,-25.032015,25.032015,2.770908950331248,-250.32014999908935,250.32014999908935,-1.5599999999943248,-250.32014999908935,250.32014999908935,-1.5599999999943248,-0.005,0.01,-0.0078,-0.005,0.01,-0.0078,-25.032015,-25.032015,-0.156,5.420000000000073,5.420000000000073,5.420000000000073,5.420000000000073,34.526547852,108.423413773,0.0,-0.005,5.420000000000073,53531.0
34.525468568,108.427525286,10.4925,0.03769911184307752,0.07853981633974483,2.8726374158574672,-30.73530409593058,17.34967530107819,-25.032015,25.032015,2.749133499537706,-247.84173267410648,247.84173267410648,-1.5445544554507742,-247.84173267410648,247.84173267410648,-1.5445544554507742,-0.0116,0.0,-0.0065,-0.0116,0.0,-0.0065,-25.032015,-25.032015,-0.156,5.520999999999731,5.520999999999731,5.520999999999731,5.520999999999731,34.526547852,108.423413773,0.0,-0.0116,5.520999999999731,53531.0
34.525468568,108.427525286,10.4925,0.03665191429188092,0.0783652834145454,2.8721138170818685,-30.74583962937319,17.33580332332884,-25.032015,25.032015,2.718667787754806,-250.32014999908935,250.32014999908935,-1.5599999999943248,-250.32014999908935,250.32014999908935,-1.5599999999943248,-0.0079,-0.0,-0.0047,-0.0079,-0.0,-0.0047,-25.032015,-25.032015,-0.156,5.621000000000095,5.621000000000095,5.621000000000095,5.621000000000095,34.526547852,108.423413773,0.0,-0.0079,5.621000000000095,53531.0
34.525468568,108.427525286,10.4925,0.03612831551628262,0.0778416846389471,2.8715902183062703,-30.75594384883179,17.321947540155623,-25.032015,25.032015,2.6925707611969525,-250.320150001366,250.320150001366,-1.5600000000085128,-250.320150001366,250.320150001366,-1.5600000000085128,-0.0044,-0.01,-0.0038,-0.0044,-0.01,-0.0038,-25.032015,-25.032015,-0.156,5.720999999999549,5.720999999999549,5.720999999999549,5.720999999999549,34.526547852,108.423413773,0.0,-0.0044,5.720999999999549,53531.0
34.525468568,108.427525286,10.4925,0.03560471674068432,0.07661995416255106,2.8712411524558714,-30.763504149132313,17.3152255236698,-25.032015,25.032015,2.649087286448515,-250.32014999908935,250.32014999908935,-1.5599999999943248,-250.32014999908935,250.32014999908935,-1.5599999999943248,-0.0072,-0.01,-0.0036,-0.0072,-0.01,-0.0036,-25.032015,-25.032015,-0.156,5.820999999999913,5.820999999999913,5.820999999999913,5.820999999999913,34.526547852,108.423413773,0.0,-0.0072,5.820999999999913,53531.0
34.525468568,108.427525286,10.4925,0.034557519189487726,0.0752236907609556,2.8707175536802736,-30.774377768816482,17.303846089609348,-25.032015,25.032015,2.5961581942815197,-247.84173267410648,247.84173267410648,-1.4653465346584267,-247.84173267410648,247.84173267410648,-1.4653465346584267,-0.0131,-0.02,-0.0029,-0.0131,-0.02,-0.0029,-25.032015,-25.032015,-0.148,5.921999999999571,5.921999999999571,5.921999999999571,5.921999999999571,34.526547852,108.423413773,0.0,-0.0131,5.921999999999571,53531.0
34.525468568,108.427525286,10.4925,0.032637657012293965,0.0736528944341607,2.870368487829874,-30.78372920851639,17.300051574685163,-25.032015,25.032015,2.5091204535490355,-247.8417326718747,247.8417326718747,-1.4653465346452315,-247.8417326718747,247.8417326718747,-1.4653465346452315,-0.0257,-0.02,-0.0025,-0.0257,-0.02,-0.0025,-25.032015,-25.032015,-0.148,6.023000000000138,6.023000000000138,6.023000000000138,6.023000000000138,34.526547852,108.423413773,0.0,-0.0257,6.023000000000138,53531.0
34.525468568,108.427525286,10.4925,0.029670597283903602,0.07190756518216639,2.870193954904675,-30.791148000268308,17.30349760195912,-25.032015,25.032015,2.3915746873176476,-250.320150001366,250.320150001366,-1.4800000000080762,-250.320150001366,250.320150001366,-1.4800000000080762,-0.0331,-0.02,-0.0017,-0.0331,-0.02,-0.0017,-25.032015,-25.032015,-0.148,6.1229999999995925,6.1229999999995925,6.1229999999995925,6.1229999999995925,34.526547852,108.423413773,0.0,-0.0331,6.1229999999995925,53531.0
34.525468568,108.427525286,10.4925,0.026354471705114377,0.07016223593017204,2.8700194219794755,-30.798604904250443,17.307220517292556,-25.032015,25.032015,2.2652831695261195,-250.32014999908935,250.32014999908935,-1.4799999999946156,-250.32014999908935,250.32014999908935,-1.4799999999946156,-0.0335,-0.02,-0.0008,-0.0335,-0.02,-0.0008,-25.032015,-25.032015,-0.148,6.222999999999956,6.222999999999956,6.222999999999956,6.222999999999956,34.526547852,108.423413773,0.0,-0.0335,6.222999999999956,53531.0
34.525468568,108.427525286,10.4925,0.02303834612632515,0.06841690667817772,2.869844889054276,-30.805701078293136,17.31066405783782,-25.032015,25.032015,2.1389588289587556,-247.84173267410648,247.84173267410648,-1.4653465346584267,-247.84173267410648,247.84173267410648,-1.4653465346584267,-0.0294,-0.02,0.0001,-0.0294,-0.02,0.0001,-25.032015,-25.032015,-0.148,6.323999999999614,6.323999999999614,6.323999999999614,6.323999999999614,34.526547852,108.423413773,0.0,-0.0294,6.323999999999614,53531.0
34.525468568,108.427525286,9.9144,0.020420352248333655,0.06667157742618339,2.869844889054276,-30.808863182856197,17.3181507563637,-25.032015,25.032015,2.0300388371549203,-250.32014999908935,250.32014999908935,-1.4799999999946156,-250.32014999908935,250.32014999908935,-1.4799999999946156,-0.0215,-0.02,0.0008,-0.0215,-0.02,0.0008,-25.032015,-25.032015,-0.148,6.423999999999978,6.423999999999978,6.423999999999978,6.423999999999978,34.526547852,108.423413773,0.0,-0.0215,6.423999999999978,53531.0
34.525468568,108.427525286,9.9144,0.01884955592153876,0.06492624817418906,2.8700194219794755,-30.80826889438457,17.329676452699005,-25.032015,25.032015,1.9392698874874792,-250.32014999908935,250.32014999908935,-1.5599999999943248,-250.32014999908935,250.32014999908935,-1.5599999999943248,-0.0129,-0.02,0.0015,-0.0129,-0.02,0.0015,-25.032015,-25.032015,-0.156,6.524000000000342,6.524000000000342,6.524000000000342,6.524000000000342,34.526547852,108.423413773,0.0,-0.0129,6.524000000000342,53531.0
34.525468568,108.427525286,9.9144,0.017627825445142728,0.0635299847725936,2.870193954904675,-30.80683741579552,17.339410413992393,-25.032015,25.032015,1.873899904563623,-250.320150001366,250.320150001366,-1.5600000000085128,-250.320150001366,250.320150001366,-1.5600000000085128,-0.0091,-0.01,0.0024,-0.0091,-0.01,0.0024,-25.032015,-25.032015,-0.156,6.623999999999796,6.623999999999796,6.623999999999796,6.623999999999796,34.526547852,108.423413773,0.0,-0.0091,6.623999999999796,53531.0
34.525468568,108.427525286,9.9144,0.016929693744344994,0.06230825429619756,2.870368487829874,-30.80489652702506,17.34797134471921,-25.032015,25.032015,1.825958954229322,-247.8417326718747,247.8417326718747,-1.5445544554368655,-247.8417326718747,247.8417326718747,-1.5445544554368655,-0.0062,-0.01,0.0039,-0.0062,-0.01,0.0039,-25.032015,-25.032015,-0.156,6.725000000000364,6.725000000000364,6.725000000000364,6.725000000000364,34.526547852,108.423413773,0.0,-0.0062,6.725000000000364,53531.0
34.525468568,108.427525286,9.9144,0.016406094968746697,0.0614355896702004,2.870892086605473,-30.796579463435286,17.366363439183726,-25.032015,25.032015,1.7910891019009547,-250.320150001366,250.320150001366,-1.5600000000085128,-250.320150001366,250.320150001366,-1.5600000000085128,-0.0034,-0.01,0.0058,-0.0034,-0.01,0.0058,-25.032015,-25.032015,-0.156,6.824999999999818,6.824999999999818,6.824999999999818,6.824999999999818,34.526547852,108.423413773,0.0,-0.0034,6.824999999999818,53531.0
34.525468568,108.427525286,9.9144,0.016406094968746697,0.06091199089460211,2.8715902183062703,-30.784440815410417,17.38832552948398,-25.032015,25.032015,1.785999127558188,-250.32014999908935,250.32014999908935,-1.4799999999946156,-250.32014999908935,250.32014999908935,-1.4799999999946156,0.0031,-0.0,0.0081,0.0031,-0.0,0.0081,-25.032015,-25.032015,-0.148,6.925000000000182,6.925000000000182,6.925000000000182,6.925000000000182,34.526547852,108.423413773,0.0,0.0031,6.925000000000182,53531.0
34.525468568,108.427525286,9.9144,0.016929693744344994,0.061086523819801536,2.8724628829322674,-30.7688232951846,17.41414870652337,-25.032015,25.032015,1.8034388753838462,-247.84173267410648,247.84173267410648,-1.4653465346584267,-247.84173267410648,247.84173267410648,-1.4653465346584267,0.007,0.0,0.0098,0.007,0.0,0.0098,-25.032015,-25.032015,-0.148,7.02599999999984,7.02599999999984,7.02599999999984,7.02599999999984,34.526547852,108.423413773,0.0,0.007,7.02599999999984,53531.0
34.525468568,108.427525286,9.9144,0.01780235837034216,0.061784655520599266,2.873510080483464,-30.749402117436944,17.443522264648326,-25.032015,25.032015,1.8496570880390886,-247.84173267410648,247.84173267410648,-1.3960396039651226,-247.84173267410648,247.84173267410648,-1.3960396039651226,0.0071,0.01,0.0105,0.0071,0.01,0.0105,-25.032015,-25.032015,-0.141,7.126999999999498,7.126999999999498,7.126999999999498,7.126999999999498,34.526547852,108.423413773,0.0,0.0071,7.126999999999498,53531.0
34.525468568,108.427525286,9.9144,0.018500490071139894,0.06300638599699529,2.8745572780346604,-30.73001588421442,17.472512176165708,-25.032015,25.032015,1.8975966194428247,-250.32014999908935,250.32014999908935,-1.4099999999948702,-250.32014999908935,250.32014999908935,-1.4099999999948702,0.0047,0.01,0.0108,0.0047,0.01,0.0108,-25.032015,-25.032015,-0.141,7.226999999999862,7.226999999999862,7.226999999999862,7.226999999999862,34.526547852,108.423413773,0.0,0.0047,7.226999999999862,53531.0
34.525468568,108.427525286,9.9144,0.01884955592153876,0.0645771823237902,2.8756044755858574,-30.710370917338157,17.500804933722975,-25.032015,25.032015,1.9535054931427331,-250.32014999908935,250.32014999908935,-1.3299999999951615,-250.32014999908935,250.32014999908935,-1.3299999999951615,0.0005,0.02,0.0106,0.0005,0.02,0.0106,-25.032015,-25.032015,-0.133,7.3270000000002256,7.3270000000002256,7.3270000000002256,7.3270000000002256,34.526547852,108.423413773,0.0,0.0005,7.3270000000002256,53531.0
34.525468568,108.427525286,9.8675,0.018675022996339326,0.06649704450098395,2.876651673137054,-30.691165889686072,17.529555937480563,-25.032015,25.032015,1.9970588090889994,-250.320150001366,250.320150001366,-1.3300000000072578,-250.320150001366,250.320150001366,-1.3300000000072578,-0.0041,0.02,0.01,-0.0041,0.02,0.01,-25.032015,-25.032015,-0.133,7.42699999999968,7.42699999999968,7.42699999999968,7.42699999999968,34.526547852,108.423413773,0.0,-0.0041,7.42699999999968,53531.0
34.525468568,108.427525286,9.8675,0.01832595714594046,0.06876597252857658,2.87787340361345,-30.668511637338483,17.562659811979913,-25.032015,25.032015,2.05293672565662,-247.8417326718747,247.8417326718747,-1.2376237623692834,-247.8417326718747,247.8417326718747,-1.2376237623692834,-0.0069,0.02,0.0097,-0.0069,0.02,0.0097,-25.032015,-25.032015,-0.125,7.528000000000247,7.528000000000247,7.528000000000247,7.528000000000247,34.526547852,108.423413773,0.0,-0.0069,7.528000000000247,53531.0
34.525468568,108.427525286,9.8675,0.017278759594743863,0.07120943348136864,2.878746068239447,-30.65265971248469,17.586214190638948,-25.032015,25.032015,2.0877494849807223,-250.320150001366,250.320150001366,-1.2500000000068212,-250.320150001366,250.320150001366,-1.2500000000068212,-0.0166,0.03,0.0095,-0.0166,0.03,0.0095,-25.032015,-25.032015,-0.125,7.627999999999702,7.627999999999702,7.627999999999702,7.627999999999702,34.526547852,108.423413773,0.0,-0.0166,7.627999999999702,53531.0
34.525468568,108.427525286,9.8675,0.015009831567151233,0.07400196028455958,2.8796187328654446,-30.637196098439233,17.610583402900954,-25.032015,25.032015,2.108745208814766,-250.32014999908935,250.32014999908935,-1.1699999999957436,-250.32014999908935,250.32014999908935,-1.1699999999957436,-0.0304,0.03,0.0093,-0.0304,0.03,0.0093,-25.032015,-25.032015,-0.117,7.7280000000000655,7.7280000000000655,7.7280000000000655,7.7280000000000655,34.526547852,108.423413773,0.0,-0.0304,7.7280000000000655,53531.0
34.525468568,108.427525286,9.8675,0.011519173063162575,0.07661995416255106,2.880665930416641,-30.619741896639766,17.643508700066565,-25.032015,25.032015,2.086922579850374,-250.320150001366,250.320150001366,-1.1700000000063848,-250.320150001366,250.320150001366,-1.1700000000063848,-0.0407,0.03,0.0095,-0.0407,0.03,0.0095,-25.032015,-25.032015,-0.117,7.82799999999952,7.82799999999952,7.82799999999952,7.82799999999952,34.526547852,108.423413773,0.0,-0.0407,7.82799999999952,53531.0
34.525468568,108.427525286,9.8675,0.007330382858376184,0.079412480965742,2.8817131279678376,-30.602125430599553,17.67715024855589,-25.032015,25.032015,2.0600264901896557,-247.8417326718747,247.8417326718747,-1.079207920786015,-247.8417326718747,247.8417326718747,-1.079207920786015,-0.0441,0.03,0.0103,-0.0441,0.03,0.0103,-25.032015,-25.032015,-0.109,7.929000000000087,7.929000000000087,7.929000000000087,7.929000000000087,34.526547852,108.423413773,0.0,-0.0441,7.929000000000087,53531.0
34.525468568,108.427525286,9.8675,0.003141592653589793,0.08237954069413235,2.8829348584442336,-30.581210686779684,17.716827005721253,-25.032015,25.032015,2.0295380510323633,-250.320150001366,250.320150001366,-1.090000000005948,-250.320150001366,250.320150001366,-1.090000000005948,-0.0409,0.03,0.0119,-0.0409,0.03,0.0119,-25.032015,-25.032015,-0.109,8.028999999999542,8.028999999999542,8.028999999999542,8.028999999999542,34.526547852,108.423413773,0.0,-0.0409,8.028999999999542,53531.0
34.525468568,108.427525286,9.8675,-0.0006981317007977319,0.08517206749732328,2.8841565889206295,-30.559718647331735,17.756007578477803,-25.032015,25.032015,2.0104091597019353,-247.8417326718747,247.8417326718747,-1.0099009900933351,-247.8417326718747,247.8417326718747,-1.0099009900933351,-0.0402,0.03,0.0131,-0.0402,0.03,0.0131,-25.032015,-25.032015,-0.102,8.13000000000011,8.13000000000011,8.13000000000011,8.13000000000011,34.526547852,108.423413773,0.0,-0.0402,8.13000000000011,53531.0
34.525468568,108.427525286,9.8675,-0.004537856055185257,0.08779006137531478,2.8853783193970255,-30.53816062041314,17.796470923678285,-25.032015,25.032015,1.9799804304516753,-250.320150001366,250.320150001366,-1.020000000005566,-250.320150001366,250.320150001366,-1.020000000005566,-0.0385,0.03,0.014,-0.0385,0.03,0.014,-25.032015,-25.032015,-0.102,8.229999999999563,8.229999999999563,8.229999999999563,8.229999999999563,34.526547852,108.423413773,0.0,-0.0385,8.229999999999563,53531.0
34.525468568,108.427525286,9.8675,-0.008028514559173916,0.09058258817850572,2.8869491157238203,-30.509745988920596,17.846133556184373,-25.032015,25.032015,1.9706097297091276,-247.8417326718747,247.8417326718747,-0.930693069301701,-247.8417326718747,247.8417326718747,-0.930693069301701,-0.029,0.03,0.015,-0.029,0.03,0.015,-25.032015,-25.032015,-0.094,8.331000000000131,8.331000000000131,8.331000000000131,8.331000000000131,34.526547852,108.423413773,0.0,-0.029,8.331000000000131,53531.0
34.525468568,108.427525286,9.7894,-0.010471975511965976,0.09337511498169662,2.888345379125416,-30.484053887325874,17.889014074423752,-25.032015,25.032015,1.9793988885850604,-250.320150001366,250.320150001366,-0.9400000000051295,-250.320150001366,250.320150001366,-0.9400000000051295,-0.0259,0.03,0.0155,-0.0259,0.03,0.0155,-25.032015,-25.032015,-0.094,8.430999999999585,8.430999999999585,8.430999999999585,8.430999999999585,34.526547852,108.423413773,0.0,-0.0259,8.430999999999585,53531.0
34.525468568,108.427525286,9.7894,-0.012915436464758038,0.09599310885968812,2.8899161754522105,-30.45514912513852,17.93768696269897,-25.032015,25.032015,1.983850829635127,-250.32014999908935,250.32014999908935,-0.9399999999965803,-250.32014999908935,250.32014999908935,-0.9399999999965803,-0.0276,0.03,0.0157,-0.0276,0.03,0.0157,-25.032015,-25.032015,-0.094,8.530999999999949,8.530999999999949,8.530999999999949,8.530999999999949,34.526547852,108.423413773,0.0,-0.0276,8.530999999999949,53531.0
34.525468568,108.427525286,9.7894,-0.016057029118347832,0.09878563566287905,2.891486971779006,-30.42606937461186,17.987910217614896,-25.032015,25.032015,1.975290949400217,-250.32014999908935,250.32014999908935,-0.9399999999965803,-250.32014999908935,250.32014999908935,-0.9399999999965803,-0.0409,0.03,0.0153,-0.0409,0.03,0.0153,-25.032015,-25.032015,-0.094,8.631000000000313,8.631000000000313,8.631000000000313,8.631000000000313,34.526547852,108.423413773,0.0,-0.0409,8.631000000000313,53531.0
34.525468568,108.427525286,9.7894,-0.020594885173533087,0.10175269539126941,2.892883235180601,-30.399862813663372,18.036386536604116,-25.032015,25.032015,1.9363593501989866,-247.84173267410648,247.84173267410648,-0.9306930693100819,-247.84173267410648,247.84173267410648,-0.9306930693100819,-0.0495,0.03,0.0154,-0.0495,0.03,0.0154,-25.032015,-25.032015,-0.094,8.731999999999971,8.731999999999971,8.731999999999971,8.731999999999971,34.526547852,108.423413773,0.0,-0.0495,8.731999999999971,53531.0
34.525468568,108.427525286,9.7894,-0.025656340004316644,0.1048942880448592,2.8944540315073963,-30.369917664861177,18.09178940709107,-25.032015,25.032015,1.8888205313026947,-250.32014999908935,250.32014999908935,-0.9399999999965803,-250.32014999908935,250.32014999908935,-0.9399999999965803,-0.0552,0.03,0.0157,-0.0552,0.03,0.0157,-25.032015,-25.032015,-0.094,8.832000000000335,8.832000000000335,8.832000000000335,8.832000000000335,34.526547852,108.423413773,0.0,-0.0552,8.832000000000335,53531.0
34.525468568,108.427525286,9.7894,-0.030892327760299633,0.10803588069844901,2.8958502949089917,-30.34248880551128,18.143919442924073,-25.032015,25.032015,1.8290746995558642,-250.320150001366,250.320150001366,-1.020000000005566,-250.320150001366,250.320150001366,-1.020000000005566,-0.0502,0.03,0.0165,-0.0502,0.03,0.0165,-25.032015,-25.032015,-0.102,8.931999999999789,8.931999999999789,8.931999999999789,8.931999999999789,34.526547852,108.423413773,0.0,-0.0502,8.931999999999789,53531.0
34.525468568,108.427525286,9.7894,-0.035255650890285456,0.11135200627723822,2.8975956241609855,-30.308270683272752,18.203579882994443,-25.032015,25.032015,1.803430495849314,-250.32014999908935,250.32014999908935,-1.0199999999962892,-250.32014999908935,250.32014999908935,-1.0199999999962892,-0.0401,0.03,0.0168,-0.0401,0.03,0.0168,-25.032015,-25.032015,-0.102,9.032000000000153,9.032000000000153,9.032000000000153,9.032000000000153,34.526547852,108.423413773,0.0,-0.0401,9.032000000000153,53531.0
34.525468568,108.427525286,9.7894,-0.038397243543875255,0.11449359893082801,2.8989918875625813,-30.28039962342013,18.25058763611678,-25.032015,25.032015,1.7969085961309135,-247.84173267410648,247.84173267410648,-1.0792079207957332,-247.84173267410648,247.84173267410648,-1.0792079207957332,-0.0232,0.03,0.0172,-0.0232,0.03,0.0172,-25.032015,-25.032015,-0.109,9.13299999999981,9.13299999999981,9.13299999999981,9.13299999999981,34.526547852,108.423413773,0.0,-0.0232,9.13299999999981,53531.0
34.525468568,108.427525286,9.7894,-0.039968039870670144,0.11798425743481668,2.9007372168145755,-30.24640877987414,18.302068705495785,-25.032015,25.032015,1.8451200341750862,-247.8417326718747,247.8417326718747,-1.079207920786015,-247.8417326718747,247.8417326718747,-1.079207920786015,-0.0113,0.03,0.0171,-0.0113,0.03,0.0171,-25.032015,-25.032015,-0.109,9.234000000000378,9.234000000000378,9.234000000000378,9.234000000000378,34.526547852,108.423413773,0.0,-0.0113,9.234000000000378,53531.0
34.525468568,108.427525286,9.7894,-0.040317105721069016,0.12182398178920421,2.9023080131413708,-30.21577366989311,18.343617919250082,-25.032015,25.032015,1.932390768662421,-250.320150001366,250.320150001366,-1.090000000005948,-250.320150001366,250.320150001366,-1.090000000005948,0.0014,0.04,0.017,0.0014,0.04,0.017,-25.032015,-25.032015,-0.109,9.333999999999833,9.333999999999833,9.333999999999833,9.333999999999833,34.526547852,108.423413773,0.0,0.0014,9.333999999999833,53531.0
34.525468568,108.427525286,10.2425,-0.03944444109507184,0.12566370614359174,2.903704276542966,-30.18856355529706,18.376561564815145,-25.032015,25.032015,2.042022145521256,-250.32014999908935,250.32014999908935,-1.1699999999957436,-250.32014999908935,250.32014999908935,-1.1699999999957436,0.0097,0.04,0.0165,0.0097,0.04,0.0165,-25.032015,-25.032015,-0.117,9.434000000000196,9.434000000000196,9.434000000000196,9.434000000000196,34.526547852,108.423413773,0.0,0.0097,9.434000000000196,53531.0
34.526545621,108.423326014,10.2425,-0.03822271061867582,0.13002702927357757,2.9052750728697605,-30.157884467158286,18.41090255848143,-25.032015,25.032015,2.181263479748588,-247.84173267410648,247.84173267410648,-1.1584158415880808,-247.84173267410648,247.84173267410648,-1.1584158415880808,0.0124,0.04,0.0158,0.0124,0.04,0.0158,-25.032015,-25.032015,-0.117,9.534999999999854,9.534999999999854,9.534999999999854,9.534999999999854,34.526545621,108.423326014,0.0,0.0124,9.534999999999854,53843.0
34.526545621,108.423326014,10.2425,-0.03665191429188092,0.13473941825396224,2.9066713362713568,-30.13007300921757,18.43720913980154,-25.032015,25.032015,2.337789236626714,-250.32014999908935,250.32014999908935,-1.1699999999957436,-250.32014999908935,250.32014999908935,-1.1699999999957436,0.0131,0.05,0.0154,0.0131,0.05,0.0154,-25.032015,-25.032015,-0.117,9.635000000000218,9.635000000000218,9.635000000000218,9.635000000000218,34.526545621,108.423326014,0.0,0.0131,9.635000000000218,53843.0
34.526545621,108.423326014,10.2425,-0.035430183815484885,0.13962634015954636,2.908067599672952,-30.101814703456796,18.463431058950547,-25.032015,25.032015,2.4899204827830896,-250.320150001366,250.320150001366,-1.1700000000063848,-250.320150001366,250.320150001366,-1.1700000000063848,0.0089,0.05,0.015,0.0089,0.05,0.015,-25.032015,-25.032015,-0.117,9.734999999999673,9.734999999999673,9.734999999999673,9.734999999999673,34.526545621,108.423326014,0.0,0.0089,9.734999999999673,53843.0
34.526545621,108.423326014,10.2425,-0.03438298626428829,0.14503686084072878,2.909289330149348,-30.076187342492208,18.482805881983992,-25.032015,25.032015,2.6506754966724193,-250.32014999908935,250.32014999908935,-1.1699999999957436,-250.32014999908935,250.32014999908935,-1.1699999999957436,0.0075,0.05,0.015,0.0075,0.05,0.015,-25.032015,-25.032015,-0.117,9.835000000000036,9.835000000000036,9.835000000000036,9.835000000000036,34.526545621,108.423326014,0.0,0.0075,9.835000000000036,53843.0
34.526545621,108.423326014,10.2425,-0.03368485456349056,0.1504473815219112,2.910685593550943,-30.04704485917377,18.507763734315276,-25.032015,25.032015,2.8026800934130094,-247.84173267410648,247.84173267410648,-1.1584158415880808,-247.84173267410648,247.84173267410648,-1.1584158415880808,0.0022,0.05,0.0149,0.0022,0.05,0.0149,-25.032015,-25.032015,-0.117,9.935999999999694,9.935999999999694,9.935999999999694,9.935999999999694,34.526545621,108.423326014,0.0,0.0022,9.935999999999694,53843.0
34.526545621,108.423326014,10.2425,-0.03316125578789226,0.15585790220309362,2.912081856952539,-30.017640693199507,18.531215943135223,-25.032015,25.032015,2.9581605438708016,-250.32014999908935,250.32014999908935,-1.0899999999960346,-250.32014999908935,250.32014999908935,-1.0899999999960346,0.0036,0.05,0.0155,0.0036,0.05,0.0155,-25.032015,-25.032015,-0.109,10.036000000000058,10.036000000000058,10.036000000000058,10.036000000000058,34.526545621,108.423326014,0.0,0.0036,10.036000000000058,53843.0
34.526545621,108.423326014,10.2425,-0.03246312408709453,0.16126842288427606,2.9133035874289352,-29.99127151781023,18.5490527133971,-25.032015,25.032015,3.1099368323248555,-250.320150001366,250.320150001366,-1.090000000005948,-250.320150001366,250.320150001366,-1.090000000005948,0.0061,0.05,0.0162,0.0061,0.05,0.0162,-25.032015,-25.032015,-0.109,10.135999999999513,10.135999999999513,10.135999999999513,10.135999999999513,34.526545621,108.423326014,0.0,0.0061,10.135999999999513,53843.0
34.526545621,108.423326014,10.2425,-0.031415926535897934,0.16650441064025903,2.9148743837557296,-29.958265449591497,18.574317459466222,-25.032015,25.032015,3.2727688716484513,-250.32014999908935,250.32014999908935,-1.0199999999962892,-250.32014999908935,250.32014999908935,-1.0199999999962892,0.0108,0.05,0.0168,0.0108,0.05,0.0168,-25.032015,-25.032015,-0.102,10.235999999999876,10.235999999999876,10.235999999999876,10.235999999999876,34.526545621,108.423326014,0.0,0.0108,10.235999999999876,53843.0
34.526545621,108.423326014,10.2425,-0.029845130209103034,0.1715658654710426,2.9164451800825244,-29.925042966107476,18.596667702502522,-25.032015,25.032015,3.445016655949718,-245.4119117650385,245.4119117650385,-0.9215686274522294,-245.4119117650385,245.4119117650385,-0.9215686274522294,0.0157,0.05,0.0175,0.0157,0.05,0.0175,-25.032015,-25.032015,-0.094,10.337999999999738,10.337999999999738,10.337999999999738,10.337999999999738,34.526545621,108.423326014,0.0,0.0157,10.337999999999738,53843.0
34.526545621,108.423326014,10.2894,-0.027925268031909273,0.1764527873766267,2.9181905093345186,-29.888312797006073,18.622174542830173,-25.032015,25.032015,3.6213698188863708,-250.32014999908935,250.32014999908935,-0.8599999999968713,-250.32014999908935,250.32014999908935,-0.8599999999968713,0.0149,0.05,0.0182,0.0149,0.05,0.0182,-25.032015,-25.032015,-0.086,10.438000000000102,10.438000000000102,10.438000000000102,10.438000000000102,34.526545621,108.423326014,0.0,0.0149,10.438000000000102,53843.0
34.526546758,108.423319613,10.2894,-0.026354471705114377,0.18116517635701143,2.9199358385865137,-29.8514579736242,18.648770651099046,-25.032015,25.032015,3.7846326072825565,-250.320150001366,250.320150001366,-0.7800000000042564,-250.320150001366,250.320150001366,-0.7800000000042564,0.0125,0.05,0.0189,0.0125,0.05,0.0189,-25.032015,-25.032015,-0.078,10.537999999999556,10.537999999999556,10.537999999999556,10.537999999999556,34.526546758,108.423319613,0.0,0.0125,10.537999999999556,53844.0
34.526546758,108.423319613,10.2894,-0.024783675378319478,0.18605209826259553,2.921681167838508,-29.81415054300301,18.67367621546254,-25.032015,25.032015,3.952049331634408,-250.32014999908935,250.32014999908935,-0.6999999999974534,-250.32014999908935,250.32014999908935,-0.6999999999974534,0.0089,0.05,0.0195,0.0089,0.05,0.0195,-25.032015,-25.032015,-0.07,10.63799999999992,10.63799999999992,10.63799999999992,10.63799999999992,34.526546758,108.423319613,0.0,0.0089,10.63799999999992,53844.0
34.526546758,108.423319613,10.2894,-0.023736477827122883,0.19093902016817965,2.923601030015701,-29.77376375330644,18.708250605120362,-25.032015,25.032015,4.090719396238218,-247.84173267410648,247.84173267410648,-0.7722772277253871,-247.84173267410648,247.84173267410648,-0.7722772277253871,0.0046,0.05,0.0202,0.0046,0.05,0.0202,-25.032015,-25.032015,-0.078,10.738999999999578,10.738999999999578,10.738999999999578,10.738999999999578,34.526546758,108.423319613,0.0,0.0046,10.738999999999578,53844.0
34.526546758,108.423319613,10.2894,-0.023212879051524585,0.19600047499896323,2.9255208921928952,-29.73323066828333,18.74383923001387,-25.032015,25.032015,4.2207144971555355,-250.32014999908935,250.32014999908935,-0.8599999999968713,-250.32014999908935,250.32014999908935,-0.8599999999968713,-0.0039,0.05,0.0203,-0.0039,0.05,0.0203,-25.032015,-25.032015,-0.086,10.838999999999942,10.838999999999942,10.838999999999942,10.838999999999942,34.526546758,108.423319613,0.0,-0.0039,10.838999999999942,53844.0
34.526546758,108.423319613,10.2894,-0.023911010752322315,0.2012364627549462,2.9274407543700893,-29.692855774766038,18.784078063305426,-25.032015,25.032015,4.324940828617334,-247.84173267410648,247.84173267410648,-0.9306930693100819,-247.84173267410648,247.84173267410648,-0.9306930693100819,-0.0173,0.05,0.0199,-0.0173,0.05,0.0199,-25.032015,-25.032015,-0.094,10.9399999999996,10.9399999999996,10.9399999999996,10.9399999999996,34.526546758,108.423319613,0.0,-0.0173,10.9399999999996,53844.0
34.526546758,108.423319613,10.2894,-0.025830872929516076,0.2066469834361286,2.929360616547283,-29.65273402207275,18.830836015034436,-25.032015,25.032015,4.396636317861894,-250.32014999908935,250.32014999908935,-1.0899999999960346,-250.32014999908935,250.32014999908935,-1.0899999999960346,-0.0295,0.05,0.0197,-0.0295,0.05,0.0197,-25.032015,-25.032015,-0.109,11.039999999999964,11.039999999999964,11.039999999999964,11.039999999999964,34.526546758,108.423319613,0.0,-0.0295,11.039999999999964,53844.0
34.526546758,108.423319613,10.2894,-0.028797932657906436,0.21205750411731106,2.931105945799277,-29.61599475703742,18.878104222413725,-25.032015,25.032015,4.44175758447793,-247.84173267410648,247.84173267410648,-1.237623762380428,-247.84173267410648,247.84173267410648,-1.237623762380428,-0.0371,0.05,0.0194,-0.0371,0.05,0.0194,-25.032015,-25.032015,-0.125,11.140999999999622,11.140999999999622,11.140999999999622,11.140999999999622,34.526546758,108.423319613,0.0,-0.0371,11.140999999999622,53844.0
34.526546758,108.423319613,10.2894,-0.03246312408709453,0.2176425577236929,2.933025807976471,-29.575590091916983,18.933813962206788,-25.032015,25.032015,4.474213951063886,-250.32014999908935,250.32014999908935,-1.4099999999948702,-250.32014999908935,250.32014999908935,-1.4099999999948702,-0.0406,0.05,0.019,-0.0406,0.05,0.019,-25.032015,-25.032015,-0.141,11.240999999999985,11.240999999999985,11.240999999999985,11.240999999999985,34.526546758,108.423319613,0.0,-0.0406,11.240999999999985,53844.0
34.526546758,108.423319613,10.2894,-0.03577924966588375,0.22305307840487532,2.934771137228465,-29.53806586046384,18.981559825523526,-25.032015,25.032015,4.519790452379589,-250.32014999908935,250.32014999908935,-1.4799999999946156,-250.32014999908935,250.32014999908935,-1.4799999999946156,-0.0332,0.05,0.0191,-0.0332,0.05,0.0191,-25.032015,-25.032015,-0.148,11.34100000000035,11.34100000000035,11.34100000000035,11.34100000000035,34.526546758,108.423319613,0.0,-0.0332,11.34100000000035,53844.0
34.526546758,108.423319613,10.3128,-0.038571776469074684,0.22863813201125716,2.9365164664804593,-29.500149288062634,19.029614793406736,-25.032015,25.032015,4.565970512062446,-250.320150001366,250.320150001366,-1.7200000000093858,-250.320150001366,250.320150001366,-1.7200000000093858,-0.0327,0.05,0.0188,-0.0327,0.05,0.0188,-25.032015,-25.032015,-0.172,11.440999999999804,11.440999999999804,11.440999999999804,11.440999999999804,34.526546758,108.423319613,0.0,-0.0327,11.440999999999804,53844.0
34.526563643,108.423292718,10.3128,-0.04136430327226561,0.2340486526924396,2.9382617957324535,-29.461995206509627,19.076811126227305,-25.032015,25.032015,4.615735003908187,-247.8417326718747,247.8417326718747,-1.861386138603402,-247.8417326718747,247.8417326718747,-1.861386138603402,-0.0263,0.05,0.019,-0.0263,0.05,0.019,-25.032015,-25.032015,-0.188,11.542000000000371,11.542000000000371,11.542000000000371,11.542000000000371,34.526563643,108.423292718,0.0,-0.0263,11.542000000000371,53845.0
34.526563643,108.423292718,10.3128,-0.04293509959906051,0.23963370629882144,2.9398325920592487,-29.426744047604075,19.10864367900903,-25.032015,25.032015,4.708295490505773,-250.320150001366,250.320150001366,-1.9500000000106412,-250.320150001366,250.320150001366,-1.9500000000106412,-0.0138,0.06,0.0194,-0.0138,0.06,0.0194,-25.032015,-25.032015,-0.195,11.641999999999825,11.641999999999825,11.641999999999825,11.641999999999825,34.526563643,108.423292718,0.0,-0.0138,11.641999999999825,53845.0
34.526563643,108.423292718,10.3128,-0.04363323129985824,0.24539329283040273,2.9415779213112434,-29.387891208949014,19.139301760757437,-25.032015,25.032015,4.825322509645793,-250.32014999908935,250.32014999908935,-2.029999999992615,-250.32014999908935,250.32014999908935,-2.029999999992615,-0.0121,0.06,0.0192,-0.0121,0.06,0.0192,-25.032015,-25.032015,-0.203,11.74200000000019,11.74200000000019,11.74200000000019,11.74200000000019,34.526563643,108.423292718,0.0,-0.0121,11.74200000000019,53845.0
34.526563643,108.423292718,10.3128,-0.0445058959258554,0.2509783464367846,2.943323250563237,-29.349008348012124,19.169302658664318,-25.032015,25.032015,4.941487983319352,-250.320150001366,250.320150001366,-2.0300000000110776,-250.320150001366,250.320150001366,-2.0300000000110776,-0.0137,0.06,0.0191,-0.0137,0.06,0.0191,-25.032015,-25.032015,-0.203,11.841999999999643,11.841999999999643,11.841999999999643,11.841999999999643,34.526563643,108.423292718,0.0,-0.0137,11.841999999999643,53845.0
34.526563643,108.423292718,10.3128,-0.045553093477052,0.2565634000431664,2.945068579815232,-29.310013403596173,19.20190088934413,-25.032015,25.032015,5.045610710039781,-247.8417326718747,247.8417326718747,-2.08910891087935,-247.8417326718747,247.8417326718747,-2.08910891087935,-0.0157,0.06,0.0192,-0.0157,0.06,0.0192,-25.032015,-25.032015,-0.211,11.943000000000211,11.943000000000211,11.943000000000211,11.943000000000211,34.526563643,108.423292718,0.0,-0.0157,11.943000000000211,53845.0
34.526563643,108.423292718,10.3128,-0.046949356878647465,0.2621484536495483,2.946813909067226,-29.270803262641735,19.23424784041221,-25.032015,25.032015,5.148966623874203,-247.84173267410648,247.84173267410648,-2.0891089108981626,-247.84173267410648,247.84173267410648,-2.0891089108981626,-0.0234,0.05,0.019,-0.0234,0.05,0.019,-25.032015,-25.032015,-0.211,12.043999999999869,12.043999999999869,12.043999999999869,12.043999999999869,34.526563643,108.423292718,0.0,-0.0234,12.043999999999869,53845.0
34.526563643,108.423292718,10.3128,-0.04921828490624009,0.26773350725593015,2.948384705394021,-29.234710645574303,19.2690935564602,-25.032015,25.032015,5.223527342933975,-250.32014999908935,250.32014999908935,-2.189999999992033,-250.32014999908935,250.32014999908935,-2.189999999992033,-0.028,0.05,0.019,-0.028,0.05,0.019,-25.032015,-25.032015,-0.219,12.144000000000233,12.144000000000233,12.144000000000233,12.144000000000233,34.526563643,108.423292718,0.0,-0.028,12.144000000000233,53845.0
34.526563643,108.423292718,10.3128,-0.051487212933832724,0.27314402793711257,2.950130034646015,-29.195205824982057,19.30764457109576,-25.032015,25.032015,5.301540235971057,-250.320150001366,250.320150001366,-2.190000000011951,-250.320150001366,250.320150001366,-2.190000000011951,-0.0263,0.05,0.0191,-0.0263,0.05,0.0191,-25.032015,-25.032015,-0.219,12.243999999999687,12.243999999999687,12.243999999999687,12.243999999999687,34.526563643,108.423292718,0.0,-0.0263,12.243999999999687,53845.0
34.526563643,108.423292718,10.3128,-0.053407075111026485,0.278554548618295,2.9518753638980093,-29.15558718787492,19.343556489320456,-25.032015,25.032015,5.387955919933075,-247.8417326718747,247.8417326718747,-2.1683168316709844,-247.8417326718747,247.8417326718747,-2.1683168316709844,-0.0204,0.05,0.0189,-0.0204,0.05,0.0189,-25.032015,-25.032015,-0.219,12.345000000000255,12.345000000000255,12.345000000000255,12.345000000000255,34.526563643,108.423292718,0.0,-0.0204,12.345000000000255,53845.0
34.526563643,108.423292718,10.4144,-0.05445427266222309,0.2839650692994774,2.9534461602248046,-29.11940486320271,19.367848540471478,-25.032015,25.032015,5.4952901876692115,-250.320150001366,250.320150001366,-2.190000000011951,-250.320150001366,250.320150001366,-2.190000000011951,-0.0077,0.05,0.019,-0.0077,0.05,0.019,-25.032015,-25.032015,-0.219,12.444999999999709,12.444999999999709,12.444999999999709,12.444999999999709,34.526563643,108.423292718,0.0,-0.0077,12.444999999999709,53845.0
