lat_gps,lon_gps,alt_gps,roll,pitch,yaw,vn,ve,vf,vl,vu,ax,ay,az,af,al,au,wx,wy,wz,wf,wl,wu,pos_accuracy,vel_accuracy,navstat,numsats,posmode,velmode,orimode,lat,lon,depth,height,time,time_gps
34.525144376,108.427565168,7.9377,0.013962634015954637,-0.3452261260444784,2.181661564992912,1.4076233222661318,-1.0103269205884826,2.125065,0.031251,1.4619285124015642,0.0,0.0,0.0,0.0,0.0,0.0,0.0059,0.03,0.0104,0.0059,0.03,0.0104,2.125065,-0.031251,0.789,0.0,0.0,0.0,0.0,34.52823019,108.425017851,0.0,0.0059,0.0,51658.0
34.525144376,108.427565168,7.9377,0.018675022996339326,-0.3385938748868999,2.1835814271701057,1.417785023769818,-1.0171727190995543,2.125065,0.031251,1.4429428835264528,10.520123762364491,0.15470792079190646,3.8663366336590492,10.520123762364491,0.15470792079190646,3.8663366336590492,0.0361,0.04,0.006,0.0361,0.04,0.006,2.125065,-0.031251,0.781,0.20200000000022555,0.20200000000022555,0.20200000000022555,0.20200000000022555,34.528233336,108.425015094,0.0,0.0361,0.20200000000022555,51658.0
34.525144376,108.427565168,8.4378,0.02181661564992912,-0.3349286834577119,2.184105025945704,1.4340354016717403,-1.0460418361354091,2.148503,0.046876,1.4370561729423215,21.485030000019538,0.46876000000042634,7.73000000000703,21.485030000019538,0.46876000000042634,7.73000000000703,0.038,0.04,0.0039,0.038,0.04,0.0039,2.148503,-0.046876,0.773,0.3020000000001346,0.3020000000001346,0.3020000000001346,0.3020000000001346,34.528234893,108.425013707,0.0,0.038,0.3020000000001346,51658.0
34.525144376,108.427565168,8.4378,0.02652900463031381,-0.33126349202852373,2.1846286247213023,1.4416021061081434,-1.0482761744755467,2.148503,0.046876,1.4240501852380336,21.272306930669316,0.4641188118806699,7.584158415833116,21.272306930669316,0.4641188118806699,7.584158415833116,0.0598,0.04,0.0044,0.0598,0.04,0.0044,2.148503,-0.046876,0.766,0.4030000000002474,0.4030000000002474,0.4030000000002474,0.4030000000002474,34.528236454,108.425012316,0.0,0.0598,0.4030000000002474,51658.0
34.525144376,108.427565168,8.4378,0.0322885911618951,-0.3277728335245351,2.1853267564221,1.4493871109956928,-1.0502017517122033,2.148503,0.046876,1.410382849996829,21.272306930669316,0.4641188118806699,7.5049504950411245,21.272306930669316,0.4641188118806699,7.5049504950411245,0.0576,0.04,0.0066,0.0576,0.04,0.0066,2.148503,-0.046876,0.758,0.5040000000003602,0.5040000000003602,0.5040000000003602,0.5040000000003602,34.528238036,108.425010903,0.0,0.0576,0.5040000000003602,51658.0
34.525144376,108.427565168,8.4378,0.03822271061867582,-0.324107642095347,2.186373953973297,1.4588714782223813,-1.054436141489345,2.148503,0.046876,1.388771015659279,21.485030000019538,0.46876000000042634,7.420000000006748,21.485030000019538,0.46876000000042634,7.420000000006748,0.065,0.04,0.0095,0.065,0.04,0.0095,2.148503,-0.046876,0.742,0.6040000000002692,0.6040000000002692,0.6040000000002692,0.6040000000002692,34.528239591,108.425009513,0.0,0.065,0.6040000000002692,51658.0
34.525144376,108.427565168,8.4378,0.0439822971502571,-0.32009338481576005,2.187595684449693,1.4680349823618588,-1.0591900328137338,2.148503,0.046876,1.3673994534644427,21.485030000019538,0.46876000000042634,7.270000000006612,21.485030000019538,0.46876000000042634,7.270000000006612,0.0567,0.04,0.0111,0.0567,0.04,0.0111,2.148503,-0.046876,0.727,0.7040000000001783,0.7040000000001783,0.7040000000001783,0.7040000000001783,34.528241148,108.425008116,0.0,0.0567,0.7040000000001783,51658.0
34.525144376,108.427565168,8.4378,0.0486946861306418,-0.3153809958353754,2.1889919478512883,1.4773512639461144,-1.0656608839090569,2.148503,0.046876,1.3437200689905566,21.485030000019538,0.46876000000042634,7.110000000006466,21.485030000019538,0.46876000000042634,7.110000000006466,0.0523,0.05,0.0132,0.0523,0.05,0.0132,2.148503,-0.046876,0.711,0.8040000000000873,0.8040000000000873,0.8040000000000873,0.8040000000000873,34.528242703,108.425006717,0.0,0.0523,0.8040000000000873,51658.0
34.525144376,108.427565168,8.4378,0.05235987755982989,-0.30962140930379406,2.1907372771032825,1.4867467912967556,-1.0740941940660176,2.148503,0.046876,1.3180262293397171,21.06375490189542,0.45956862744955435,6.813725490174935,21.06375490189542,0.45956862744955435,6.813725490174935,0.0362,0.06,0.0137,0.0362,0.06,0.0137,2.148503,-0.046876,0.695,0.9060000000004038,0.9060000000004038,0.9060000000004038,0.9060000000004038,34.528244279,108.425005294,0.0,0.0362,0.9060000000004038,51658.0
34.525144376,108.427565168,8.4378,0.054628805587422516,-0.3028146252210162,2.192657139280476,1.496007866389479,-1.0841274446717764,2.148503,0.046876,1.2912360929726387,21.485030000019538,0.46876000000042634,6.800000000006185,21.485030000019538,0.46876000000042634,6.800000000006185,0.0139,0.08,0.0146,0.0139,0.08,0.0146,2.148503,-0.046876,0.68,1.0060000000003129,1.0060000000003129,1.0060000000003129,1.0060000000003129,34.528245827,108.425003891,0.0,0.0139,1.0060000000003129,51658.0
34.525144376,108.427565168,8.4378,0.054279739737023644,-0.29391344603584507,2.194751534382869,1.5061132383551128,-1.0975328016521424,2.148503,0.046876,1.2594455775991569,21.485030000019538,0.46876000000042634,6.640000000006039,21.485030000019538,0.46876000000042634,6.640000000006039,-0.0035,0.1,0.0154,-0.0035,0.1,0.0154,2.148503,-0.046876,0.664,1.106000000000222,1.106000000000222,1.106000000000222,1.106000000000222,34.528247375,108.425002481,0.0,-0.0035,1.106000000000222,51658.0
34.525144376,108.427565168,8.4378,0.05305800926062762,-0.2823942729726825,2.197020462410462,1.5179101696977668,-1.113335427527484,2.148503,0.046876,1.2225381151216879,21.485030000019538,0.46876000000042634,6.4800000000058935,21.485030000019538,0.46876000000042634,6.4800000000058935,-0.0104,0.13,0.0162,-0.0104,0.13,0.0162,2.148503,-0.046876,0.648,1.206000000000131,1.206000000000131,1.206000000000131,1.206000000000131,34.528248921,108.425001067,0.0,-0.0104,1.206000000000131,51658.0
34.525144376,108.427565168,9.4534,0.050789081233034994,-0.2675589743307307,2.1994639233632545,1.5312196195616985,-1.1609072803924578,2.164129,0.070315,1.177575598790631,21.427019801956273,0.6961881188111039,6.188118811874278,21.427019801956273,0.6961881188111039,6.188118811874278,-0.0108,0.17,0.0166,-0.0108,0.17,0.0166,2.164129,-0.070315,0.625,1.3070000000002437,1.3070000000002437,1.3070000000002437,1.3070000000002437,34.528250486,108.424999596,0.0,-0.0108,1.3070000000002437,51658.0
34.525144376,108.427565168,9.4534,0.049567350756638956,-0.24905848425959082,2.202081917241246,1.55030696075285,-1.183944973739659,2.164129,0.070315,1.1117810730822222,21.641290000019684,0.7031500000006395,5.940000000005402,21.641290000019684,0.7031500000006395,5.940000000005402,0.0057,0.21,0.016,0.0057,0.21,0.016,2.164129,-0.070315,0.594,1.4070000000001528,1.4070000000001528,1.4070000000001528,1.4070000000001528,34.528252021,108.424998145,0.0,0.0057,1.4070000000001528,51658.0
34.525144376,108.427565168,9.4534,0.04939281783143953,-0.22584560520806624,2.204699911119237,1.573397791885968,-1.2097754383645969,2.164129,0.070315,1.0282442827869778,21.641290000019684,0.7031500000006395,5.550000000005048,21.641290000019684,0.7031500000006395,5.550000000005048,0.0053,0.26,0.0125,0.0053,0.26,0.0125,2.164129,-0.070315,0.555,1.5070000000000618,1.5070000000000618,1.5070000000000618,1.5070000000000618,34.528253557,108.424996686,0.0,0.0053,1.5070000000000618,51658.0
34.525144376,108.427565168,9.4534,0.04921828490624009,-0.19669860669976094,2.2073179049972285,1.5995916288211585,-1.2385931333877878,2.164129,0.070315,0.9239351702343049,21.64128999992127,0.703149999997442,5.079999999981519,21.64128999992127,0.703149999997442,5.079999999981519,-0.002,0.32,0.0079,-0.002,0.32,0.0079,2.164129,-0.070315,0.508,1.6070000000004256,1.6070000000004256,1.6070000000004256,1.6070000000004256,34.52825509,108.424995222,0.0,-0.002,1.6070000000004256,51658.0
34.525144376,108.427565168,9.4534,0.048869219055841226,-0.1616174887346749,2.209761365950021,1.6284616700583836,-1.2706806308101137,2.164129,0.070315,0.7834065684564246,21.21695098042091,0.6893627450989736,4.294117647064644,21.21695098042091,0.6893627450989736,4.294117647064644,0.0051,0.38,0.0048,0.0051,0.38,0.0048,2.164129,-0.070315,0.438,1.7090000000002874,1.7090000000002874,1.7090000000002874,1.7090000000002874,34.528256638,108.424993735,0.0,0.0051,1.7090000000002874,51658.0
34.525144376,108.427565168,9.4534,0.04921828490624009,-0.12164944886400476,2.2118557610524134,1.6550031757431027,-1.3005394888849675,2.164129,0.070315,0.6219654765315134,21.641290000019684,0.7031500000006395,3.590000000003265,21.641290000019684,0.7031500000006395,3.590000000003265,0.0059,0.42,0.0013,0.0059,0.42,0.0013,2.164129,-0.070315,0.359,1.8090000000001965,1.8090000000001965,1.8090000000001965,1.8090000000001965,34.528258165,108.424992262,0.0,0.0059,1.8090000000001965,51658.0
34.525144376,108.427565168,9.4534,0.04939281783143953,-0.07958701389094142,2.214299222005206,1.6742072243685024,-1.3265982968694938,2.164129,0.070315,0.4473194121444667,21.641290000019684,0.7031500000006395,2.7300000000024833,21.641290000019684,0.7031500000006395,2.7300000000024833,0.0028,0.42,0.0022,0.0028,0.42,0.0022,2.164129,-0.070315,0.273,1.9090000000001055,1.9090000000001055,1.9090000000001055,1.9090000000001055,34.528259689,108.424990786,0.0,0.0028,1.9090000000001055,51658.0
34.525144376,108.427565168,9.4534,0.04921828490624009,-0.039269908169872414,2.2165681500327987,1.6843228287835568,-1.3455842080128029,2.164129,0.070315,0.2760475963509108,21.641290000019684,0.7031500000006395,1.8800000000017099,21.641290000019684,0.7031500000006395,1.8800000000017099,-0.0067,0.39,0.0062,-0.0067,0.39,0.0062,2.164129,-0.070315,0.188,2.0090000000000146,2.0090000000000146,2.0090000000000146,2.0090000000000146,34.528261211,108.424989304,0.0,-0.0067,2.0090000000000146,51658.0
34.525144376,108.427565168,9.4534,0.04782202150464463,-0.0033161255787892262,2.21918614391079,1.6851766782868753,-1.3588022997164695,2.164129,0.070315,0.11242064360805037,21.427019801956273,0.6961881188111039,1.0099009900978821,21.427019801956273,0.6961881188111039,1.0099009900978821,-0.0193,0.33,0.0088,-0.0193,0.33,0.0088,2.164129,-0.070315,0.102,2.1100000000001273,2.1100000000001273,2.1100000000001273,2.1100000000001273,34.528262751,108.424987797,0.0,-0.0193,2.1100000000001273,51658.0
34.525144376,108.427565168,9.4534,0.04537856055185257,0.02600540585471551,2.2214550719383825,1.6803944643313125,-1.365702892762457,2.164129,0.070315,-0.02212647307960678,21.641290000019684,0.7031500000006395,0.31000000000028194,21.641290000019684,0.7031500000006395,0.31000000000028194,-0.0258,0.26,0.01,-0.0258,0.26,0.01,2.164129,-0.070315,0.031,2.2100000000000364,2.2100000000000364,2.2100000000000364,2.2100000000000364,34.528264263,108.42498631,0.0,-0.0258,2.2100000000000364,51658.0
34.525144376,108.427565168,10.305,0.04293509959906051,0.04921828490624009,2.223549467040776,1.6849548944908361,-1.2501858250867666,2.101627,-0.031251,-0.12768742464900945,20.80818811878865,-0.3094158415838129,-0.22772277227697343,20.80818811878865,-0.3094158415838129,-0.22772277227697343,-0.0268,0.2,0.0112,-0.0268,0.2,0.0112,2.101627,0.031251,-0.023,2.311000000000149,2.311000000000149,2.311000000000149,2.311000000000149,34.528265786,108.424984945,0.0,-0.0268,2.311000000000149,51658.0
34.525144376,108.427565168,10.305,0.040491638646268445,0.06632251157578452,2.2254693292179692,1.6757536824065518,-1.251340467788938,2.101627,-0.031251,-0.22628588489927137,21.016270000019116,-0.3125100000002842,-0.8600000000007821,21.016270000019116,-0.3125100000002842,-0.8600000000007821,-0.0233,0.14,0.0135,-0.0233,0.14,0.0135,2.101627,0.031251,-0.086,2.411000000000058,2.411000000000058,2.411000000000058,2.411000000000058,34.528267308,108.424983577,0.0,-0.0233,2.411000000000058,51658.0
34.525144376,108.427565168,10.305,0.03822271061867582,0.0778416846389471,2.2273891913951633,1.66798816017939,-1.2520564698558383,2.101627,-0.031251,-0.28915007508819623,20.80818811878865,-0.3094158415838129,-1.2376237623748556,20.80818811878865,-0.3094158415838129,-1.2376237623748556,-0.0217,0.09,0.0161,-0.0217,0.09,0.0161,2.101627,0.031251,-0.125,2.512000000000171,2.512000000000171,2.512000000000171,2.512000000000171,34.528268849,108.424982186,0.0,-0.0217,2.512000000000171,51658.0
34.525144376,108.427565168,10.305,0.03647738136668149,0.08499753457212385,2.229309053572357,1.6605531617949756,-1.2528861643806284,2.101627,-0.031251,-0.342852924861822,21.016270000019116,-0.3125100000002842,-1.6400000000014916,21.016270000019116,-0.3125100000002842,-1.6400000000014916,-0.0161,0.05,0.0173,-0.0161,0.05,0.0173,2.101627,0.031251,-0.164,2.61200000000008,2.61200000000008,2.61200000000008,2.61200000000008,34.528270363,108.424980814,0.0,-0.0161,2.61200000000008,51658.0
34.525144376,108.427565168,10.305,0.03560471674068432,0.08831366015091306,2.231228915749551,1.655132999038726,-1.254631833526309,2.101627,-0.031251,-0.37361797323668255,21.016269999923544,-0.3125099999988631,-1.8799999999931607,21.016269999923544,-0.3125099999988631,-1.8799999999931607,-0.0013,0.02,0.0171,-0.0013,0.02,0.0171,2.101627,0.031251,-0.188,2.712000000000444,2.712000000000444,2.712000000000444,2.712000000000444,34.528271878,108.424979435,0.0,-0.0013,2.712000000000444,51658.0
34.525144376,108.427565168,10.305,0.03665191429188092,0.0895353906273091,2.2329742450015453,1.6510610131448764,-1.2570011626202306,2.101627,-0.031251,-0.39111031714134215,21.016270000019116,-0.3125100000002842,-2.0300000000018463,21.016270000019116,-0.3125100000002842,-2.0300000000018463,0.0193,0.0,0.0165,0.0193,0.0,0.0165,2.101627,0.031251,-0.203,2.812000000000353,2.812000000000353,2.812000000000353,2.812000000000353,34.528273391,108.424978053,0.0,0.0193,2.812000000000353,51658.0
34.525144376,108.427565168,10.305,0.039968039870670144,0.08918632477691024,2.23454504132834,1.6487696005195658,-1.2602058423351972,2.101627,-0.031251,-0.39046345728734755,20.60418627453773,-0.3063823529415917,-1.99019607843407,20.60418627453773,-0.3063823529415917,-1.99019607843407,0.0459,-0.01,0.0158,0.0459,-0.01,0.0158,2.101627,0.031251,-0.203,2.9140000000002146,2.9140000000002146,2.9140000000002146,2.9140000000002146,34.528274924,108.424976648,0.0,0.0459,2.9140000000002146,51658.0
34.525144376,108.427565168,10.305,0.04590215932745086,0.08779006137531478,2.235941304729936,1.6459010180073523,-1.2636443452341017,2.101627,-0.031251,-0.39565955038421763,21.016270000019116,-0.3125100000002842,-2.110000000001919,21.016270000019116,-0.3125100000002842,-2.110000000001919,0.067,-0.02,0.0143,0.067,-0.02,0.0143,2.101627,0.031251,-0.211,3.0140000000001237,3.0140000000001237,3.0140000000001237,3.0140000000001237,34.52827643,108.424975264,0.0,0.067,3.0140000000001237,51658.0
34.525144376,108.427565168,10.305,0.052883476335428184,0.08569566627292158,2.237163035206332,1.6432790282502543,-1.267230711857574,2.101627,-0.031251,-0.3994171132636223,21.016270000019116,-0.3125100000002842,-2.1900000000019917,21.016270000019116,-0.3125100000002842,-2.1900000000019917,0.0681,-0.03,0.0118,0.0681,-0.03,0.0118,2.101627,0.031251,-0.219,3.1140000000000327,3.1140000000000327,3.1140000000000327,3.1140000000000327,34.528277938,108.424973874,0.0,0.0681,3.1140000000000327,51658.0
34.525144376,108.427565168,10.305,0.05951572749300664,0.08272860654453122,2.2380356998323285,1.642183556418274,-1.2705338566681406,2.101627,-0.031251,-0.39338347476655744,21.016269999923544,-0.3125099999988631,-2.189999999992033,21.016269999923544,-0.3125099999988631,-2.189999999992033,0.0586,-0.03,0.0078,0.0586,-0.03,0.0078,2.101627,0.031251,-0.219,3.2140000000003965,3.2140000000003965,3.2140000000003965,3.2140000000003965,34.528279445,108.424972483,0.0,0.0586,3.2140000000003965,51658.0
34.525144376,108.427565168,10.6566,0.06440264939859076,0.07923794804054256,2.238384765682728,-34.98440818827313,-4.24808636791603,-25.032015,25.032015,3.3615509586297176,-247.84173267410648,247.84173267410648,-2.247524752482857,-247.84173267410648,247.84173267410648,-2.247524752482857,0.0343,-0.04,0.0045,0.0343,-0.04,0.0045,-25.032015,-25.032015,-0.227,3.3150000000000546,3.3150000000000546,3.3150000000000546,3.3150000000000546,34.528279445,108.424972483,0.0,0.0343,3.3150000000000546,51658.0
34.525144376,108.427565168,10.6566,0.06649704450098395,0.0752236907609556,2.238559298607927,-34.99066913491282,-4.23386449314574,-25.032015,25.032015,3.313992134147177,-250.32014999908935,250.32014999908935,-2.2699999999917417,-250.32014999908935,250.32014999908935,-2.2699999999917417,0.0107,-0.04,0.0041,0.0107,-0.04,0.0041,-25.032015,-25.032015,-0.227,3.4150000000004184,3.4150000000004184,3.4150000000004184,3.4150000000004184,34.528279445,108.424972483,0.0,0.0107,3.4150000000004184,51658.0
34.525144376,108.427565168,10.6566,0.06702064327658225,0.07068583470577035,2.2387338315331267,-35.001819618956596,-4.218580684080059,-25.032015,25.032015,3.2142307469099465,-250.32015000022767,250.32015000022767,-2.2700000000020646,-250.32015000022767,250.32015000022767,-2.2700000000020646,0.0007,-0.05,0.0051,0.0007,-0.05,0.0051,-25.032015,-25.032015,-0.227,3.5150000000003274,3.5150000000003274,3.5150000000003274,3.5150000000003274,34.528279445,108.424972483,0.0,0.0007,3.5150000000003274,51658.0
34.525144376,108.427565168,10.6566,0.06649704450098395,0.06579891280018622,2.238908364458326,-35.01505491583979,-4.20289274550117,-25.032015,25.032015,3.0875771619487256,-250.32015000022767,250.32015000022767,-2.1900000000019917,-250.32015000022767,250.32015000022767,-2.1900000000019917,-0.0109,-0.05,0.0061,-0.0109,-0.05,0.0061,-25.032015,-25.032015,-0.219,3.6150000000002365,3.6150000000002365,3.6150000000002365,3.6150000000002365,34.528279445,108.424972483,0.0,-0.0109,3.6150000000002365,51658.0
34.525144376,108.427565168,10.6566,0.0645771823237902,0.06091199089460211,2.239082897383525,-35.031380408380556,-4.187947011710178,-25.032015,25.032015,2.9180468520722602,-245.4119117650385,245.4119117650385,-2.147058823532322,-245.4119117650385,245.4119117650385,-2.147058823532322,-0.033,-0.05,0.0049,-0.033,-0.05,0.0049,-25.032015,-25.032015,-0.219,3.7170000000000982,3.7170000000000982,3.7170000000000982,3.7170000000000982,34.528279445,108.424972483,0.0,-0.033,3.7170000000000982,51658.0
34.525144376,108.427565168,10.6566,0.0603883921190038,0.056025068989017976,2.239257430308725,-35.05051006308474,-4.173862974984858,-25.032015,25.032015,2.6997561193738386,-250.32015000022767,250.32015000022767,-2.110000000001919,-250.32015000022767,250.32015000022767,-2.110000000001919,-0.0529,-0.04,0.0041,-0.0529,-0.04,0.0041,-25.032015,-25.032015,-0.211,3.8170000000000073,3.8170000000000073,3.8170000000000073,3.8170000000000073,34.528279445,108.424972483,0.0,-0.0529,3.8170000000000073,51658.0
34.525144376,108.427565168,10.6566,0.054279739737023644,0.05201081170943102,2.2394319632339243,-35.06925905271346,-4.1619287851159195,-25.032015,25.032015,2.4631267124832252,-250.32014999908935,250.32014999908935,-1.949999999992906,-250.32014999908935,250.32014999908935,-1.949999999992906,-0.0693,-0.04,0.0043,-0.0693,-0.04,0.0043,-25.032015,-25.032015,-0.195,3.917000000000371,3.917000000000371,3.917000000000371,3.917000000000371,34.528279445,108.424972483,0.0,-0.0693,3.917000000000371,51658.0
34.525144376,108.427565168,10.6566,0.04642575810304917,0.04852015320544236,2.2397810290843227,-35.089529391385405,-4.145058299171309,-25.032015,25.032015,2.1868499509617667,-250.32015000022767,250.32015000022767,-1.8800000000017099,-250.32015000022767,250.32015000022767,-1.8800000000017099,-0.0834,-0.03,0.0057,-0.0834,-0.03,0.0057,-25.032015,-25.032015,-0.188,4.01700000000028,4.01700000000028,4.01700000000028,4.01700000000028,34.528279445,108.424972483,0.0,-0.0834,4.01700000000028,51658.0
34.525144376,108.427565168,10.6566,0.03787364476827695,0.04590215932745086,2.2403046278599215,-35.10794089957131,-4.122896005509959,-25.032015,25.032015,1.9157672719849173,-247.8417326729906,247.8417326729906,-1.782178217819792,-247.8417326729906,247.8417326729906,-1.782178217819792,-0.0898,-0.02,0.007,-0.0898,-0.02,0.007,-25.032015,-25.032015,-0.18,4.118000000000393,4.118000000000393,4.118000000000393,4.118000000000393,34.528279445,108.424972483,0.0,-0.0898,4.118000000000393,51658.0
34.525144376,108.427565168,10.6566,0.02897246558310587,0.04415683007545653,2.241002759560719,-35.12431651726157,-4.0948422492951035,-25.032015,25.032015,1.6576459420108238,-250.32015000022767,250.32015000022767,-1.7200000000015643,-250.32015000022767,250.32015000022767,-1.7200000000015643,-0.0889,-0.01,0.0083,-0.0889,-0.01,0.0083,-25.032015,-25.032015,-0.172,4.218000000000302,4.218000000000302,4.218000000000302,4.218000000000302,34.528279445,108.424972483,0.0,-0.0889,4.218000000000302,51658.0
34.525144376,108.427565168,10.7191,0.02007128639793479,0.04293509959906051,2.2418754241867163,-35.13901353590134,-4.060162708296425,-25.032015,25.032015,1.4125340443156094,-247.8417326729906,247.8417326729906,-1.6237623762358107,-247.8417326729906,247.8417326729906,-1.6237623762358107,-0.0848,-0.01,0.0099,-0.0848,-0.01,0.0099,-25.032015,-25.032015,-0.164,4.319000000000415,4.319000000000415,4.319000000000415,4.319000000000415,34.528279445,108.424972483,0.0,-0.0848,4.319000000000415,51658.0
34.525144376,108.427565168,10.7191,0.012566370614359171,0.04241150082346221,2.242922621737913,-35.15086920891388,-4.019513582797915,-25.032015,25.032015,1.2197501121064007,-250.32015000022767,250.32015000022767,-1.560000000001419,-250.32015000022767,250.32015000022767,-1.560000000001419,-0.068,-0.0,0.0109,-0.068,-0.0,0.0109,-25.032015,-25.032015,-0.156,4.419000000000324,4.419000000000324,4.419000000000324,4.419000000000324,34.528279445,108.424972483,0.0,-0.068,4.419000000000324,51658.0
34.525144376,108.427565168,10.7191,0.006108652381980153,0.04258603374866164,2.2439698192891093,-35.16058610600515,-3.9789362126938657,-25.032015,25.032015,1.0626086852464462,-247.8417326729906,247.8417326729906,-1.54455445544382,-247.8417326729906,247.8417326729906,-1.54455445544382,-0.0603,0.0,0.0104,-0.0603,0.0,0.0104,-25.032015,-25.032015,-0.156,4.520000000000437,4.520000000000437,4.520000000000437,4.520000000000437,34.528279445,108.424972483,0.0,-0.0603,4.520000000000437,51658.0
34.525144376,108.427565168,10.7191,0.0008726646259971648,0.04328416544945937,2.245017016840306,-35.168080691526846,-3.938970234536467,-25.032015,25.032015,0.9571143537438903,-250.32015000022767,250.32015000022767,-1.480000000001346,-250.32015000022767,250.32015000022767,-1.480000000001346,-0.0414,0.01,0.01,-0.0414,0.01,0.01,-25.032015,-25.032015,-0.148,4.620000000000346,4.620000000000346,4.620000000000346,4.620000000000346,34.528279445,108.424972483,0.0,-0.0414,4.620000000000346,51658.0
34.525144376,108.427565168,10.7191,-0.0022689280275926286,0.044331363000655974,2.2458896814663034,-35.17287504006002,-3.906536150385822,-25.032015,25.032015,0.9117388016870851,-250.32015000022767,250.32015000022767,-1.4100000000012822,-250.32015000022767,250.32015000022767,-1.4100000000012822,-0.0219,0.01,0.0089,-0.0219,0.01,0.0089,-25.032015,-25.032015,-0.141,4.720000000000255,4.720000000000255,4.720000000000255,4.720000000000255,34.528279445,108.424972483,0.0,-0.0219,4.720000000000255,51658.0
34.525144376,108.427565168,10.7191,-0.003490658503988659,0.0460766922526503,2.2467623460923,-35.175665653213535,-3.876027910667568,-25.032015,25.032015,0.9328410419307039,-250.32015000022767,250.32015000022767,-1.3300000000012098,-250.32015000022767,250.32015000022767,-1.3300000000012098,-0.0044,0.02,0.0089,-0.0044,0.02,0.0089,-25.032015,-25.032015,-0.133,4.820000000000164,4.820000000000164,4.820000000000164,4.820000000000164,34.528279445,108.424972483,0.0,-0.0044,4.820000000000164,51658.0
34.525144376,108.427565168,10.7191,-0.003141592653589793,0.04799655442984406,2.247809543643497,-35.17799394691086,-3.8406621552790634,-25.032015,25.032015,0.9895933511097602,-245.4119117650385,245.4119117650385,-1.3039215686292183,-245.4119117650385,245.4119117650385,-1.3039215686292183,0.0109,0.02,0.0098,0.0109,0.02,0.0098,-25.032015,-25.032015,-0.133,4.9220000000000255,4.9220000000000255,4.9220000000000255,4.9220000000000255,34.528279445,108.424972483,0.0,0.0109,4.9220000000000255,51658.0
34.525144376,108.427565168,10.7191,-0.0013962634015954637,0.050265482457436686,2.248682208269494,-35.178031120816016,-3.8130452934527637,-25.032015,25.032015,1.0899775105145058,-250.32014999908935,250.32014999908935,-1.3299999999951615,-250.32014999908935,250.32014999908935,-1.3299999999951615,0.0231,0.02,0.0107,0.0231,0.02,0.0107,-25.032015,-25.032015,-0.133,5.022000000000389,5.022000000000389,5.022000000000389,5.022000000000389,34.528279445,108.424972483,0.0,0.0231,5.022000000000389,51658.0
34.525144376,108.427565168,10.7191,0.0013962634015954637,0.052708943410228755,2.24990393874589,-35.17756547296275,-3.7746422955850907,-25.032015,25.032015,1.228876664376577,-250.32015000022767,250.32015000022767,-1.2500000000011369,-250.32015000022767,250.32015000022767,-1.2500000000011369,0.0302,0.02,0.0119,0.0302,0.02,0.0119,-25.032015,-25.032015,-0.125,5.122000000000298,5.122000000000298,5.122000000000298,5.122000000000298,34.528279445,108.424972483,0.0,0.0302,5.122000000000298,51658.0
34.525144376,108.427565168,10.7191,0.00471238898038469,0.05515240436302082,2.251125669222286,-35.176302714650106,-3.7366013833727045,-25.032015,25.032015,1.372848261654305,-250.32015000022767,250.32015000022767,-1.2500000000011369,-250.32015000022767,250.32015000022767,-1.2500000000011369,0.034,0.02,0.0128,0.034,0.02,0.0128,-25.032015,-25.032015,-0.125,5.222000000000207,5.222000000000207,5.222000000000207,5.222000000000207,34.528279445,108.424972483,0.0,0.034,5.222000000000207,51658.0
34.525144376,108.427565168,10.6175,0.008203047484373348,0.05742133239061344,2.252521932623882,-35.17504263480684,-3.6925462847516797,-25.032015,25.032015,1.5167901947656206,-247.8417326729906,247.8417326729906,-1.2376237623748556,-247.8417326729906,247.8417326729906,-1.2376237623748556,0.0323,0.02,0.0132,0.0323,0.02,0.0132,-25.032015,-25.032015,-0.125,5.32300000000032,5.32300000000032,5.32300000000032,5.32300000000032,34.528279445,108.424972483,0.0,0.0323,5.32300000000032,51658.0
34.525144376,108.427565168,10.6175,0.01117010721276371,0.059341194567807204,2.253743663100278,-35.17359622629304,-3.653945297804837,-25.032015,25.032015,1.6388981636464264,-250.32015000022767,250.32015000022767,-1.2500000000011369,-250.32015000022767,250.32015000022767,-1.2500000000011369,0.0266,0.02,0.0132,0.0266,0.02,0.0132,-25.032015,-25.032015,-0.125,5.423000000000229,5.423000000000229,5.423000000000229,5.423000000000229,34.528279445,108.424972483,0.0,0.0266,5.423000000000229,51658.0
34.525144376,108.427565168,10.6175,0.013264502315156905,0.06091199089460211,2.2551399265018732,-35.17437737848953,-3.6079754934294153,-25.032015,25.032015,1.7224772262257377,-250.32015000022767,250.32015000022767,-1.3300000000012098,-250.32015000022767,250.32015000022767,-1.3300000000012098,0.0135,0.01,0.0128,0.0135,0.01,0.0128,-25.032015,-25.032015,-0.133,5.523000000000138,5.523000000000138,5.523000000000138,5.523000000000138,34.528279445,108.424972483,0.0,0.0135,5.523000000000138,51658.0
34.525144376,108.427565168,10.6175,0.014311699866353502,0.061784655520599266,2.256361656978269,-35.17619472529308,-3.5668096208978115,-25.032015,25.032015,1.7704329123083806,-247.8417326729906,247.8417326729906,-1.3168316831668465,-247.8417326729906,247.8417326729906,-1.3168316831668465,0.0042,0.01,0.0132,0.0042,0.01,0.0132,-25.032015,-25.032015,-0.133,5.624000000000251,5.624000000000251,5.624000000000251,5.624000000000251,34.528279445,108.424972483,0.0,0.0042,5.624000000000251,51658.0
34.525144376,108.427565168,10.6175,0.013962634015954637,0.06213372137099813,2.257757920379865,-35.18158490383044,-3.517570711608893,-25.032015,25.032015,1.7624445704336602,-247.8417326729906,247.8417326729906,-1.396039603958837,-247.8417326729906,247.8417326729906,-1.396039603958837,-0.011,0.0,0.0136,-0.011,0.0,0.0136,-25.032015,-25.032015,-0.141,5.725000000000364,5.725000000000364,5.725000000000364,5.725000000000364,34.528279445,108.424972483,0.0,-0.011,5.725000000000364,51658.0
34.525144376,108.427565168,10.6175,0.012740903539558606,0.061784655520599266,2.25915418378146,-35.18854428584629,-3.4670374192513327,-25.032015,25.032015,1.7232044269313733,-250.32015000022767,250.32015000022767,-1.4100000000012822,-250.32015000022767,250.32015000022767,-1.4100000000012822,-0.0171,-0.01,0.0151,-0.0171,-0.01,0.0151,-25.032015,-25.032015,-0.141,5.825000000000273,5.825000000000273,5.825000000000273,5.825000000000273,34.528279445,108.424972483,0.0,-0.0171,5.825000000000273,51658.0
34.525144376,108.427565168,10.6175,0.010821041362364843,0.061086523819801536,2.260724980108255,-35.19732099666101,-3.409357845514293,-25.032015,25.032015,1.657801152034342,-250.32015000022767,250.32015000022767,-1.4100000000012822,-250.32015000022767,250.32015000022767,-1.4100000000012822,-0.0204,-0.01,0.0162,-0.0204,-0.01,0.0162,-25.032015,-25.032015,-0.141,5.925000000000182,5.925000000000182,5.925000000000182,5.925000000000182,34.528279445,108.424972483,0.0,-0.0204,5.925000000000182,51658.0
34.525144376,108.427565168,10.6175,0.009250245035569947,0.05969026041820607,2.26229577643505,-35.20631447204475,-3.351242831618257,-25.032015,25.032015,1.5836741140366761,-250.32015000022767,250.32015000022767,-1.4100000000012822,-250.32015000022767,250.32015000022767,-1.4100000000012822,-0.0135,-0.02,0.0173,-0.0135,-0.02,0.0173,-25.032015,-25.032015,-0.141,6.025000000000091,6.025000000000091,6.025000000000091,6.025000000000091,34.528279445,108.424972483,0.0,-0.0135,6.025000000000091,51658.0
34.525144376,108.427565168,10.6175,0.008203047484373348,0.05811946409141117,2.264041105687044,-35.215222619582505,-3.2873104986860664,-25.032015,25.032015,1.5182609982881823,-247.8417326729906,247.8417326729906,-1.396039603958837,-247.8417326729906,247.8417326729906,-1.396039603958837,-0.0067,-0.02,0.0174,-0.0067,-0.02,0.0174,-25.032015,-25.032015,-0.141,6.126000000000204,6.126000000000204,6.126000000000204,6.126000000000204,34.528279445,108.424972483,0.0,-0.0067,6.126000000000204,51658.0
34.525144376,108.427565168,10.6175,0.00767944870877505,0.05619960191421741,2.2657864349390384,-35.22369466630637,-3.223558031120007,-25.032015,25.032015,1.4572023178927616,-247.8417326729906,247.8417326729906,-1.396039603958837,-247.8417326729906,247.8417326729906,-1.396039603958837,-0.0051,-0.02,0.0171,-0.0051,-0.02,0.0171,-25.032015,-25.032015,-0.141,6.2270000000003165,6.2270000000003165,6.2270000000003165,6.2270000000003165,34.528279445,108.424972483,0.0,-0.0051,6.2270000000003165,51658.0
34.525144376,108.427565168,10.4769,0.007330382858376184,0.05445427266222309,2.2673572312658337,-35.23064009933134,-3.166559299204084,-25.032015,25.032015,1.4128479452726022,-250.32015000022767,250.32015000022767,-1.3300000000012098,-250.32015000022767,250.32015000022767,-1.3300000000012098,-0.0071,-0.02,0.0162,-0.0071,-0.02,0.0162,-25.032015,-25.032015,-0.133,6.3270000000002256,6.3270000000002256,6.3270000000002256,6.3270000000002256,34.528279445,108.424972483,0.0,-0.0071,6.3270000000002256,51658.0
34.525144376,108.427565168,10.4769,0.0066322511575784525,0.052708943410228755,2.269102560517828,-35.23869661296653,-3.1029349309073178,-25.032015,25.032015,1.3517746684657557,-250.32015000022767,250.32015000022767,-1.3300000000012098,-250.32015000022767,250.32015000022767,-1.3300000000012098,-0.0094,-0.02,0.0157,-0.0094,-0.02,0.0157,-25.032015,-25.032015,-0.133,6.427000000000135,6.427000000000135,6.427000000000135,6.427000000000135,34.528279445,108.424972483,0.0,-0.0094,6.427000000000135,51658.0
34.525144376,108.427565168,10.4769,0.005235987755982988,0.05113814708343386,2.2706733568446227,-35.24650841373927,-3.0450962829015498,-25.032015,25.032015,1.2776040812847818,-247.8417326729906,247.8417326729906,-1.3168316831668465,-247.8417326729906,247.8417326729906,-1.3168316831668465,-0.0193,-0.01,0.0152,-0.0193,-0.01,0.0152,-25.032015,-25.032015,-0.133,6.528000000000247,6.528000000000247,6.528000000000247,6.528000000000247,34.528279445,108.424972483,0.0,-0.0193,6.528000000000247,51658.0
34.525144376,108.427565168,10.4769,0.0033161255787892262,0.04974188368183839,2.2720696202462185,-35.25354259317488,-2.9934012825722838,-25.032015,25.032015,1.202687953356606,-250.32015000022767,250.32015000022767,-1.2500000000011369,-250.32015000022767,250.32015000022767,-1.2500000000011369,-0.0185,-0.01,0.0154,-0.0185,-0.01,0.0154,-25.032015,-25.032015,-0.125,6.628000000000156,6.628000000000156,6.628000000000156,6.628000000000156,34.528279445,108.424972483,0.0,-0.0185,6.628000000000156,51658.0
34.525144376,108.427565168,10.4769,0.0015707963267948964,0.048869219055841226,2.2736404165730133,-35.260551077098,-2.935884667026467,-25.032015,25.032015,1.1372307952797045,-250.32015000022767,250.32015000022767,-1.2500000000011369,-250.32015000022767,250.32015000022767,-1.2500000000011369,-0.0196,-0.01,0.0159,-0.0196,-0.01,0.0159,-25.032015,-25.032015,-0.125,6.7280000000000655,6.7280000000000655,6.7280000000000655,6.7280000000000655,34.528279445,108.424972483,0.0,-0.0196,6.7280000000000655,51658.0
34.525144376,108.427565168,10.4769,-0.00034906585039886593,0.04817108735504349,2.2753857458250075,-35.267556661334055,-2.872420921359798,-25.032015,25.032015,1.07976113588898,-250.32014999908935,250.32014999908935,-1.1699999999957436,-250.32014999908935,250.32014999908935,-1.1699999999957436,-0.0213,-0.0,0.0165,-0.0213,-0.0,0.0165,-25.032015,-25.032015,-0.117,6.828000000000429,6.828000000000429,6.828000000000429,6.828000000000429,34.528279445,108.424972483,0.0,-0.0213,6.828000000000429,51658.0
34.525144376,108.427565168,10.4769,-0.0022689280275926286,0.04817108735504349,2.2769565421518023,-35.273599254749925,-2.8152988252021403,-25.032015,25.032015,1.031759206681229,-245.4119117650385,245.4119117650385,-1.1470588235309664,-245.4119117650385,245.4119117650385,-1.1470588235309664,-0.0197,0.0,0.0172,-0.0197,0.0,0.0172,-25.032015,-25.032015,-0.117,6.930000000000291,6.930000000000291,6.930000000000291,6.930000000000291,34.528279445,108.424972483,0.0,-0.0197,6.930000000000291,51658.0
34.525144376,108.427565168,10.4769,-0.0041887902047863905,0.0486946861306418,2.2787018714037965,-35.27930226251355,-2.7525531077997485,-25.032015,25.032015,1.0048453509863147,-250.32015000022767,250.32015000022767,-1.0900000000009913,-250.32015000022767,250.32015000022767,-1.0900000000009913,-0.0168,0.01,0.0174,-0.0168,0.01,0.0174,-25.032015,-25.032015,-0.109,7.0300000000002,7.0300000000002,7.0300000000002,7.0300000000002,34.528279445,108.424972483,0.0,-0.0168,7.0300000000002,51658.0
34.525144376,108.427565168,10.4769,-0.005585053606381855,0.04974188368183839,2.2804472006557908,-35.28435179162504,-2.6902922160701794,-25.032015,25.032015,0.9961311948980072,-250.32015000022767,250.32015000022767,-1.0900000000009913,-250.32015000022767,250.32015000022767,-1.0900000000009913,-0.0165,0.01,0.0168,-0.0165,0.01,0.0168,-25.032015,-25.032015,-0.109,7.130000000000109,7.130000000000109,7.130000000000109,7.130000000000109,34.528279445,108.424972483,0.0,-0.0165,7.130000000000109,51658.0
34.525144376,108.427565168,10.4769,-0.007330382858376184,0.05166174585903215,2.282017996982586,-35.28845112560698,-2.6343124041673893,-25.032015,25.032015,1.0005229799194368,-250.32015000022767,250.32015000022767,-1.0900000000009913,-250.32015000022767,250.32015000022767,-1.0900000000009913,-0.019,0.02,0.0156,-0.019,0.02,0.0156,-25.032015,-25.032015,-0.109,7.230000000000018,7.230000000000018,7.230000000000018,7.230000000000018,34.528279445,108.424972483,0.0,-0.019,7.230000000000018,51658.0
34.525144376,108.427565168,10.4144,-0.009075712110370514,0.054105206811824215,2.283414260384181,-35.29137261064485,-2.5850209272032854,-25.032015,25.032015,1.0250073087533813,-247.8417326729906,247.8417326729906,-1.0099009900978821,-247.8417326729906,247.8417326729906,-1.0099009900978821,-0.0192,0.03,0.0145,-0.0192,0.03,0.0145,-25.032015,-25.032015,-0.102,7.331000000000131,7.331000000000131,7.331000000000131,7.331000000000131,34.528279445,108.424972483,0.0,-0.0192,7.331000000000131,51658.0
34.525144376,108.427565168,10.4144,-0.01117010721276371,0.05742133239061344,2.2848105237857768,-35.294061047134825,-2.5355256881166635,-25.032015,25.032015,1.0556127161373963,-250.32015000022767,250.32015000022767,-1.0200000000009277,-250.32015000022767,250.32015000022767,-1.0200000000009277,-0.0221,0.03,0.0137,-0.0221,0.03,0.0137,-25.032015,-25.032015,-0.102,7.43100000000004,7.43100000000004,7.43100000000004,7.43100000000004,34.528279445,108.424972483,0.0,-0.0221,7.43100000000004,51658.0
34.525144376,108.427565168,10.4144,-0.013089969389957472,0.061086523819801536,2.2862067871873726,-35.29622315041594,-2.4863794345095642,-25.032015,25.032015,1.0993191275236354,-250.32014999908935,250.32014999908935,-1.0199999999962892,-250.32014999908935,250.32014999908935,-1.0199999999962892,-0.0178,0.04,0.0135,-0.0178,0.04,0.0135,-25.032015,-25.032015,-0.102,7.531000000000404,7.531000000000404,7.531000000000404,7.531000000000404,34.528279445,108.424972483,0.0,-0.0178,7.531000000000404,51658.0
34.525144376,108.427565168,10.4144,-0.014660765716752368,0.06527531402458793,2.2874285176637685,-35.297066965157505,-2.4442073025964426,-25.032015,25.032015,1.1648468738726159,-247.84173267410648,247.84173267410648,-1.0099009901024292,-247.84173267410648,247.84173267410648,-1.0099009901024292,-0.0147,0.04,0.0132,-0.0147,0.04,0.0132,-25.032015,-25.032015,-0.102,7.632000000000062,7.632000000000062,7.632000000000062,7.632000000000062,34.528279445,108.424972483,0.0,-0.0147,7.632000000000062,51658.0
34.525144376,108.427565168,10.4144,-0.015707963267948967,0.06963863715457375,2.288650248140164,-35.2970607315542,-2.403001957173919,-25.032015,25.032015,1.24781377907234,-247.8417326729906,247.8417326729906,-1.0099009900978821,-247.8417326729906,247.8417326729906,-1.0099009900978821,-0.0051,0.05,0.0135,-0.0051,0.05,0.0135,-25.032015,-25.032015,-0.102,7.733000000000175,7.733000000000175,7.733000000000175,7.733000000000175,34.528279445,108.424972483,0.0,-0.0051,7.733000000000175,51658.0
34.525144376,108.427565168,10.4144,-0.015707963267948967,0.07435102613495843,2.29004651154176,-35.29574902841244,-2.3577725289444897,-25.032015,25.032015,1.3656365349267876,-250.32015000022767,250.32015000022767,-1.0200000000009277,-250.32015000022767,250.32015000022767,-1.0200000000009277,0.0031,0.05,0.0138,0.0031,0.05,0.0138,-25.032015,-25.032015,-0.102,7.833000000000084,7.833000000000084,7.833000000000084,7.833000000000084,34.528279445,108.424972483,0.0,0.0031,7.833000000000084,51658.0
34.525144376,108.427565168,10.4144,-0.014835298641951801,0.07906341511534314,2.291268242018156,-35.29254096595099,-2.32053331831569,-25.032015,25.032015,1.505201383771464,-250.32015000022767,250.32015000022767,-1.0200000000009277,-250.32015000022767,250.32015000022767,-1.0200000000009277,0.0108,0.05,0.0139,0.0108,0.05,0.0139,-25.032015,-25.032015,-0.102,7.932999999999993,7.932999999999993,7.932999999999993,7.932999999999993,34.528279445,108.424972483,0.0,0.0108,7.932999999999993,51658.0
34.525144376,108.427565168,10.4144,-0.013264502315156905,0.08360127117052839,2.2926645054197516,-35.28843368461975,-2.278641008173148,-25.032015,25.032015,1.6577687301054527,-250.32014999908935,250.32014999908935,-1.0199999999962892,-250.32014999908935,250.32014999908935,-1.0199999999962892,0.019,0.04,0.0142,0.019,0.04,0.0142,-25.032015,-25.032015,-0.102,8.033000000000357,8.033000000000357,8.033000000000357,8.033000000000357,34.528279445,108.424972483,0.0,0.019,8.033000000000357,51658.0
34.525144376,108.427565168,10.4144,-0.010995574287564275,0.0879645943005142,2.2940607688213466,-35.282849254000844,-2.238303332472626,-25.032015,25.032015,1.8233213188420219,-245.4119117650385,245.4119117650385,-1.0000000000013554,-245.4119117650385,245.4119117650385,-1.0000000000013554,0.0251,0.04,0.014,0.0251,0.04,0.014,-25.032015,-25.032015,-0.102,8.135000000000218,8.135000000000218,8.135000000000218,8.135000000000218,34.528279445,108.424972483,0.0,0.0251,8.135000000000218,51658.0
34.525144376,108.427565168,10.4144,-0.008203047484373348,0.09232791743050003,2.2952824992977425,-35.27522975227964,-2.205612410396765,-25.032015,25.032015,2.001847581470682,-250.32015000022767,250.32015000022767,-1.0200000000009277,-250.32015000022767,250.32015000022767,-1.0200000000009277,0.027,0.04,0.0142,0.027,0.04,0.0142,-25.032015,-25.032015,-0.102,8.235000000000127,8.235000000000127,8.235000000000127,8.235000000000127,34.528279445,108.424972483,0.0,0.027,8.235000000000127,51658.0
34.525144376,108.427565168,10.3831,-0.0054105206811824215,0.09634217471008698,2.2968532956245378,-35.26796817033648,-2.160701164472853,-25.032015,25.032015,2.171576739244599,-250.32015000022767,250.32015000022767,-1.0200000000009277,-250.32015000022767,250.32015000022767,-1.0200000000009277,0.0245,0.04,0.0139,0.0245,0.04,0.0139,-25.032015,-25.032015,-0.102,8.335000000000036,8.335000000000036,8.335000000000036,8.335000000000036,34.528279445,108.424972483,0.0,0.0245,8.335000000000036,51658.0
34.525144376,108.427565168,10.3831,-0.003141592653589793,0.10018189906447451,2.298075026100934,-35.2602880243016,-2.127408165127303,-25.032015,25.032015,2.323828062205286,-250.32014999908935,250.32014999908935,-1.0199999999962892,-250.32014999908935,250.32014999908935,-1.0199999999962892,0.0189,0.04,0.0135,0.0189,0.04,0.0135,-25.032015,-25.032015,-0.102,8.4350000000004,8.4350000000004,8.4350000000004,8.4350000000004,34.528279445,108.424972483,0.0,0.0189,8.4350000000004,51658.0
34.525144376,108.427565168,10.3831,-0.0013962634015954637,0.10367255756846318,2.299471289502529,-35.253870488606864,-2.0868933391648454,-25.032015,25.032015,2.4542709067936785,-245.4119117650385,245.4119117650385,-1.0000000000013554,-245.4119117650385,245.4119117650385,-1.0000000000013554,0.0126,0.03,0.0136,0.0126,0.03,0.0136,-25.032015,-25.032015,-0.102,8.537000000000262,8.537000000000262,8.537000000000262,8.537000000000262,34.528279445,108.424972483,0.0,0.0126,8.537000000000262,51658.0
34.525144376,108.427565168,10.3831,-0.00034906585039886593,0.10716321607245183,2.3008675529041245,-35.24761501961349,-2.04602163420394,-25.032015,25.032015,2.5752314113371084,-250.32015000022767,250.32015000022767,-0.9400000000008549,-250.32015000022767,250.32015000022767,-0.9400000000008549,0.0073,0.03,0.0139,0.0073,0.03,0.0139,-25.032015,-25.032015,-0.094,8.637000000000171,8.637000000000171,8.637000000000171,8.637000000000171,34.528279445,108.424972483,0.0,0.0073,8.637000000000171,51658.0
34.525144376,108.427565168,10.3831,0.00034906585039886593,0.11047934165124106,2.30226381630572,-35.242590243592176,-2.003936246624726,-25.032015,25.032015,2.67515576409578,-250.32015000022767,250.32015000022767,-0.9400000000008549,-250.32015000022767,250.32015000022767,-0.9400000000008549,0.0019,0.03,0.014,0.0019,0.03,0.014,-25.032015,-25.032015,-0.094,8.73700000000008,8.73700000000008,8.73700000000008,8.73700000000008,34.528279445,108.424972483,0.0,0.0019,8.73700000000008,51658.0
34.525144376,108.427565168,10.3831,0.00034906585039886593,0.11362093430483085,2.3036600797073157,-35.239016077809936,-1.9604309791029675,-25.032015,25.032015,2.7533329192956373,-250.32014999908935,250.32014999908935,-0.9399999999965803,-250.32014999908935,250.32014999908935,-0.9399999999965803,-0.0006,0.03,0.0144,-0.0006,0.03,0.0144,-25.032015,-25.032015,-0.094,8.837000000000444,8.837000000000444,8.837000000000444,8.837000000000444,34.528279445,108.424972483,0.0,-0.0006,8.837000000000444,51658.0
34.525144376,108.427565168,10.3831,0.0005235987755982988,0.11693705988362008,2.305056343108911,-35.23377539207441,-1.9184100791961165,-25.032015,25.032015,2.8481081983204093,-247.84173267410648,247.84173267410648,-0.8514851485177344,-247.84173267410648,247.84173267410648,-0.8514851485177344,-0.0009,0.03,0.0145,-0.0009,0.03,0.0145,-25.032015,-25.032015,-0.086,8.938000000000102,8.938000000000102,8.938000000000102,8.938000000000102,34.528279445,108.424972483,0.0,-0.0009,8.938000000000102,51658.0
34.525144376,108.427565168,10.3831,0.0006981317007977319,0.1202531854624093,2.306627139435706,-35.22926268523804,-1.869854655867326,-25.032015,25.032015,2.934900363023599,-250.32015000022767,250.32015000022767,-0.8600000000007821,-250.32015000022767,250.32015000022767,-0.8600000000007821,-0.0001,0.04,0.0144,-0.0001,0.04,0.0144,-25.032015,-25.032015,-0.086,9.038000000000011,9.038000000000011,9.038000000000011,9.038000000000011,34.528279445,108.424972483,0.0,-0.0001,9.038000000000011,51658.0
34.525144376,108.427565168,10.3831,0.0006981317007977319,0.12391837689159739,2.3080234028373017,-35.22375178519019,-1.8280069913567778,-25.032015,25.032015,3.025995131409047,-250.32014999908935,250.32014999908935,-0.8599999999968713,-250.32014999908935,250.32014999908935,-0.8599999999968713,-0.0024,0.04,0.0141,-0.0024,0.04,0.0141,-25.032015,-25.032015,-0.086,9.138000000000375,9.138000000000375,9.138000000000375,9.138000000000375,34.528279445,108.424972483,0.0,-0.0024,9.138000000000375,51658.0
34.525144376,108.427565168,10.3831,0.0005235987755982988,0.12793263417118436,2.3094196662388966,-35.21754411754912,-1.7867522547278745,-25.032015,25.032015,3.1213856905477573,-247.84173267410648,247.84173267410648,-0.8514851485177344,-247.84173267410648,247.84173267410648,-0.8514851485177344,-0.0042,0.04,0.0139,-0.0042,0.04,0.0139,-25.032015,-25.032015,-0.086,9.239000000000033,9.239000000000033,9.239000000000033,9.239000000000033,34.528279445,108.424972483,0.0,-0.0042,9.239000000000033,51658.0
34.525144376,108.427565168,10.3753,0.00017453292519943296,0.1322959573011702,2.3108159296404924,-35.20982527274469,-1.7468341191735826,-25.032015,25.032015,3.228995005157305,-247.8417326729906,247.8417326729906,-0.77227722772191,-247.8417326729906,247.8417326729906,-0.77227722772191,-0.0053,0.05,0.014,-0.0053,0.05,0.014,-25.032015,-25.032015,-0.078,9.340000000000146,9.340000000000146,9.340000000000146,9.340000000000146,34.528279445,108.424972483,0.0,-0.0053,9.340000000000146,51658.0
34.528396999,108.424930851,10.3753,-0.00017453292519943296,0.13700834628155487,2.312212193042088,-35.202471219101774,-1.7065674332980498,-25.032015,25.032015,3.3293533282558494,-250.32015000022767,250.32015000022767,-0.8600000000007821,-250.32015000022767,250.32015000022767,-0.8600000000007821,-0.0073,0.05,0.014,-0.0073,0.05,0.014,-25.032015,-25.032015,-0.086,9.440000000000055,9.440000000000055,9.440000000000055,9.440000000000055,34.528396999,108.424930851,0.0,-0.0073,9.440000000000055,52023.0
34.528396999,108.424930851,10.3753,-0.0006981317007977319,0.14224433403753786,2.313608456443683,-35.19306334710471,-1.6681403678700641,-25.032015,25.032015,3.4462364805983174,-250.32014999908935,250.32014999908935,-0.8599999999968713,-250.32014999908935,250.32014999908935,-0.8599999999968713,-0.0068,0.05,0.0141,-0.0068,0.05,0.0141,-25.032015,-25.032015,-0.086,9.540000000000418,9.540000000000418,9.540000000000418,9.540000000000418,34.528396999,108.424930851,0.0,-0.0068,9.540000000000418,52023.0
34.528396999,108.424930851,10.3753,-0.0010471975511965976,0.1476548547187203,2.3150047198452786,-35.18143492955126,-1.6317812442762545,-25.032015,25.032015,3.5796033563830334,-250.32015000022767,250.32015000022767,-0.7800000000007095,-250.32015000022767,250.32015000022767,-0.7800000000007095,-0.0067,0.06,0.0141,-0.0067,0.06,0.0141,-25.032015,-25.032015,-0.078,9.640000000000327,9.640000000000327,9.640000000000327,9.640000000000327,34.528396999,108.424930851,0.0,-0.0067,9.640000000000327,52023.0
34.528396999,108.424930851,10.3753,-0.0015707963267948964,0.15341444125030154,2.316400983246874,-35.169662458107155,-1.5955213603047707,-25.032015,25.032015,3.7092840403599174,-247.8417326729906,247.8417326729906,-0.77227722772191,-247.8417326729906,247.8417326729906,-0.77227722772191,-0.0076,0.06,0.0139,-0.0076,0.06,0.0139,-25.032015,-25.032015,-0.078,9.74100000000044,9.74100000000044,9.74100000000044,9.74100000000044,34.528396999,108.424930851,0.0,-0.0076,9.74100000000044,52023.0
34.528396999,108.424930851,10.3753,-0.0020943951023931952,0.15969762655748115,2.3177972466484698,-35.154960261732434,-1.5619937187659652,-25.032015,25.032015,3.8597143079506213,-247.84173267410648,247.84173267410648,-0.6930693069330398,-247.84173267410648,247.84173267410648,-0.6930693069330398,-0.0087,0.06,0.0135,-0.0087,0.06,0.0135,-25.032015,-25.032015,-0.07,9.842000000000098,9.842000000000098,9.842000000000098,9.842000000000098,34.528396999,108.424930851,0.0,-0.0087,9.842000000000098,52023.0
34.528396999,108.424930851,10.3753,-0.0029670597283903604,0.16598081186466074,2.319193510050065,-35.14154393988705,-1.5271997419746373,-25.032015,25.032015,3.9934947589236356,-250.32015000022767,250.32015000022767,-0.7000000000006367,-250.32015000022767,250.32015000022767,-0.7000000000006367,-0.0093,0.06,0.0129,-0.0093,0.06,0.0129,-25.032015,-25.032015,-0.07,9.942000000000007,9.942000000000007,9.942000000000007,9.942000000000007,34.528396999,108.424930851,0.0,-0.0093,9.942000000000007,52023.0
34.528396999,108.424930851,10.3753,-0.0033161255787892262,0.1726130630222392,2.320415240526461,-35.12466271234804,-1.5016211663694858,-25.032015,25.032015,4.14869294319896,-250.32014999908935,250.32014999908935,-0.6999999999974534,-250.32014999908935,250.32014999908935,-0.6999999999974534,-0.0028,0.07,0.0128,-0.0028,0.07,0.0128,-25.032015,-25.032015,-0.07,10.042000000000371,10.042000000000371,10.042000000000371,10.042000000000371,34.528396999,108.424930851,0.0,-0.0028,10.042000000000371,52023.0
34.528396999,108.424930851,10.3753,-0.0033161255787892262,0.17924531417981765,2.3216369710028575,-35.10595750232347,-1.4778497924378264,-25.032015,25.032015,4.312326258123336,-247.84173267410648,247.84173267410648,-0.6930693069330398,-247.84173267410648,247.84173267410648,-0.6930693069330398,-0.0017,0.06,0.0124,-0.0017,0.06,0.0124,-25.032015,-25.032015,-0.07,10.143000000000029,10.143000000000029,10.143000000000029,10.143000000000029,34.528396999,108.424930851,0.0,-0.0017,10.143000000000029,52023.0
34.528396999,108.424930851,10.3753,-0.0027925268031909274,0.18570303241219668,2.3228587014792534,-35.08530991144964,-1.456043092051958,-25.032015,25.032015,4.4843524451220285,-250.32014999908935,250.32014999908935,-0.6999999999974534,-250.32014999908935,250.32014999908935,-0.6999999999974534,0.0075,0.06,0.0122,0.0075,0.06,0.0122,-25.032015,-25.032015,-0.07,10.243000000000393,10.243000000000393,10.243000000000393,10.243000000000393,34.528396999,108.424930851,0.0,0.0075,10.243000000000393,52023.0
34.528396999,108.424930851,10.4222,-0.0017453292519943296,0.19181168479417682,2.324080431955649,-35.06319120391049,-1.4357446616723473,-25.032015,25.032015,4.6604409431879485,-250.32015000022767,250.32015000022767,-0.7000000000006367,-250.32015000022767,250.32015000022767,-0.7000000000006367,0.0104,0.06,0.0119,0.0104,0.06,0.0119,-25.032015,-25.032015,-0.07,10.343000000000302,10.343000000000302,10.343000000000302,10.343000000000302,34.528396999,108.424930851,0.0,0.0104,10.343000000000302,52023.0
34.528400224,108.424934396,10.4222,-0.00017453292519943296,0.19774580425095753,2.325302162432045,-35.0389263692178,-1.4175429962901258,-25.032015,25.032015,4.844859199879038,-250.32015000022767,250.32015000022767,-0.7000000000006367,-250.32015000022767,250.32015000022767,-0.7000000000006367,0.0183,0.06,0.0121,0.0183,0.06,0.0121,-25.032015,-25.032015,-0.07,10.443000000000211,10.443000000000211,10.443000000000211,10.443000000000211,34.528400224,108.424934396,0.0,0.0183,10.443000000000211,52024.0
34.528400224,108.424934396,10.4222,0.0027925268031909274,0.20612338466053032,2.327222024609239,-35.00286985880739,-1.3870165895294415,-25.032015,25.032015,5.107468311033808,-245.4119117650385,245.4119117650385,-0.8431372549031034,-245.4119117650385,245.4119117650385,-0.8431372549031034,0.0149,0.05,0.0116,0.0149,0.05,0.0116,-25.032015,-25.032015,-0.086,10.545000000000073,10.545000000000073,10.545000000000073,10.545000000000073,34.528400224,108.424934396,0.0,0.0149,10.545000000000073,52024.0
34.528400224,108.424934396,10.4222,0.004363323129985824,0.21135937241651329,2.3282692221604355,-34.98111806658809,-1.372374338270692,-25.032015,25.032015,5.258509428300947,-250.32014999908935,250.32014999908935,-1.0199999999962892,-250.32014999908935,250.32014999908935,-1.0199999999962892,0.0102,0.05,0.0118,0.0102,0.05,0.0118,-25.032015,-25.032015,-0.102,10.645000000000437,10.645000000000437,10.645000000000437,10.645000000000437,34.528400224,108.424934396,0.0,0.0102,10.645000000000437,52024.0
34.528400224,108.424934396,10.4222,0.005235987755982988,0.21607176139689802,2.3294909526368315,-34.96229224453691,-1.3490755089096569,-25.032015,25.032015,5.388278686120942,-247.84173267410648,247.84173267410648,-1.0792079207957332,-247.84173267410648,247.84173267410648,-1.0792079207957332,0.001,0.05,0.0121,0.001,0.05,0.0121,-25.032015,-25.032015,-0.109,10.746000000000095,10.746000000000095,10.746000000000095,10.746000000000095,34.528400224,108.424934396,0.0,0.001,10.746000000000095,52024.0
34.528400224,108.424934396,10.4222,0.0054105206811824215,0.2207841503772827,2.3308872160384273,-34.947444763106986,-1.3162438804240317,-25.032015,25.032015,5.492065321651089,-250.32015000022767,250.32015000022767,-1.2500000000011369,-250.32015000022767,250.32015000022767,-1.2500000000011369,-0.0045,0.05,0.0128,-0.0045,0.05,0.0128,-25.032015,-25.032015,-0.125,10.846000000000004,10.846000000000004,10.846000000000004,10.846000000000004,34.528400224,108.424934396,0.0,-0.0045,10.846000000000004,52024.0
34.528400224,108.424934396,10.4222,0.005061454830783556,0.22514747350726852,2.3322834794400227,-34.93446923279213,-1.2815945319090325,-25.032015,25.032015,5.582258843813188,-247.8417326729906,247.8417326729906,-1.3168316831668465,-247.8417326729906,247.8417326729906,-1.3168316831668465,-0.0066,0.04,0.0136,-0.0066,0.04,0.0136,-25.032015,-25.032015,-0.133,10.947000000000116,10.947000000000116,10.947000000000116,10.947000000000116,34.528400224,108.424934396,0.0,-0.0066,10.947000000000116,52024.0
34.528400224,108.424934396,10.4222,0.004537856055185257,0.22951079663725435,2.333679742841618,-34.92194167434884,-1.24651034058494,-25.032015,25.032015,5.668124256281169,-250.32015000022767,250.32015000022767,-1.4100000000012822,-250.32015000022767,250.32015000022767,-1.4100000000012822,-0.0096,0.04,0.0144,-0.0096,0.04,0.0144,-25.032015,-25.032015,-0.141,11.047000000000025,11.047000000000025,11.047000000000025,11.047000000000025,34.528400224,108.424934396,0.0,-0.0096,11.047000000000025,52024.0
34.528400224,108.424934396,10.4222,0.004014257279586958,0.23387411976724015,2.3352505391684133,-34.90920901665078,-1.205714394567669,-25.032015,25.032015,5.754896397935498,-250.32014999908935,250.32014999908935,-1.4799999999946156,-250.32014999908935,250.32014999908935,-1.4799999999946156,-0.0112,0.04,0.0152,-0.0112,0.04,0.0152,-25.032015,-25.032015,-0.148,11.14700000000039,11.14700000000039,11.14700000000039,11.14700000000039,34.528400224,108.424934396,0.0,-0.0112,11.14700000000039,52024.0
34.528400224,108.424934396,10.5394,0.003141592653589793,0.23841197582242543,2.3368213354952077,-34.8971203817932,-1.164251379069328,-25.032015,25.032015,5.836385328730289,-250.32015000022767,250.32015000022767,-1.560000000001419,-250.32015000022767,250.32015000022767,-1.560000000001419,-0.0122,0.05,0.016,-0.0122,0.05,0.016,-25.032015,-25.032015,-0.156,11.247000000000298,11.247000000000298,11.247000000000298,11.247000000000298,34.528400224,108.424934396,0.0,-0.0122,11.247000000000298,52024.0
34.528400224,108.424934396,10.5394,0.0024434609527920616,0.24329889772800953,2.3385666647472023,-34.88275711158889,-1.119062187634238,-25.032015,25.032015,5.93054820691583,-245.4119117650385,245.4119117650385,-1.6078431372570812,-245.4119117650385,245.4119117650385,-1.6078431372570812,-0.0095,0.05,0.0169,-0.0095,0.05,0.0169,-25.032015,-25.032015,-0.164,11.34900000000016,11.34900000000016,11.34900000000016,11.34900000000016,34.528400224,108.424934396,0.0,-0.0095,11.34900000000016,52024.0
34.528409526,108.424917551,10.5394,0.0019198621771937625,0.2483603525587931,2.3403119939991965,-34.86657105523896,-1.075640747562046,-25.032015,25.032015,6.0331048186325065,-250.32015000022767,250.32015000022767,-1.7200000000015643,-250.32015000022767,250.32015000022767,-1.7200000000015643,-0.0096,0.05,0.0175,-0.0096,0.05,0.0175,-25.032015,-25.032015,-0.172,11.44900000000007,11.44900000000007,11.44900000000007,11.44900000000007,34.528409526,108.424917551,0.0,-0.0096,11.44900000000007,52025.0
34.528409526,108.424917551,10.5394,0.0012217304763960308,0.2537708732399755,2.3420573232511908,-34.84781624562901,-1.034661577160875,-25.032015,25.032015,6.147545221637071,-250.32014999908935,250.32014999908935,-1.7199999999937425,-250.32014999908935,250.32014999908935,-1.7199999999937425,-0.0133,0.05,0.0176,-0.0133,0.05,0.0176,-25.032015,-25.032015,-0.172,11.549000000000433,11.549000000000433,11.549000000000433,11.549000000000433,34.528409526,108.424917551,0.0,-0.0133,11.549000000000433,52025.0
34.528409526,108.424917551,10.5394,0.00034906585039886593,0.2591813939211579,2.343977185428385,-34.82959339002713,-0.9872296756310329,-25.032015,25.032015,6.257630204269219,-250.32015000022767,250.32015000022767,-1.7200000000015643,-250.32015000022767,250.32015000022767,-1.7200000000015643,-0.0139,0.06,0.0179,-0.0139,0.06,0.0179,-25.032015,-25.032015,-0.172,11.649000000000342,11.649000000000342,11.649000000000342,11.649000000000342,34.528409526,108.424917551,0.0,-0.0139,11.649000000000342,52025.0
34.528409526,108.424917551,10.5394,-0.0005235987755982988,0.26511551337793865,2.345722514680379,-34.8084108376757,-0.9486052082198346,-25.032015,25.032015,6.380267787089264,-247.84173267410648,247.84173267410648,-1.7029702970354688,-247.84173267410648,247.84173267410648,-1.7029702970354688,-0.0168,0.06,0.0179,-0.0168,0.06,0.0179,-25.032015,-25.032015,-0.172,11.75,11.75,11.75,11.75,34.528409526,108.424917551,0.0,-0.0168,11.75,52025.0
34.528409526,108.424917551,10.5394,-0.0020943951023931952,0.2708750999095199,2.3476423768575727,-34.79095321507151,-0.900213903395797,-25.032015,25.032015,6.481691386921183,-250.32014999908935,250.32014999908935,-1.7199999999937425,-250.32014999908935,250.32014999908935,-1.7199999999937425,-0.0207,0.06,0.0179,-0.0207,0.06,0.0179,-25.032015,-25.032015,-0.172,11.850000000000364,11.850000000000364,11.850000000000364,11.850000000000364,34.528409526,108.424917551,0.0,-0.0207,11.850000000000364,52025.0
34.528409526,108.424917551,10.5394,-0.003665191429188092,0.2769837522915001,2.3495622390347664,-34.77303424244832,-0.8521636809823538,-25.032015,25.032015,6.583757024281904,-250.32015000022767,250.32015000022767,-1.800000000001637,-250.32015000022767,250.32015000022767,-1.800000000001637,-0.0221,0.06,0.0178,-0.0221,0.06,0.0178,-25.032015,-25.032015,-0.18,11.950000000000273,11.950000000000273,11.950000000000273,11.950000000000273,34.528409526,108.424917551,0.0,-0.0221,11.950000000000273,52025.0
34.528409526,108.424917551,10.5394,-0.005585053606381855,0.2829178717482808,2.3513075682867606,-34.755538779683334,-0.8094185492258471,-25.032015,25.032015,6.680816990948556,-247.8417326729906,247.8417326729906,-1.782178217819792,-247.8417326729906,247.8417326729906,-1.782178217819792,-0.0272,0.06,0.0176,-0.0272,0.06,0.0176,-25.032015,-25.032015,-0.18,12.051000000000386,12.051000000000386,12.051000000000386,12.051000000000386,34.528409526,108.424917551,0.0,-0.0272,12.051000000000386,52025.0
34.528409526,108.424917551,10.5394,-0.007853981633974483,0.28885199120506155,2.353052897538755,-34.74096651489546,-0.7633873640528146,-25.032015,25.032015,6.761758592538339,-247.84173267410648,247.84173267410648,-1.8613861386201638,-247.84173267410648,247.84173267410648,-1.8613861386201638,-0.0275,0.06,0.0175,-0.0275,0.06,0.0175,-25.032015,-25.032015,-0.188,12.152000000000044,12.152000000000044,12.152000000000044,12.152000000000044,34.528409526,108.424917551,0.0,-0.0275,12.152000000000044,52025.0
